[
  {
    "Route": "281",
    "SubRoute": "281",
    "Direction": 0,
    "Stops": [
      {
        "Name": "南寮(忠三街口)",
        "Lat": 25.079068,
        "Lon": 121.623553,
        "Sequence": 1,
        "StationID": "50446"
      },
      {
        "Name": "康湖隧道口(白馬山莊)",
        "Lat": 25.0773157481393,
        "Lon": 121.622813623616,
        "Sequence": 2,
        "StationID": "1025"
      },
      {
        "Name": "五分埤",
        "Lat": 25.0762017702812,
        "Lon": 121.62118809341,
        "Sequence": 3,
        "StationID": "1000201"
      },
      {
        "Name": "東湖國中",
        "Lat": 25.0726450755284,
        "Lon": 121.619351259043,
        "Sequence": 4,
        "StationID": "1055"
      },
      {
        "Name": "康樂街",
        "Lat": 25.0711232284945,
        "Lon": 121.619134959956,
        "Sequence": 5,
        "StationID": "1000203"
      },
      {
        "Name": "東湖社區",
        "Lat": 25.06922957,
        "Lon": 121.6184776,
        "Sequence": 6,
        "StationID": "50444"
      },
      {
        "Name": "東湖國小",
        "Lat": 25.068177,
        "Lon": 121.61668,
        "Sequence": 7,
        "StationID": "8531"
      },
      {
        "Name": "五分社區",
        "Lat": 25.068763284981,
        "Lon": 121.614308439756,
        "Sequence": 8,
        "StationID": "5441"
      },
      {
        "Name": "捷運東湖站(南湖高中)",
        "Lat": 25.0674930032886,
        "Lon": 121.61150222666,
        "Sequence": 9,
        "StationID": "1073"
      },
      {
        "Name": "南港軟體園區北站",
        "Lat": 25.0587135046885,
        "Lon": 121.61407454595626,
        "Sequence": 10,
        "StationID": "1000251"
      },
      {
        "Name": "南港軟體園區南站",
        "Lat": 25.05655055325109,
        "Lon": 121.61389139258283,
        "Sequence": 11,
        "StationID": "1000252"
      },
      {
        "Name": "南港",
        "Lat": 25.055463507638656,
        "Lon": 121.61366085593893,
        "Sequence": 12,
        "StationID": "1660"
      },
      {
        "Name": "南港高工(南港路)",
        "Lat": 25.0549683149017,
        "Lon": 121.609776304165,
        "Sequence": 13,
        "StationID": "1000253"
      },
      {
        "Name": "南港行政中心(南港車站)",
        "Lat": 25.0544113947875,
        "Lon": 121.606693480964,
        "Sequence": 14,
        "StationID": "1651"
      },
      {
        "Name": "台肥新村",
        "Lat": 25.0538268750408,
        "Lon": 121.603501503157,
        "Sequence": 15,
        "StationID": "50017"
      },
      {
        "Name": "南港路二段178巷口",
        "Lat": 25.053410287006,
        "Lon": 121.600631965419,
        "Sequence": 16,
        "StationID": "50018"
      },
      {
        "Name": "東明里/臺北流行音樂中心",
        "Lat": 25.05384,
        "Lon": 121.598727,
        "Sequence": 17,
        "StationID": "50016"
      },
      {
        "Name": "土地公廟",
        "Lat": 25.0544903819023,
        "Lon": 121.595509916336,
        "Sequence": 18,
        "StationID": "1000254"
      },
      {
        "Name": "南港高中",
        "Lat": 25.0530195,
        "Lon": 121.5949802,
        "Sequence": 19,
        "StationID": "1000314"
      },
      {
        "Name": "捷運昆陽站",
        "Lat": 25.050346,
        "Lon": 121.593165,
        "Sequence": 20,
        "StationID": "1697"
      },
      {
        "Name": "陸軍後勤指揮部",
        "Lat": 25.04983,
        "Lon": 121.59077,
        "Sequence": 21,
        "StationID": "3923"
      },
      {
        "Name": "國華新村",
        "Lat": 25.04908468,
        "Lon": 121.5878431,
        "Sequence": 22,
        "StationID": "3924"
      },
      {
        "Name": "聯合醫院忠孝院區",
        "Lat": 25.0475212158758,
        "Lon": 121.584229738588,
        "Sequence": 23,
        "StationID": "4086"
      },
      {
        "Name": "捷運後山埤站(永吉)",
        "Lat": 25.0454545120215,
        "Lon": 121.58172282754578,
        "Sequence": 24,
        "StationID": "1000316"
      },
      {
        "Name": "五分埔商圈(中坡北)",
        "Lat": 25.047232,
        "Lon": 121.58077,
        "Sequence": 25,
        "StationID": "1000123"
      },
      {
        "Name": "松山車站(松隆)",
        "Lat": 25.048258672854057,
        "Lon": 121.57890868194112,
        "Sequence": 26,
        "StationID": "2092"
      },
      {
        "Name": "松山車站(松山)",
        "Lat": 25.047159,
        "Lon": 121.577685,
        "Sequence": 27,
        "StationID": "2093"
      },
      {
        "Name": "永吉松山路口",
        "Lat": 25.0448632717332,
        "Lon": 121.577690522404,
        "Sequence": 28,
        "StationID": "4091"
      },
      {
        "Name": "捷運永春站(松山)",
        "Lat": 25.041936,
        "Lon": 121.577654,
        "Sequence": 29,
        "StationID": "2060"
      },
      {
        "Name": "捷運永春站(忠孝)",
        "Lat": 25.040967,
        "Lon": 121.575743,
        "Sequence": 30,
        "StationID": "3927"
      },
      {
        "Name": "市立工農",
        "Lat": 25.04110667625752,
        "Lon": 121.57227674964417,
        "Sequence": 31,
        "StationID": "3928"
      },
      {
        "Name": "消防局(松仁)",
        "Lat": 25.038604,
        "Lon": 121.568284,
        "Sequence": 32,
        "StationID": "1165604593"
      },
      {
        "Name": "興雅國中",
        "Lat": 25.0372323905063,
        "Lon": 121.568268559011,
        "Sequence": 33,
        "StationID": "2179"
      },
      {
        "Name": "信義松仁路口(松仁)",
        "Lat": 25.0345352489599,
        "Lon": 121.568236043782,
        "Sequence": 34,
        "StationID": "2121"
      },
      {
        "Name": "信義松仁路口(信義)",
        "Lat": 25.0329497897498,
        "Lon": 121.566687674056,
        "Sequence": 35,
        "StationID": "6929"
      },
      {
        "Name": "捷運台北101/世貿站(信義)",
        "Lat": 25.033242055020047,
        "Lon": 121.56459847127361,
        "Sequence": 36,
        "StationID": "6928"
      },
      {
        "Name": "捷運台北101/世貿站(市府)",
        "Lat": 25.034512868313872,
        "Lon": 121.56357599974903,
        "Sequence": 37,
        "StationID": "2029"
      }
    ]
  },
  {
    "Route": "281",
    "SubRoute": "281",
    "Direction": 1,
    "Stops": [
      {
        "Name": "市政府(市府)",
        "Lat": 25.038332,
        "Lon": 121.563754,
        "Sequence": 1,
        "StationID": "2063"
      },
      {
        "Name": "捷運市政府站",
        "Lat": 25.04100991,
        "Lon": 121.5668354,
        "Sequence": 2,
        "StationID": "3916"
      },
      {
        "Name": "市立工農",
        "Lat": 25.04085411,
        "Lon": 121.5726502,
        "Sequence": 3,
        "StationID": "2055"
      },
      {
        "Name": "捷運永春站(忠孝)",
        "Lat": 25.040733,
        "Lon": 121.575809,
        "Sequence": 4,
        "StationID": "2153"
      },
      {
        "Name": "捷運永春站(松山)",
        "Lat": 25.04195027,
        "Lon": 121.5778998,
        "Sequence": 5,
        "StationID": "15116"
      },
      {
        "Name": "雙永國小",
        "Lat": 25.0435588382657,
        "Lon": 121.577918664208,
        "Sequence": 6,
        "StationID": "15115"
      },
      {
        "Name": "永吉松山路口",
        "Lat": 25.0450053957754,
        "Lon": 121.577906954135,
        "Sequence": 7,
        "StationID": "15114"
      },
      {
        "Name": "松山車站(松山)",
        "Lat": 25.04726924,
        "Lon": 121.5779129,
        "Sequence": 8,
        "StationID": "15113"
      },
      {
        "Name": "五分埔商圈(中坡北)",
        "Lat": 25.04799,
        "Lon": 121.58003,
        "Sequence": 9,
        "StationID": "2038"
      },
      {
        "Name": "捷運後山埤站(永吉)",
        "Lat": 25.04523472781,
        "Lon": 121.581945222038,
        "Sequence": 10,
        "StationID": "2155"
      },
      {
        "Name": "聯合醫院忠孝院區",
        "Lat": 25.048227,
        "Lon": 121.585736,
        "Sequence": 11,
        "StationID": "1716"
      },
      {
        "Name": "國華新村",
        "Lat": 25.0488726204446,
        "Lon": 121.587873523899,
        "Sequence": 12,
        "StationID": "1696"
      },
      {
        "Name": "陸軍後勤指揮部",
        "Lat": 25.04964,
        "Lon": 121.59096,
        "Sequence": 13,
        "StationID": "1719"
      },
      {
        "Name": "捷運昆陽站",
        "Lat": 25.0502182745934,
        "Lon": 121.593650837788,
        "Sequence": 14,
        "StationID": "3919"
      },
      {
        "Name": "南港高中",
        "Lat": 25.0529513842885,
        "Lon": 121.595233108141,
        "Sequence": 15,
        "StationID": "1000319"
      },
      {
        "Name": "土地公廟",
        "Lat": 25.05424093800564,
        "Lon": 121.59633521222251,
        "Sequence": 16,
        "StationID": "1000270"
      },
      {
        "Name": "東明里/臺北流行音樂中心",
        "Lat": 25.0538414991689,
        "Lon": 121.598139533007,
        "Sequence": 17,
        "StationID": "1635"
      },
      {
        "Name": "南港路二段178巷口",
        "Lat": 25.0533242413246,
        "Lon": 121.60075620256,
        "Sequence": 18,
        "StationID": "1685"
      },
      {
        "Name": "台肥新村",
        "Lat": 25.053655363078,
        "Lon": 121.603021736172,
        "Sequence": 19,
        "StationID": "1000271"
      },
      {
        "Name": "南港行政中心(南港車站)",
        "Lat": 25.05433,
        "Lon": 121.60712,
        "Sequence": 20,
        "StationID": "1000272"
      },
      {
        "Name": "南港高工(南港路)",
        "Lat": 25.05493375102052,
        "Lon": 121.61066212694543,
        "Sequence": 21,
        "StationID": "50019"
      },
      {
        "Name": "南港軟體園區南站",
        "Lat": 25.05641711,
        "Lon": 121.6141291,
        "Sequence": 22,
        "StationID": "1678"
      },
      {
        "Name": "南港軟體園區北站",
        "Lat": 25.05870570745196,
        "Lon": 121.61427996989374,
        "Sequence": 23,
        "StationID": "1000273"
      },
      {
        "Name": "捷運東湖站(南湖高中)",
        "Lat": 25.0672071869982,
        "Lon": 121.611573583354,
        "Sequence": 24,
        "StationID": "70072"
      },
      {
        "Name": "五分社區",
        "Lat": 25.06860831,
        "Lon": 121.6144033,
        "Sequence": 25,
        "StationID": "986"
      },
      {
        "Name": "東湖國小",
        "Lat": 25.06806969,
        "Lon": 121.6165906,
        "Sequence": 26,
        "StationID": "8530"
      },
      {
        "Name": "東湖社區",
        "Lat": 25.069547,
        "Lon": 121.618788,
        "Sequence": 27,
        "StationID": "1044"
      },
      {
        "Name": "康樂街",
        "Lat": 25.07119075,
        "Lon": 121.6191996,
        "Sequence": 28,
        "StationID": "1000734"
      },
      {
        "Name": "東湖國中",
        "Lat": 25.07287274,
        "Lon": 121.6194588,
        "Sequence": 29,
        "StationID": "1000677"
      },
      {
        "Name": "五分埤",
        "Lat": 25.0761334864734,
        "Lon": 121.621188834486,
        "Sequence": 30,
        "StationID": "1000211"
      },
      {
        "Name": "康湖隧道口(白馬山莊)",
        "Lat": 25.07715,
        "Lon": 121.62288,
        "Sequence": 31,
        "StationID": "50445"
      },
      {
        "Name": "南寮(忠三街口)",
        "Lat": 25.078715,
        "Lon": 121.62361,
        "Sequence": 32,
        "StationID": "1042"
      }
    ]
  }
]