[
  {
    "Route": "208直",
    "SubRoute": "208直",
    "Direction": 0,
    "Stops": [
      {
        "Name": "美麗華(植福)",
        "Lat": 25.08386,
        "Lon": 121.55711,
        "Sequence": 1,
        "StationID": "4074"
      },
      {
        "Name": "敬業四路",
        "Lat": 25.08185576,
        "Lon": 121.5584464,
        "Sequence": 2,
        "StationID": "8665"
      },
      {
        "Name": "大直美堤花園二",
        "Lat": 25.08002077,
        "Lon": 121.5574829,
        "Sequence": 3,
        "StationID": "9407"
      },
      {
        "Name": "大直美堤花園三",
        "Lat": 25.080032815073,
        "Lon": 121.55565762442,
        "Sequence": 4,
        "StationID": "1333"
      },
      {
        "Name": "明水路口",
        "Lat": 25.080092816575963,
        "Lon": 121.55251766575329,
        "Sequence": 5,
        "StationID": "9404"
      },
      {
        "Name": "明水路一",
        "Lat": 25.08172328,
        "Lon": 121.551632,
        "Sequence": 6,
        "StationID": "1265"
      },
      {
        "Name": "自強隧道",
        "Lat": 25.08377483,
        "Lon": 121.5490281,
        "Sequence": 7,
        "StationID": "4182"
      },
      {
        "Name": "植福宮",
        "Lat": 25.0808482,
        "Lon": 121.5482394,
        "Sequence": 8,
        "StationID": "9435"
      },
      {
        "Name": "捷運大直站",
        "Lat": 25.0799238282333,
        "Lon": 121.546139731473,
        "Sequence": 9,
        "StationID": "1000126"
      },
      {
        "Name": "大直高中",
        "Lat": 25.07978102,
        "Lon": 121.5436838,
        "Sequence": 10,
        "StationID": "9433"
      },
      {
        "Name": "空軍司令部",
        "Lat": 25.07961,
        "Lon": 121.54169,
        "Sequence": 11,
        "StationID": "9437"
      },
      {
        "Name": "忠烈祠",
        "Lat": 25.0780024350627,
        "Lon": 121.535552182321,
        "Sequence": 12,
        "StationID": "9436"
      },
      {
        "Name": "中央電台",
        "Lat": 25.0781282212443,
        "Lon": 121.530144788528,
        "Sequence": 13,
        "StationID": "9434"
      },
      {
        "Name": "圓山大飯店",
        "Lat": 25.077322358349,
        "Lon": 121.527964269875,
        "Sequence": 14,
        "StationID": "1357"
      },
      {
        "Name": "濟南路二段",
        "Lat": 25.041525,
        "Lon": 121.526771,
        "Sequence": 15,
        "StationID": "1000311"
      },
      {
        "Name": "臺北商大(濟南)",
        "Lat": 25.04196413,
        "Lon": 121.5248024,
        "Sequence": 16,
        "StationID": "1903"
      },
      {
        "Name": "成功中學(濟南)",
        "Lat": 25.04241371,
        "Lon": 121.5230509,
        "Sequence": 17,
        "StationID": "1915"
      },
      {
        "Name": "開南中學",
        "Lat": 25.04161112,
        "Lon": 121.522214,
        "Sequence": 18,
        "StationID": "2006"
      },
      {
        "Name": "仁愛林森路口",
        "Lat": 25.040352,
        "Lon": 121.521878540227,
        "Sequence": 19,
        "StationID": "1866"
      },
      {
        "Name": "羅斯福潮州街口",
        "Lat": 25.030089934769617,
        "Lon": 121.52015434889965,
        "Sequence": 20,
        "StationID": "1165606955"
      },
      {
        "Name": "捷運古亭站(羅斯福)",
        "Lat": 25.027388324079258,
        "Lon": 121.52214566922964,
        "Sequence": 21,
        "StationID": "1165606956"
      },
      {
        "Name": "羅斯福金門街口",
        "Lat": 25.0242886,
        "Lon": 121.5243501,
        "Sequence": 22,
        "StationID": "1000044"
      },
      {
        "Name": "羅斯福浦城街口",
        "Lat": 25.0224187553298,
        "Lon": 121.526085861859,
        "Sequence": 23,
        "StationID": "2359"
      },
      {
        "Name": "捷運台電大樓站",
        "Lat": 25.020027,
        "Lon": 121.528697,
        "Sequence": 24,
        "StationID": "2353"
      },
      {
        "Name": "台電大樓",
        "Lat": 25.017546,
        "Lon": 121.531379,
        "Sequence": 25,
        "StationID": "2231"
      },
      {
        "Name": "捷運公館站",
        "Lat": 25.0143047215272,
        "Lon": 121.534517055222,
        "Sequence": 26,
        "StationID": "2309"
      },
      {
        "Name": "水源市場",
        "Lat": 25.013102,
        "Lon": 121.535791,
        "Sequence": 27,
        "StationID": "355"
      },
      {
        "Name": "福和橋(林森路)",
        "Lat": 25.003877,
        "Lon": 121.523431,
        "Sequence": 28,
        "StationID": "1000297"
      },
      {
        "Name": "福和國中",
        "Lat": 25.0033491522373,
        "Lon": 121.52146366371,
        "Sequence": 29,
        "StationID": "50804"
      },
      {
        "Name": "永利路",
        "Lat": 25.00550237,
        "Lon": 121.5188342,
        "Sequence": 30,
        "StationID": "50805"
      },
      {
        "Name": "金銀大廈",
        "Lat": 25.005185,
        "Lon": 121.517159,
        "Sequence": 31,
        "StationID": "9654"
      },
      {
        "Name": "永和國小",
        "Lat": 25.00304399,
        "Lon": 121.5172544,
        "Sequence": 32,
        "StationID": "3012"
      },
      {
        "Name": "得和路口",
        "Lat": 25.000946,
        "Lon": 121.517563,
        "Sequence": 33,
        "StationID": "3029"
      },
      {
        "Name": "中興新村",
        "Lat": 24.999014,
        "Lon": 121.516997,
        "Sequence": 34,
        "StationID": "1165606016"
      },
      {
        "Name": "中興二村",
        "Lat": 24.9970684513473,
        "Lon": 121.515268767725,
        "Sequence": 35,
        "StationID": "9655"
      },
      {
        "Name": "智光商職",
        "Lat": 24.99403299,
        "Lon": 121.5125768,
        "Sequence": 36,
        "StationID": "3037"
      },
      {
        "Name": "景新街",
        "Lat": 24.989796,
        "Lon": 121.512387,
        "Sequence": 37,
        "StationID": "3138"
      },
      {
        "Name": "三介廟",
        "Lat": 24.98799945,
        "Lon": 121.5132354,
        "Sequence": 38,
        "StationID": "50845"
      },
      {
        "Name": "新和國小",
        "Lat": 24.98554,
        "Lon": 121.516668,
        "Sequence": 39,
        "StationID": "2941"
      },
      {
        "Name": "輕軌新和國小站(水工大樓)",
        "Lat": 24.983114,
        "Lon": 121.517819,
        "Sequence": 40,
        "StationID": "2918"
      },
      {
        "Name": "永平里",
        "Lat": 24.98167813,
        "Lon": 121.5175586,
        "Sequence": 41,
        "StationID": "2897"
      },
      {
        "Name": "陽光運動公園(新店花市)",
        "Lat": 24.97735333,
        "Lon": 121.5165771,
        "Sequence": 42,
        "StationID": "2944"
      },
      {
        "Name": "安和路二段",
        "Lat": 24.975951,
        "Lon": 121.517269,
        "Sequence": 43,
        "StationID": "2899"
      },
      {
        "Name": "石頭厝",
        "Lat": 24.97410976,
        "Lon": 121.5188677,
        "Sequence": 44,
        "StationID": "2894"
      },
      {
        "Name": "輕軌陽光運動公園站",
        "Lat": 24.97278102,
        "Lon": 121.5195205,
        "Sequence": 45,
        "StationID": "2916"
      },
      {
        "Name": "光華街口",
        "Lat": 24.97032,
        "Lon": 121.51876,
        "Sequence": 46,
        "StationID": "72246"
      },
      {
        "Name": "十四份",
        "Lat": 24.96923,
        "Lon": 121.51843,
        "Sequence": 47,
        "StationID": "2850"
      },
      {
        "Name": "及人中學",
        "Lat": 24.96730265,
        "Lon": 121.5177866,
        "Sequence": 48,
        "StationID": "2882"
      }
    ]
  }
]