[
  {
    "Route": "市民小巴10",
    "SubRoute": "市民小巴10",
    "Direction": 0,
    "Stops": [
      {
        "Name": "新湖舊宗路口",
        "Lat": 25.060133,
        "Lon": 121.578876,
        "Sequence": 1,
        "StationID": "20231"
      },
      {
        "Name": "新湖民善街口(一)",
        "Lat": 25.05865558006533,
        "Lon": 121.57552780140044,
        "Sequence": 2,
        "StationID": "1000835"
      },
      {
        "Name": "行善路",
        "Lat": 25.05707139,
        "Lon": 121.5766634,
        "Sequence": 3,
        "StationID": "1035"
      },
      {
        "Name": "潭美國小(舊宗)",
        "Lat": 25.058297,
        "Lon": 121.580495,
        "Sequence": 4,
        "StationID": "1000215"
      },
      {
        "Name": "週美里",
        "Lat": 25.05609093,
        "Lon": 121.5828479,
        "Sequence": 5,
        "StationID": "50428"
      },
      {
        "Name": "新明路",
        "Lat": 25.05722486,
        "Lon": 121.5854194,
        "Sequence": 6,
        "StationID": "50430"
      },
      {
        "Name": "台北企業總部園區",
        "Lat": 25.057943,
        "Lon": 121.587031,
        "Sequence": 7,
        "StationID": "975"
      },
      {
        "Name": "新明成功路口",
        "Lat": 25.06008,
        "Lon": 121.590623,
        "Sequence": 8,
        "StationID": "1146"
      },
      {
        "Name": "石潭公園(成功)",
        "Lat": 25.061289,
        "Lon": 121.591281,
        "Sequence": 9,
        "StationID": "50434"
      },
      {
        "Name": "成功路二段(交流道)",
        "Lat": 25.0646545,
        "Lon": 121.5910436,
        "Sequence": 10,
        "StationID": "1165610510"
      },
      {
        "Name": "上灣仔",
        "Lat": 25.066818699184,
        "Lon": 121.590714855835,
        "Sequence": 11,
        "StationID": "8663"
      },
      {
        "Name": "湖興",
        "Lat": 25.067861865327,
        "Lon": 121.59085370773,
        "Sequence": 12,
        "StationID": "8664"
      },
      {
        "Name": "國防醫學中心",
        "Lat": 25.0712104683315,
        "Lon": 121.590031196316,
        "Sequence": 13,
        "StationID": "339"
      },
      {
        "Name": "三總內湖站",
        "Lat": 25.071852,
        "Lon": 121.592095,
        "Sequence": 14,
        "StationID": "980"
      },
      {
        "Name": "內湖行政大樓",
        "Lat": 25.06918300127649,
        "Lon": 121.58821790633739,
        "Sequence": 15,
        "StationID": "8667"
      },
      {
        "Name": "三民國中",
        "Lat": 25.069075,
        "Lon": 121.585744,
        "Sequence": 16,
        "StationID": "1165606195"
      }
    ]
  },
  {
    "Route": "市民小巴10",
    "SubRoute": "市民小巴10",
    "Direction": 1,
    "Stops": [
      {
        "Name": "三民國中",
        "Lat": 25.06881463274073,
        "Lon": 121.58543789167122,
        "Sequence": 1,
        "StationID": "966"
      },
      {
        "Name": "內湖行政大樓",
        "Lat": 25.068895529659475,
        "Lon": 121.58896238097387,
        "Sequence": 2,
        "StationID": "991"
      },
      {
        "Name": "三總內湖站",
        "Lat": 25.071852,
        "Lon": 121.592095,
        "Sequence": 3,
        "StationID": "8677"
      },
      {
        "Name": "國防醫學中心",
        "Lat": 25.0710371489715,
        "Lon": 121.589869957803,
        "Sequence": 4,
        "StationID": "1080"
      },
      {
        "Name": "湖興",
        "Lat": 25.0680308659982,
        "Lon": 121.590661157725,
        "Sequence": 5,
        "StationID": "1107"
      },
      {
        "Name": "上灣仔",
        "Lat": 25.0670002134225,
        "Lon": 121.590521443523,
        "Sequence": 6,
        "StationID": "985"
      },
      {
        "Name": "成功路二段(交流道)",
        "Lat": 25.06290258,
        "Lon": 121.5907021,
        "Sequence": 7,
        "StationID": "1165610511"
      },
      {
        "Name": "石潭公園(成功)",
        "Lat": 25.061041,
        "Lon": 121.591015,
        "Sequence": 8,
        "StationID": "50433"
      },
      {
        "Name": "新明成功路口",
        "Lat": 25.060167,
        "Lon": 121.590455,
        "Sequence": 9,
        "StationID": "50432"
      },
      {
        "Name": "台北企業總部園區",
        "Lat": 25.058162,
        "Lon": 121.587344,
        "Sequence": 10,
        "StationID": "50431"
      },
      {
        "Name": "新明路",
        "Lat": 25.05733619,
        "Lon": 121.5852542,
        "Sequence": 11,
        "StationID": "1121"
      },
      {
        "Name": "週美里",
        "Lat": 25.05620879,
        "Lon": 121.5827604,
        "Sequence": 12,
        "StationID": "50429"
      },
      {
        "Name": "舊宗路一段(行善)",
        "Lat": 25.058701,
        "Lon": 121.579639,
        "Sequence": 13,
        "StationID": "20241"
      },
      {
        "Name": "行善路",
        "Lat": 25.05717396,
        "Lon": 121.5764993,
        "Sequence": 14,
        "StationID": "1000280"
      },
      {
        "Name": "新湖民善街口(一)",
        "Lat": 25.05864893,
        "Lon": 121.5760209,
        "Sequence": 15,
        "StationID": "1000281"
      },
      {
        "Name": "新湖舊宗路口",
        "Lat": 25.059881,
        "Lon": 121.578622,
        "Sequence": 16,
        "StationID": "20232"
      }
    ]
  }
]