[
  {
    "Route": "46",
    "SubRoute": "46",
    "Direction": 0,
    "Stops": [
      {
        "Name": "松德站",
        "Lat": 25.032369820465,
        "Lon": 121.57466288591,
        "Sequence": 1,
        "StationID": "2107"
      },
      {
        "Name": "捷運象山站",
        "Lat": 25.033006,
        "Lon": 121.570056,
        "Sequence": 2,
        "StationID": "20304"
      },
      {
        "Name": "信義松仁路口(松仁)",
        "Lat": 25.0336908507959,
        "Lon": 121.568446471104,
        "Sequence": 3,
        "StationID": "2122"
      },
      {
        "Name": "松壽路口",
        "Lat": 25.0358810435418,
        "Lon": 121.566640146973,
        "Sequence": 4,
        "StationID": "2070"
      },
      {
        "Name": "市政府(松智)",
        "Lat": 25.03685005,
        "Lon": 121.5655763,
        "Sequence": 5,
        "StationID": "4031"
      },
      {
        "Name": "興雅國中",
        "Lat": 25.0372323905063,
        "Lon": 121.568268559011,
        "Sequence": 6,
        "StationID": "2179"
      },
      {
        "Name": "信義松仁路口(松仁)",
        "Lat": 25.0345352489599,
        "Lon": 121.568236043782,
        "Sequence": 7,
        "StationID": "2121"
      },
      {
        "Name": "捷運象山站",
        "Lat": 25.032648,
        "Lon": 121.568984,
        "Sequence": 8,
        "StationID": "20305"
      },
      {
        "Name": "國稅局宿舍",
        "Lat": 25.033870235708875,
        "Lon": 121.57514012830093,
        "Sequence": 9,
        "StationID": "2142"
      },
      {
        "Name": "松山商職(信義)",
        "Lat": 25.03596885,
        "Lon": 121.5777733,
        "Sequence": 10,
        "StationID": "2098"
      },
      {
        "Name": "松山商職(福德)",
        "Lat": 25.0362197359093,
        "Lon": 121.578747487242,
        "Sequence": 11,
        "StationID": "2096"
      },
      {
        "Name": "松友新村",
        "Lat": 25.036858,
        "Lon": 121.581141,
        "Sequence": 12,
        "StationID": "2101"
      },
      {
        "Name": "信義行政中心(奉天宮)",
        "Lat": 25.037669212048,
        "Lon": 121.583273769159,
        "Sequence": 13,
        "StationID": "2088"
      },
      {
        "Name": "大道路",
        "Lat": 25.0403216,
        "Lon": 121.5827027,
        "Sequence": 14,
        "StationID": "1000179"
      },
      {
        "Name": "忠孝大道路口",
        "Lat": 25.04249611,
        "Lon": 121.5815915,
        "Sequence": 15,
        "StationID": "1000180"
      },
      {
        "Name": "春光公園",
        "Lat": 25.042632,
        "Lon": 121.580447,
        "Sequence": 16,
        "StationID": "4087"
      },
      {
        "Name": "永春里(忠孝)",
        "Lat": 25.041555,
        "Lon": 121.578931,
        "Sequence": 17,
        "StationID": "3926"
      },
      {
        "Name": "捷運永春站(松山)",
        "Lat": 25.04195027,
        "Lon": 121.5778998,
        "Sequence": 18,
        "StationID": "15116"
      },
      {
        "Name": "雙永國小",
        "Lat": 25.0435588382657,
        "Lon": 121.577918664208,
        "Sequence": 19,
        "StationID": "15115"
      },
      {
        "Name": "永吉松山路口",
        "Lat": 25.045619541124736,
        "Lon": 121.57660432922873,
        "Sequence": 20,
        "StationID": "4090"
      },
      {
        "Name": "國民住宅",
        "Lat": 25.04570849030428,
        "Lon": 121.57342558398715,
        "Sequence": 21,
        "StationID": "1000181"
      },
      {
        "Name": "興雅國小",
        "Lat": 25.0457633038403,
        "Lon": 121.569761304102,
        "Sequence": 22,
        "StationID": "2177"
      },
      {
        "Name": "東興路",
        "Lat": 25.04641,
        "Lon": 121.56682,
        "Sequence": 23,
        "StationID": "15105"
      },
      {
        "Name": "東興路一",
        "Lat": 25.05002,
        "Lon": 121.56552,
        "Sequence": 24,
        "StationID": "1541"
      },
      {
        "Name": "南京公寓(捷運南京三民)",
        "Lat": 25.051492,
        "Lon": 121.564777,
        "Sequence": 25,
        "StationID": "50160"
      },
      {
        "Name": "南京三民路口",
        "Lat": 25.05158012283465,
        "Lon": 121.56111056329053,
        "Sequence": 26,
        "StationID": "16005"
      },
      {
        "Name": "南京寧安街口",
        "Lat": 25.0516596699759,
        "Lon": 121.555516323112,
        "Sequence": 27,
        "StationID": "16006"
      },
      {
        "Name": "南京敦化路口(小巨蛋)",
        "Lat": 25.0517934820293,
        "Lon": 121.549520919642,
        "Sequence": 28,
        "StationID": "1548"
      },
      {
        "Name": "捷運南京復興站",
        "Lat": 25.05191518176843,
        "Lon": 121.5444563164689,
        "Sequence": 29,
        "StationID": "1547"
      },
      {
        "Name": "南京龍江路口",
        "Lat": 25.051994714534274,
        "Lon": 121.54085264591662,
        "Sequence": 30,
        "StationID": "1556"
      },
      {
        "Name": "南京建國路口",
        "Lat": 25.0520896887846,
        "Lon": 121.537271345417,
        "Sequence": 31,
        "StationID": "1546"
      },
      {
        "Name": "捷運松江南京站",
        "Lat": 25.0521144980622,
        "Lon": 121.533302047123,
        "Sequence": 32,
        "StationID": "16011"
      },
      {
        "Name": "南京吉林路口",
        "Lat": 25.0521129968997,
        "Lon": 121.530332504829,
        "Sequence": 33,
        "StationID": "16012"
      },
      {
        "Name": "南京林森路口",
        "Lat": 25.0521676118001,
        "Lon": 121.525717467074,
        "Sequence": 34,
        "StationID": "16013"
      },
      {
        "Name": "捷運中山站(志仁高中)",
        "Lat": 25.052867,
        "Lon": 121.519866,
        "Sequence": 35,
        "StationID": "16014"
      },
      {
        "Name": "後車站",
        "Lat": 25.05141683,
        "Lon": 121.5150845,
        "Sequence": 36,
        "StationID": "1449"
      }
    ]
  },
  {
    "Route": "46",
    "SubRoute": "46",
    "Direction": 1,
    "Stops": [
      {
        "Name": "圓環(重慶)",
        "Lat": 25.052844,
        "Lon": 121.514207,
        "Sequence": 1,
        "StationID": "16019"
      },
      {
        "Name": "圓環(南京)",
        "Lat": 25.053651217399,
        "Lon": 121.515705430802,
        "Sequence": 2,
        "StationID": "16015"
      },
      {
        "Name": "捷運中山站(志仁高中)",
        "Lat": 25.0527107746344,
        "Lon": 121.519674930441,
        "Sequence": 3,
        "StationID": "16021"
      },
      {
        "Name": "南京林森路口",
        "Lat": 25.052069472359,
        "Lon": 121.525060474751,
        "Sequence": 4,
        "StationID": "16022"
      },
      {
        "Name": "南京吉林路口",
        "Lat": 25.0520078098529,
        "Lon": 121.529855025946,
        "Sequence": 5,
        "StationID": "16023"
      },
      {
        "Name": "捷運松江南京站",
        "Lat": 25.0519912439505,
        "Lon": 121.532641149751,
        "Sequence": 6,
        "StationID": "16024"
      },
      {
        "Name": "南京建國路口",
        "Lat": 25.0519389515979,
        "Lon": 121.53627250499,
        "Sequence": 7,
        "StationID": "50005"
      },
      {
        "Name": "南京龍江路口",
        "Lat": 25.05189813653983,
        "Lon": 121.54002052720857,
        "Sequence": 8,
        "StationID": "50002"
      },
      {
        "Name": "捷運南京復興站",
        "Lat": 25.0518040049938,
        "Lon": 121.543561439976,
        "Sequence": 9,
        "StationID": "50004"
      },
      {
        "Name": "南京敦化路口(小巨蛋)",
        "Lat": 25.0517035084006,
        "Lon": 121.548353475095,
        "Sequence": 10,
        "StationID": "50001"
      },
      {
        "Name": "南京寧安街口",
        "Lat": 25.051594154729063,
        "Lon": 121.55469770362868,
        "Sequence": 11,
        "StationID": "16029"
      },
      {
        "Name": "南京三民路口",
        "Lat": 25.05148353485096,
        "Lon": 121.5602663380149,
        "Sequence": 12,
        "StationID": "16030"
      },
      {
        "Name": "南京公寓(捷運南京三民)",
        "Lat": 25.051276,
        "Lon": 121.564943,
        "Sequence": 13,
        "StationID": "1545"
      },
      {
        "Name": "東興路一",
        "Lat": 25.05013,
        "Lon": 121.56523,
        "Sequence": 14,
        "StationID": "1542"
      },
      {
        "Name": "東興路",
        "Lat": 25.046530959098416,
        "Lon": 121.56649195154529,
        "Sequence": 15,
        "StationID": "1540"
      },
      {
        "Name": "興雅國小",
        "Lat": 25.04552009,
        "Lon": 121.5716977,
        "Sequence": 16,
        "StationID": "2036"
      },
      {
        "Name": "國民住宅",
        "Lat": 25.0454550872459,
        "Lon": 121.574507095768,
        "Sequence": 17,
        "StationID": "2141"
      },
      {
        "Name": "永吉松山路口",
        "Lat": 25.0448632717332,
        "Lon": 121.577690522404,
        "Sequence": 18,
        "StationID": "4091"
      },
      {
        "Name": "雙永國小",
        "Lat": 25.0428257926695,
        "Lon": 121.57771125853,
        "Sequence": 19,
        "StationID": "2056"
      },
      {
        "Name": "永春里(忠孝)",
        "Lat": 25.04110183,
        "Lon": 121.5785081,
        "Sequence": 20,
        "StationID": "2059"
      },
      {
        "Name": "春光公園",
        "Lat": 25.042737,
        "Lon": 121.580888,
        "Sequence": 21,
        "StationID": "2086"
      },
      {
        "Name": "忠孝大道路口",
        "Lat": 25.04236358,
        "Lon": 121.581579,
        "Sequence": 22,
        "StationID": "2089"
      },
      {
        "Name": "大道路",
        "Lat": 25.04015768,
        "Lon": 121.5827287,
        "Sequence": 23,
        "StationID": "2034"
      },
      {
        "Name": "信義行政中心(奉天宮)",
        "Lat": 25.03789,
        "Lon": 121.58325,
        "Sequence": 24,
        "StationID": "6937"
      },
      {
        "Name": "松友新村",
        "Lat": 25.037055,
        "Lon": 121.580964,
        "Sequence": 25,
        "StationID": "6932"
      },
      {
        "Name": "松山商職(福德)",
        "Lat": 25.0363727952991,
        "Lon": 121.578737539702,
        "Sequence": 26,
        "StationID": "2097"
      },
      {
        "Name": "國業里",
        "Lat": 25.03555,
        "Lon": 121.57704,
        "Sequence": 27,
        "StationID": "3947"
      },
      {
        "Name": "國稅局宿舍",
        "Lat": 25.03402693,
        "Lon": 121.5749131,
        "Sequence": 28,
        "StationID": "2143"
      },
      {
        "Name": "捷運象山站",
        "Lat": 25.033006,
        "Lon": 121.570056,
        "Sequence": 29,
        "StationID": "20304"
      },
      {
        "Name": "信義松仁路口(松仁)",
        "Lat": 25.0336908507959,
        "Lon": 121.568446471104,
        "Sequence": 30,
        "StationID": "2122"
      },
      {
        "Name": "興雅國中",
        "Lat": 25.03724,
        "Lon": 121.568534,
        "Sequence": 31,
        "StationID": "2178"
      },
      {
        "Name": "市政府(松智)",
        "Lat": 25.03683458,
        "Lon": 121.5653434,
        "Sequence": 32,
        "StationID": "6722"
      },
      {
        "Name": "捷運象山站",
        "Lat": 25.032648,
        "Lon": 121.568984,
        "Sequence": 33,
        "StationID": "20305"
      },
      {
        "Name": "松德站",
        "Lat": 25.03255317,
        "Lon": 121.5744778,
        "Sequence": 34,
        "StationID": "2106"
      }
    ]
  }
]