[
  {
    "Route": "214直",
    "SubRoute": "214直",
    "Direction": 0,
    "Stops": [
      {
        "Name": "駕訓中心",
        "Lat": 24.992043,
        "Lon": 121.477332,
        "Sequence": 1,
        "StationID": "3250"
      },
      {
        "Name": "中和高中",
        "Lat": 24.99430779,
        "Lon": 121.4789782,
        "Sequence": 2,
        "StationID": "3071"
      },
      {
        "Name": "連城路",
        "Lat": 24.995553,
        "Lon": 121.482957,
        "Sequence": 3,
        "StationID": "3135"
      },
      {
        "Name": "連城中正路口",
        "Lat": 24.996128,
        "Lon": 121.484429,
        "Sequence": 4,
        "StationID": "3124"
      },
      {
        "Name": "連城錦和路口(暫時裁撤)",
        "Lat": 24.99626066,
        "Lon": 121.4903845,
        "Sequence": 5,
        "StationID": "3052"
      },
      {
        "Name": "台貿一村",
        "Lat": 24.9965568353221,
        "Lon": 121.492320399314,
        "Sequence": 6,
        "StationID": "10005"
      },
      {
        "Name": "中和國稅局",
        "Lat": 24.9981696630183,
        "Lon": 121.495123116568,
        "Sequence": 7,
        "StationID": "3080"
      },
      {
        "Name": "連城景平路(暫時裁撤)",
        "Lat": 24.9996352583255,
        "Lon": 121.496428401096,
        "Sequence": 8,
        "StationID": "3134"
      },
      {
        "Name": "連城中和路口",
        "Lat": 25.001978,
        "Lon": 121.498554,
        "Sequence": 9,
        "StationID": "10001"
      },
      {
        "Name": "中和廟口",
        "Lat": 25.000553,
        "Lon": 121.500968,
        "Sequence": 10,
        "StationID": "3062"
      },
      {
        "Name": "中和派出所",
        "Lat": 24.9996954644534,
        "Lon": 121.502769736506,
        "Sequence": 11,
        "StationID": "3063"
      },
      {
        "Name": "南山高中",
        "Lat": 24.99965591,
        "Lon": 121.5048263,
        "Sequence": 12,
        "StationID": "3107"
      },
      {
        "Name": "雙和里",
        "Lat": 24.999571,
        "Lon": 121.50739,
        "Sequence": 13,
        "StationID": "9610"
      },
      {
        "Name": "華泰新城",
        "Lat": 25.000374,
        "Lon": 121.509133,
        "Sequence": 14,
        "StationID": "3147"
      },
      {
        "Name": "捷運永安市場站",
        "Lat": 25.002402,
        "Lon": 121.51094,
        "Sequence": 15,
        "StationID": "3128"
      },
      {
        "Name": "永和路口",
        "Lat": 25.004572,
        "Lon": 121.512837,
        "Sequence": 16,
        "StationID": "3015"
      },
      {
        "Name": "自由街口",
        "Lat": 25.005973,
        "Lon": 121.514104,
        "Sequence": 17,
        "StationID": "72380"
      },
      {
        "Name": "自強街口",
        "Lat": 25.007558,
        "Lon": 121.514584,
        "Sequence": 18,
        "StationID": "1000058"
      },
      {
        "Name": "樂華夜市",
        "Lat": 25.00856393,
        "Lon": 121.5141176,
        "Sequence": 19,
        "StationID": "9665"
      },
      {
        "Name": "捷運頂溪站",
        "Lat": 25.01258,
        "Lon": 121.515273,
        "Sequence": 20,
        "StationID": "9621"
      },
      {
        "Name": "中正橋頭",
        "Lat": 25.01604284,
        "Lon": 121.5162239,
        "Sequence": 21,
        "StationID": "50809"
      },
      {
        "Name": "重慶南路三段(中正橋)",
        "Lat": 25.0242546637841,
        "Lon": 121.516898839078,
        "Sequence": 22,
        "StationID": "1000325"
      },
      {
        "Name": "和平西路一段",
        "Lat": 25.026752,
        "Lon": 121.51751,
        "Sequence": 23,
        "StationID": "3906"
      },
      {
        "Name": "南福板溪(南昌公園)",
        "Lat": 25.0265749351805,
        "Lon": 121.520278734081,
        "Sequence": 24,
        "StationID": "1907"
      },
      {
        "Name": "捷運古亭站(和平)",
        "Lat": 25.026842,
        "Lon": 121.523591,
        "Sequence": 25,
        "StationID": "1165603341"
      },
      {
        "Name": "金山潮州街口",
        "Lat": 25.028663,
        "Lon": 121.526353,
        "Sequence": 26,
        "StationID": "6621"
      },
      {
        "Name": "公企中心",
        "Lat": 25.03066,
        "Lon": 121.52673,
        "Sequence": 27,
        "StationID": "6676"
      },
      {
        "Name": "捷運東門站(金山)",
        "Lat": 25.03321177,
        "Lon": 121.5272129,
        "Sequence": 28,
        "StationID": "6678"
      },
      {
        "Name": "仁愛路二段",
        "Lat": 25.03778986,
        "Lon": 121.5281994,
        "Sequence": 29,
        "StationID": "1871"
      },
      {
        "Name": "金山泰安街口",
        "Lat": 25.04049366,
        "Lon": 121.5292018,
        "Sequence": 30,
        "StationID": "6677"
      },
      {
        "Name": "新生南路一段",
        "Lat": 25.04021896,
        "Lon": 121.5317999,
        "Sequence": 31,
        "StationID": "2334"
      },
      {
        "Name": "捷運忠孝新生站",
        "Lat": 25.04198981,
        "Lon": 121.5328758,
        "Sequence": 32,
        "StationID": "2264"
      },
      {
        "Name": "光華商場",
        "Lat": 25.045,
        "Lon": 121.53299,
        "Sequence": 33,
        "StationID": "6683"
      },
      {
        "Name": "長安松江路口",
        "Lat": 25.0482736559236,
        "Lon": 121.532997019655,
        "Sequence": 34,
        "StationID": "1281"
      },
      {
        "Name": "捷運松江南京站",
        "Lat": 25.0517997,
        "Lon": 121.533087,
        "Sequence": 35,
        "StationID": "6702"
      },
      {
        "Name": "長春松江路口",
        "Lat": 25.05453652,
        "Lon": 121.5331386,
        "Sequence": 36,
        "StationID": "1270"
      },
      {
        "Name": "捷運行天宮站(松江路)",
        "Lat": 25.057613818954,
        "Lon": 121.533176617617,
        "Sequence": 37,
        "StationID": "6704"
      },
      {
        "Name": "松江新村",
        "Lat": 25.0612684,
        "Lon": 121.5333498,
        "Sequence": 38,
        "StationID": "1271"
      },
      {
        "Name": "民權建國路口",
        "Lat": 25.06236889,
        "Lon": 121.5364984,
        "Sequence": 39,
        "StationID": "1242"
      },
      {
        "Name": "民權龍江路口",
        "Lat": 25.0623255291835,
        "Lon": 121.540554014847,
        "Sequence": 40,
        "StationID": "1000186"
      },
      {
        "Name": "民權復興路口",
        "Lat": 25.06227185,
        "Lon": 121.5438692,
        "Sequence": 41,
        "StationID": "1000326"
      },
      {
        "Name": "民權敦化路口",
        "Lat": 25.062020643130538,
        "Lon": 121.54762539917303,
        "Sequence": 42,
        "StationID": "1244"
      }
    ]
  },
  {
    "Route": "214直",
    "SubRoute": "214直",
    "Direction": 1,
    "Stops": [
      {
        "Name": "松山機場",
        "Lat": 25.063277,
        "Lon": 121.55196,
        "Sequence": 1,
        "StationID": "1536"
      },
      {
        "Name": "民權敦化路口",
        "Lat": 25.06203573,
        "Lon": 121.5482873,
        "Sequence": 2,
        "StationID": "60134"
      },
      {
        "Name": "民權復興路口",
        "Lat": 25.06222037,
        "Lon": 121.5446524,
        "Sequence": 3,
        "StationID": "1000329"
      },
      {
        "Name": "民權龍江路口",
        "Lat": 25.0623959365736,
        "Lon": 121.541275218891,
        "Sequence": 4,
        "StationID": "1000184"
      },
      {
        "Name": "民權建國路口",
        "Lat": 25.06248317,
        "Lon": 121.53746,
        "Sequence": 5,
        "StationID": "4081"
      },
      {
        "Name": "民權松江路口",
        "Lat": 25.06252486,
        "Lon": 121.5334388,
        "Sequence": 6,
        "StationID": "1240"
      },
      {
        "Name": "捷運行天宮站(松江路)",
        "Lat": 25.060643374791923,
        "Lon": 121.53313278818085,
        "Sequence": 7,
        "StationID": "6707"
      },
      {
        "Name": "長春松江路口",
        "Lat": 25.05500621,
        "Lon": 121.533011,
        "Sequence": 8,
        "StationID": "1294"
      },
      {
        "Name": "捷運松江南京站",
        "Lat": 25.05228153,
        "Lon": 121.5329812,
        "Sequence": 9,
        "StationID": "1000806"
      },
      {
        "Name": "長安松江路口",
        "Lat": 25.04864879,
        "Lon": 121.5329145,
        "Sequence": 10,
        "StationID": "1280"
      },
      {
        "Name": "光華商場",
        "Lat": 25.04460839,
        "Lon": 121.5328606,
        "Sequence": 11,
        "StationID": "6684"
      },
      {
        "Name": "捷運忠孝新生站",
        "Lat": 25.040288,
        "Lon": 121.532693,
        "Sequence": 12,
        "StationID": "1000396"
      },
      {
        "Name": "仁愛路二段",
        "Lat": 25.03742288,
        "Lon": 121.5279594,
        "Sequence": 13,
        "StationID": "2215"
      },
      {
        "Name": "捷運東門站(金山)",
        "Lat": 25.033164,
        "Lon": 121.526979,
        "Sequence": 14,
        "StationID": "2280"
      },
      {
        "Name": "公企中心",
        "Lat": 25.03119392732057,
        "Lon": 121.52661106566782,
        "Sequence": 15,
        "StationID": "2196"
      },
      {
        "Name": "金山潮州街口",
        "Lat": 25.028247,
        "Lon": 121.526085,
        "Sequence": 16,
        "StationID": "2269"
      },
      {
        "Name": "捷運古亭站(和平)",
        "Lat": 25.027036,
        "Lon": 121.524516,
        "Sequence": 17,
        "StationID": "3943"
      },
      {
        "Name": "南福板溪(南昌公園)",
        "Lat": 25.02681,
        "Lon": 121.52053,
        "Sequence": 18,
        "StationID": "3905"
      },
      {
        "Name": "和平西路一段",
        "Lat": 25.026994,
        "Lon": 121.517263,
        "Sequence": 19,
        "StationID": "1925"
      },
      {
        "Name": "重慶南路三段(中正橋)",
        "Lat": 25.024804,
        "Lon": 121.516528,
        "Sequence": 20,
        "StationID": "1920"
      },
      {
        "Name": "捷運頂溪站",
        "Lat": 25.014430464101867,
        "Lon": 121.5155769771344,
        "Sequence": 21,
        "StationID": "1165606035"
      },
      {
        "Name": "中興街口",
        "Lat": 25.0115956,
        "Lon": 121.5147464,
        "Sequence": 22,
        "StationID": "3002"
      },
      {
        "Name": "樂華夜市",
        "Lat": 25.00839,
        "Lon": 121.51386,
        "Sequence": 23,
        "StationID": "3045"
      },
      {
        "Name": "永和路口",
        "Lat": 25.0056877314979,
        "Lon": 121.51286138332,
        "Sequence": 24,
        "StationID": "3014"
      },
      {
        "Name": "捷運永安市場站",
        "Lat": 25.002521,
        "Lon": 121.510832,
        "Sequence": 25,
        "StationID": "9611"
      },
      {
        "Name": "華泰新城",
        "Lat": 25.000533,
        "Lon": 121.509035,
        "Sequence": 26,
        "StationID": "9612"
      },
      {
        "Name": "雙和里",
        "Lat": 24.99973099,
        "Lon": 121.5068521,
        "Sequence": 27,
        "StationID": "3171"
      },
      {
        "Name": "南山高中",
        "Lat": 24.999792710544224,
        "Lon": 121.5048390971732,
        "Sequence": 28,
        "StationID": "1165606015"
      },
      {
        "Name": "中和派出所",
        "Lat": 24.9998556483866,
        "Lon": 121.502819563683,
        "Sequence": 29,
        "StationID": "3064"
      },
      {
        "Name": "中和廟口",
        "Lat": 25.000814361663,
        "Lon": 121.50090778406,
        "Sequence": 30,
        "StationID": "9603"
      },
      {
        "Name": "連城中和路口",
        "Lat": 25.002187,
        "Lon": 121.498749,
        "Sequence": 31,
        "StationID": "10002"
      },
      {
        "Name": "連城景平路(暫時裁撤)",
        "Lat": 24.9995896339066,
        "Lon": 121.496156410982,
        "Sequence": 32,
        "StationID": "10003"
      },
      {
        "Name": "中和國稅局",
        "Lat": 24.998274,
        "Lon": 121.494913,
        "Sequence": 33,
        "StationID": "10004"
      },
      {
        "Name": "台貿一村",
        "Lat": 24.99673,
        "Lon": 121.492254369312,
        "Sequence": 34,
        "StationID": "3084"
      },
      {
        "Name": "連城錦和路口(暫時裁撤)",
        "Lat": 24.99645348,
        "Lon": 121.4902015,
        "Sequence": 35,
        "StationID": "10006"
      },
      {
        "Name": "連城中正路口",
        "Lat": 24.996296,
        "Lon": 121.484217,
        "Sequence": 36,
        "StationID": "10007"
      },
      {
        "Name": "連城路",
        "Lat": 24.996019,
        "Lon": 121.483264,
        "Sequence": 37,
        "StationID": "10008"
      },
      {
        "Name": "中和高中",
        "Lat": 24.9941775057553,
        "Lon": 121.478575833983,
        "Sequence": 38,
        "StationID": "3072"
      }
    ]
  },
  {
    "Route": "214直",
    "SubRoute": "214直去程半",
    "Direction": 0,
    "Stops": [
      {
        "Name": "駕訓中心",
        "Lat": 24.992043,
        "Lon": 121.477332,
        "Sequence": 1,
        "StationID": "3250"
      },
      {
        "Name": "中和高中",
        "Lat": 24.99430779,
        "Lon": 121.4789782,
        "Sequence": 2,
        "StationID": "3071"
      },
      {
        "Name": "連城路",
        "Lat": 24.995553,
        "Lon": 121.482957,
        "Sequence": 3,
        "StationID": "3135"
      },
      {
        "Name": "連城中正路口",
        "Lat": 24.996128,
        "Lon": 121.484429,
        "Sequence": 4,
        "StationID": "3124"
      },
      {
        "Name": "連城錦和路口(暫時裁撤)",
        "Lat": 24.99626066,
        "Lon": 121.4903845,
        "Sequence": 5,
        "StationID": "3052"
      },
      {
        "Name": "台貿一村",
        "Lat": 24.9965568353221,
        "Lon": 121.492320399314,
        "Sequence": 6,
        "StationID": "10005"
      },
      {
        "Name": "中和國稅局",
        "Lat": 24.9981696630183,
        "Lon": 121.495123116568,
        "Sequence": 7,
        "StationID": "3080"
      },
      {
        "Name": "連城景平路(暫時裁撤)",
        "Lat": 24.9996352583255,
        "Lon": 121.496428401096,
        "Sequence": 8,
        "StationID": "3134"
      },
      {
        "Name": "連城中和路口",
        "Lat": 25.001978,
        "Lon": 121.498554,
        "Sequence": 9,
        "StationID": "10001"
      },
      {
        "Name": "中和廟口",
        "Lat": 25.000553,
        "Lon": 121.500968,
        "Sequence": 10,
        "StationID": "3062"
      },
      {
        "Name": "中和派出所",
        "Lat": 24.9996954644534,
        "Lon": 121.502769736506,
        "Sequence": 11,
        "StationID": "3063"
      },
      {
        "Name": "南山高中",
        "Lat": 24.99965591,
        "Lon": 121.5048263,
        "Sequence": 12,
        "StationID": "3107"
      },
      {
        "Name": "雙和里",
        "Lat": 24.999571,
        "Lon": 121.50739,
        "Sequence": 13,
        "StationID": "9610"
      },
      {
        "Name": "華泰新城",
        "Lat": 25.000374,
        "Lon": 121.509133,
        "Sequence": 14,
        "StationID": "3147"
      },
      {
        "Name": "捷運永安市場站",
        "Lat": 25.002402,
        "Lon": 121.51094,
        "Sequence": 15,
        "StationID": "3128"
      },
      {
        "Name": "永和路口",
        "Lat": 25.004572,
        "Lon": 121.512837,
        "Sequence": 16,
        "StationID": "3015"
      },
      {
        "Name": "自由街口",
        "Lat": 25.005973,
        "Lon": 121.514104,
        "Sequence": 17,
        "StationID": "72380"
      },
      {
        "Name": "自強街口",
        "Lat": 25.007558,
        "Lon": 121.514584,
        "Sequence": 18,
        "StationID": "1000058"
      },
      {
        "Name": "樂華夜市",
        "Lat": 25.00856393,
        "Lon": 121.5141176,
        "Sequence": 19,
        "StationID": "9665"
      },
      {
        "Name": "捷運頂溪站",
        "Lat": 25.01258,
        "Lon": 121.515273,
        "Sequence": 20,
        "StationID": "9621"
      },
      {
        "Name": "中正橋頭",
        "Lat": 25.01604284,
        "Lon": 121.5162239,
        "Sequence": 21,
        "StationID": "50809"
      },
      {
        "Name": "重慶南路三段(中正橋)",
        "Lat": 25.0242546637841,
        "Lon": 121.516898839078,
        "Sequence": 22,
        "StationID": "1000325"
      },
      {
        "Name": "和平西路一段",
        "Lat": 25.026752,
        "Lon": 121.51751,
        "Sequence": 23,
        "StationID": "3906"
      },
      {
        "Name": "南福板溪(南昌公園)",
        "Lat": 25.0265749351805,
        "Lon": 121.520278734081,
        "Sequence": 24,
        "StationID": "1907"
      },
      {
        "Name": "捷運古亭站(和平)",
        "Lat": 25.026842,
        "Lon": 121.523591,
        "Sequence": 25,
        "StationID": "1165603341"
      },
      {
        "Name": "金山潮州街口",
        "Lat": 25.028663,
        "Lon": 121.526353,
        "Sequence": 26,
        "StationID": "6621"
      },
      {
        "Name": "公企中心",
        "Lat": 25.03066,
        "Lon": 121.52673,
        "Sequence": 27,
        "StationID": "6676"
      },
      {
        "Name": "捷運東門站(金山)",
        "Lat": 25.03321177,
        "Lon": 121.5272129,
        "Sequence": 28,
        "StationID": "6678"
      },
      {
        "Name": "仁愛路二段",
        "Lat": 25.03778986,
        "Lon": 121.5281994,
        "Sequence": 29,
        "StationID": "1871"
      },
      {
        "Name": "金山泰安街口",
        "Lat": 25.04049366,
        "Lon": 121.5292018,
        "Sequence": 30,
        "StationID": "6677"
      },
      {
        "Name": "新生南路一段",
        "Lat": 25.04021896,
        "Lon": 121.5317999,
        "Sequence": 31,
        "StationID": "2334"
      },
      {
        "Name": "捷運忠孝新生站",
        "Lat": 25.04198981,
        "Lon": 121.5328758,
        "Sequence": 32,
        "StationID": "2264"
      },
      {
        "Name": "光華商場",
        "Lat": 25.045,
        "Lon": 121.53299,
        "Sequence": 33,
        "StationID": "6683"
      },
      {
        "Name": "長安松江路口",
        "Lat": 25.0482736559236,
        "Lon": 121.532997019655,
        "Sequence": 34,
        "StationID": "1281"
      },
      {
        "Name": "捷運松江南京站",
        "Lat": 25.0517997,
        "Lon": 121.533087,
        "Sequence": 35,
        "StationID": "6702"
      },
      {
        "Name": "長春松江路口",
        "Lat": 25.05453652,
        "Lon": 121.5331386,
        "Sequence": 36,
        "StationID": "1270"
      },
      {
        "Name": "捷運行天宮站(松江路)",
        "Lat": 25.057613818954,
        "Lon": 121.533176617617,
        "Sequence": 37,
        "StationID": "6704"
      },
      {
        "Name": "松江新村",
        "Lat": 25.0612684,
        "Lon": 121.5333498,
        "Sequence": 38,
        "StationID": "1271"
      },
      {
        "Name": "民權建國路口",
        "Lat": 25.06236889,
        "Lon": 121.5364984,
        "Sequence": 39,
        "StationID": "1242"
      },
      {
        "Name": "民權龍江路口",
        "Lat": 25.0623255291835,
        "Lon": 121.540554014847,
        "Sequence": 40,
        "StationID": "1000186"
      },
      {
        "Name": "民權復興路口",
        "Lat": 25.06227185,
        "Lon": 121.5438692,
        "Sequence": 41,
        "StationID": "1000326"
      },
      {
        "Name": "民權敦化路口",
        "Lat": 25.062020643130538,
        "Lon": 121.54762539917303,
        "Sequence": 42,
        "StationID": "1244"
      }
    ]
  },
  {
    "Route": "214直",
    "SubRoute": "214直返程半",
    "Direction": 1,
    "Stops": [
      {
        "Name": "松山機場",
        "Lat": 25.063277,
        "Lon": 121.55196,
        "Sequence": 1,
        "StationID": "1536"
      },
      {
        "Name": "民權敦化路口",
        "Lat": 25.06203573,
        "Lon": 121.5482873,
        "Sequence": 2,
        "StationID": "60134"
      },
      {
        "Name": "民權復興路口",
        "Lat": 25.06222037,
        "Lon": 121.5446524,
        "Sequence": 3,
        "StationID": "1000329"
      },
      {
        "Name": "民權龍江路口",
        "Lat": 25.0623959365736,
        "Lon": 121.541275218891,
        "Sequence": 4,
        "StationID": "1000184"
      },
      {
        "Name": "民權建國路口",
        "Lat": 25.06248317,
        "Lon": 121.53746,
        "Sequence": 5,
        "StationID": "4081"
      },
      {
        "Name": "民權松江路口",
        "Lat": 25.06252486,
        "Lon": 121.5334388,
        "Sequence": 6,
        "StationID": "1240"
      },
      {
        "Name": "捷運行天宮站(松江路)",
        "Lat": 25.060643374791923,
        "Lon": 121.53313278818085,
        "Sequence": 7,
        "StationID": "6707"
      },
      {
        "Name": "長春松江路口",
        "Lat": 25.05500621,
        "Lon": 121.533011,
        "Sequence": 8,
        "StationID": "1294"
      },
      {
        "Name": "捷運松江南京站",
        "Lat": 25.05228153,
        "Lon": 121.5329812,
        "Sequence": 9,
        "StationID": "1000806"
      },
      {
        "Name": "長安松江路口",
        "Lat": 25.04864879,
        "Lon": 121.5329145,
        "Sequence": 10,
        "StationID": "1280"
      },
      {
        "Name": "光華商場",
        "Lat": 25.04460839,
        "Lon": 121.5328606,
        "Sequence": 11,
        "StationID": "6684"
      },
      {
        "Name": "捷運忠孝新生站",
        "Lat": 25.040288,
        "Lon": 121.532693,
        "Sequence": 12,
        "StationID": "1000396"
      },
      {
        "Name": "仁愛路二段",
        "Lat": 25.03742288,
        "Lon": 121.5279594,
        "Sequence": 13,
        "StationID": "2215"
      },
      {
        "Name": "捷運東門站(金山)",
        "Lat": 25.033164,
        "Lon": 121.526979,
        "Sequence": 14,
        "StationID": "2280"
      },
      {
        "Name": "公企中心",
        "Lat": 25.03119392732057,
        "Lon": 121.52661106566782,
        "Sequence": 15,
        "StationID": "2196"
      },
      {
        "Name": "金山潮州街口",
        "Lat": 25.028247,
        "Lon": 121.526085,
        "Sequence": 16,
        "StationID": "2269"
      },
      {
        "Name": "捷運古亭站(和平)",
        "Lat": 25.027036,
        "Lon": 121.524516,
        "Sequence": 17,
        "StationID": "3943"
      },
      {
        "Name": "南福板溪(南昌公園)",
        "Lat": 25.02681,
        "Lon": 121.52053,
        "Sequence": 18,
        "StationID": "3905"
      },
      {
        "Name": "和平西路一段",
        "Lat": 25.026994,
        "Lon": 121.517263,
        "Sequence": 19,
        "StationID": "1925"
      },
      {
        "Name": "重慶南路三段(中正橋)",
        "Lat": 25.024804,
        "Lon": 121.516528,
        "Sequence": 20,
        "StationID": "1920"
      },
      {
        "Name": "捷運頂溪站",
        "Lat": 25.014430464101867,
        "Lon": 121.5155769771344,
        "Sequence": 21,
        "StationID": "1165606035"
      },
      {
        "Name": "中興街口",
        "Lat": 25.0115956,
        "Lon": 121.5147464,
        "Sequence": 22,
        "StationID": "3002"
      },
      {
        "Name": "樂華夜市",
        "Lat": 25.00839,
        "Lon": 121.51386,
        "Sequence": 23,
        "StationID": "3045"
      },
      {
        "Name": "永和路口",
        "Lat": 25.0056877314979,
        "Lon": 121.51286138332,
        "Sequence": 24,
        "StationID": "3014"
      },
      {
        "Name": "捷運永安市場站",
        "Lat": 25.002521,
        "Lon": 121.510832,
        "Sequence": 25,
        "StationID": "9611"
      },
      {
        "Name": "華泰新城",
        "Lat": 25.000533,
        "Lon": 121.509035,
        "Sequence": 26,
        "StationID": "9612"
      },
      {
        "Name": "雙和里",
        "Lat": 24.99973099,
        "Lon": 121.5068521,
        "Sequence": 27,
        "StationID": "3171"
      },
      {
        "Name": "南山高中",
        "Lat": 24.999792710544224,
        "Lon": 121.5048390971732,
        "Sequence": 28,
        "StationID": "1165606015"
      },
      {
        "Name": "中和派出所",
        "Lat": 24.9998556483866,
        "Lon": 121.502819563683,
        "Sequence": 29,
        "StationID": "3064"
      },
      {
        "Name": "中和廟口",
        "Lat": 25.000814361663,
        "Lon": 121.50090778406,
        "Sequence": 30,
        "StationID": "9603"
      },
      {
        "Name": "連城中和路口",
        "Lat": 25.002187,
        "Lon": 121.498749,
        "Sequence": 31,
        "StationID": "10002"
      },
      {
        "Name": "連城景平路(暫時裁撤)",
        "Lat": 24.9995896339066,
        "Lon": 121.496156410982,
        "Sequence": 32,
        "StationID": "10003"
      },
      {
        "Name": "中和國稅局",
        "Lat": 24.998274,
        "Lon": 121.494913,
        "Sequence": 33,
        "StationID": "10004"
      },
      {
        "Name": "台貿一村",
        "Lat": 24.99673,
        "Lon": 121.492254369312,
        "Sequence": 34,
        "StationID": "3084"
      },
      {
        "Name": "連城錦和路口(暫時裁撤)",
        "Lat": 24.99645348,
        "Lon": 121.4902015,
        "Sequence": 35,
        "StationID": "10006"
      },
      {
        "Name": "連城中正路口",
        "Lat": 24.996296,
        "Lon": 121.484217,
        "Sequence": 36,
        "StationID": "10007"
      },
      {
        "Name": "連城路",
        "Lat": 24.996019,
        "Lon": 121.483264,
        "Sequence": 37,
        "StationID": "10008"
      },
      {
        "Name": "中和高中",
        "Lat": 24.9941775057553,
        "Lon": 121.478575833983,
        "Sequence": 38,
        "StationID": "3072"
      }
    ]
  }
]