[
  {
    "Route": "287區",
    "SubRoute": "287區",
    "Direction": 0,
    "Stops": [
      {
        "Name": "南寮(忠三街口)",
        "Lat": 25.079068,
        "Lon": 121.623553,
        "Sequence": 1,
        "StationID": "50446"
      },
      {
        "Name": "康湖隧道口(白馬山莊)",
        "Lat": 25.0773157481393,
        "Lon": 121.622813623616,
        "Sequence": 2,
        "StationID": "1025"
      },
      {
        "Name": "五分埤",
        "Lat": 25.0762017702812,
        "Lon": 121.62118809341,
        "Sequence": 3,
        "StationID": "1000201"
      },
      {
        "Name": "東湖國中",
        "Lat": 25.0726450755284,
        "Lon": 121.619351259043,
        "Sequence": 4,
        "StationID": "1055"
      },
      {
        "Name": "康樂街",
        "Lat": 25.0711232284945,
        "Lon": 121.619134959956,
        "Sequence": 5,
        "StationID": "1000203"
      },
      {
        "Name": "東湖社區",
        "Lat": 25.06922957,
        "Lon": 121.6184776,
        "Sequence": 6,
        "StationID": "50444"
      },
      {
        "Name": "東湖國小",
        "Lat": 25.068177,
        "Lon": 121.61668,
        "Sequence": 7,
        "StationID": "8531"
      },
      {
        "Name": "五分社區",
        "Lat": 25.068763284981,
        "Lon": 121.614308439756,
        "Sequence": 8,
        "StationID": "5441"
      },
      {
        "Name": "明湖國中",
        "Lat": 25.0702607638519,
        "Lon": 121.611642249953,
        "Sequence": 9,
        "StationID": "8534"
      },
      {
        "Name": "明湖國小(公共電視台)",
        "Lat": 25.0718101504888,
        "Lon": 121.609308386226,
        "Sequence": 10,
        "StationID": "50442"
      },
      {
        "Name": "捷運葫洲站(康寧大學)",
        "Lat": 25.0726213066526,
        "Lon": 121.607610913193,
        "Sequence": 11,
        "StationID": "1165606697"
      },
      {
        "Name": "金湖路口",
        "Lat": 25.0735474046187,
        "Lon": 121.60468992917,
        "Sequence": 12,
        "StationID": "1000105"
      },
      {
        "Name": "衛勤訓練中心",
        "Lat": 25.07383,
        "Lon": 121.602397,
        "Sequence": 13,
        "StationID": "50503"
      },
      {
        "Name": "紫雲里",
        "Lat": 25.0775703139034,
        "Lon": 121.600364932077,
        "Sequence": 14,
        "StationID": "8516"
      },
      {
        "Name": "美國在臺協會",
        "Lat": 25.079518,
        "Lon": 121.599295,
        "Sequence": 15,
        "StationID": "50504"
      },
      {
        "Name": "康寧派出所",
        "Lat": 25.08111607,
        "Lon": 121.5978951,
        "Sequence": 16,
        "StationID": "8532"
      },
      {
        "Name": "清白里",
        "Lat": 25.082986,
        "Lon": 121.596227,
        "Sequence": 17,
        "StationID": "8412"
      },
      {
        "Name": "捷運內湖站",
        "Lat": 25.0834615421604,
        "Lon": 121.593879114086,
        "Sequence": 18,
        "StationID": "1071"
      },
      {
        "Name": "湖光市場",
        "Lat": 25.081779319488682,
        "Lon": 121.59179366923021,
        "Sequence": 19,
        "StationID": "1103"
      },
      {
        "Name": "成功路三段",
        "Lat": 25.0798544258006,
        "Lon": 121.589838083526,
        "Sequence": 20,
        "StationID": "1029"
      },
      {
        "Name": "內湖高中",
        "Lat": 25.07901319,
        "Lon": 121.5883097,
        "Sequence": 21,
        "StationID": "8523"
      },
      {
        "Name": "捷運文德站(碧湖公園)",
        "Lat": 25.078655,
        "Lon": 121.584351,
        "Sequence": 22,
        "StationID": "1109"
      },
      {
        "Name": "湖光國宅",
        "Lat": 25.07859,
        "Lon": 121.58078,
        "Sequence": 23,
        "StationID": "8415"
      },
      {
        "Name": "西湖圖書館(湖光教會)",
        "Lat": 25.07910692,
        "Lon": 121.5779835,
        "Sequence": 24,
        "StationID": "1000499"
      },
      {
        "Name": "捷運港墘站(內湖高工)",
        "Lat": 25.0798366021365,
        "Lon": 121.57610868441,
        "Sequence": 25,
        "StationID": "8527"
      },
      {
        "Name": "麗山國中",
        "Lat": 25.0806380998734,
        "Lon": 121.573860343024,
        "Sequence": 26,
        "StationID": "4084"
      },
      {
        "Name": "麗山街",
        "Lat": 25.081473,
        "Lon": 121.571386,
        "Sequence": 27,
        "StationID": "1153"
      },
      {
        "Name": "恕德家商",
        "Lat": 25.082118261496,
        "Lon": 121.569461375068,
        "Sequence": 28,
        "StationID": "50515"
      },
      {
        "Name": "捷運西湖站",
        "Lat": 25.0824213906562,
        "Lon": 121.565868143978,
        "Sequence": 29,
        "StationID": "1000723"
      },
      {
        "Name": "治磐新村",
        "Lat": 25.0830692818289,
        "Lon": 121.564098538475,
        "Sequence": 30,
        "StationID": "194"
      },
      {
        "Name": "文湖國小",
        "Lat": 25.0843810062584,
        "Lon": 121.561535778783,
        "Sequence": 31,
        "StationID": "8670"
      },
      {
        "Name": "美麗華",
        "Lat": 25.0848172776379,
        "Lon": 121.558119339359,
        "Sequence": 32,
        "StationID": "1322"
      },
      {
        "Name": "捷運劍南路站",
        "Lat": 25.085303158353604,
        "Lon": 121.55468793143969,
        "Sequence": 33,
        "StationID": "1000695"
      },
      {
        "Name": "自強隧道",
        "Lat": 25.08377483,
        "Lon": 121.5490281,
        "Sequence": 34,
        "StationID": "4182"
      },
      {
        "Name": "植福宮",
        "Lat": 25.0808482,
        "Lon": 121.5482394,
        "Sequence": 35,
        "StationID": "9435"
      },
      {
        "Name": "捷運大直站",
        "Lat": 25.0799238282333,
        "Lon": 121.546139731473,
        "Sequence": 36,
        "StationID": "1000126"
      },
      {
        "Name": "大直高中",
        "Lat": 25.07978102,
        "Lon": 121.5436838,
        "Sequence": 37,
        "StationID": "9433"
      },
      {
        "Name": "空軍司令部",
        "Lat": 25.07961,
        "Lon": 121.54169,
        "Sequence": 38,
        "StationID": "9437"
      },
      {
        "Name": "忠烈祠",
        "Lat": 25.0780024350627,
        "Lon": 121.535552182321,
        "Sequence": 39,
        "StationID": "9436"
      },
      {
        "Name": "中央電台",
        "Lat": 25.0781282212443,
        "Lon": 121.530144788528,
        "Sequence": 40,
        "StationID": "9434"
      },
      {
        "Name": "圓山大飯店",
        "Lat": 25.077322358349,
        "Lon": 121.527964269875,
        "Sequence": 41,
        "StationID": "1357"
      },
      {
        "Name": "臺北市立美術館",
        "Lat": 25.070066233009,
        "Lon": 121.523095139749,
        "Sequence": 42,
        "StationID": "4121"
      },
      {
        "Name": "捷運圓山站",
        "Lat": 25.06919565,
        "Lon": 121.5199738,
        "Sequence": 43,
        "StationID": "1001373"
      },
      {
        "Name": "民族承德路口",
        "Lat": 25.0679133670728,
        "Lon": 121.518267306546,
        "Sequence": 44,
        "StationID": "1424"
      },
      {
        "Name": "大同國小",
        "Lat": 25.06487427,
        "Lon": 121.5181,
        "Sequence": 45,
        "StationID": "1401"
      },
      {
        "Name": "大龍街口",
        "Lat": 25.063069,
        "Lon": 121.517328,
        "Sequence": 46,
        "StationID": "1165603302"
      }
    ]
  },
  {
    "Route": "287區",
    "SubRoute": "287區",
    "Direction": 1,
    "Stops": [
      {
        "Name": "昌吉重慶路口",
        "Lat": 25.06581169232777,
        "Lon": 121.51372071650857,
        "Sequence": 1,
        "StationID": "1441"
      },
      {
        "Name": "民族重慶路口",
        "Lat": 25.06854,
        "Lon": 121.51425,
        "Sequence": 2,
        "StationID": "1001200"
      },
      {
        "Name": "蘭州國中",
        "Lat": 25.06847,
        "Lon": 121.51626,
        "Sequence": 3,
        "StationID": "1487"
      },
      {
        "Name": "捷運圓山站",
        "Lat": 25.069744,
        "Lon": 121.520216,
        "Sequence": 4,
        "StationID": "1462"
      },
      {
        "Name": "臺北市立美術館",
        "Lat": 25.0721395085303,
        "Lon": 121.523964286473,
        "Sequence": 5,
        "StationID": "101"
      },
      {
        "Name": "圓山大飯店",
        "Lat": 25.0772703676354,
        "Lon": 121.528167347349,
        "Sequence": 6,
        "StationID": "1356"
      },
      {
        "Name": "中央電台",
        "Lat": 25.0779258290758,
        "Lon": 121.53000062511,
        "Sequence": 7,
        "StationID": "1195"
      },
      {
        "Name": "忠烈祠",
        "Lat": 25.07800478,
        "Lon": 121.5319142,
        "Sequence": 8,
        "StationID": "1260"
      },
      {
        "Name": "經國七海文化園區",
        "Lat": 25.07778224,
        "Lon": 121.535397,
        "Sequence": 9,
        "StationID": "4740"
      },
      {
        "Name": "空軍司令部",
        "Lat": 25.0793999240419,
        "Lon": 121.540311649212,
        "Sequence": 10,
        "StationID": "1382"
      },
      {
        "Name": "大直高中",
        "Lat": 25.07949,
        "Lon": 121.54255,
        "Sequence": 11,
        "StationID": "1179"
      },
      {
        "Name": "大直國小",
        "Lat": 25.07971159,
        "Lon": 121.5453154,
        "Sequence": 12,
        "StationID": "1180"
      },
      {
        "Name": "捷運大直站",
        "Lat": 25.0802161011772,
        "Lon": 121.5479855392,
        "Sequence": 13,
        "StationID": "4187"
      },
      {
        "Name": "植福宮",
        "Lat": 25.08160965,
        "Lon": 121.5488002,
        "Sequence": 14,
        "StationID": "1212"
      },
      {
        "Name": "自強隧道(大直教會)",
        "Lat": 25.0837373733406,
        "Lon": 121.549307259251,
        "Sequence": 15,
        "StationID": "1255"
      },
      {
        "Name": "自強隧道",
        "Lat": 25.0858624708036,
        "Lon": 121.551895985064,
        "Sequence": 16,
        "StationID": "1254"
      },
      {
        "Name": "捷運劍南路站",
        "Lat": 25.08484,
        "Lon": 121.555253,
        "Sequence": 17,
        "StationID": "1000117"
      },
      {
        "Name": "美麗華",
        "Lat": 25.0845384449731,
        "Lon": 121.558196913178,
        "Sequence": 18,
        "StationID": "1000127"
      },
      {
        "Name": "文湖國小",
        "Lat": 25.0841512660387,
        "Lon": 121.5615165067,
        "Sequence": 19,
        "StationID": "1008"
      },
      {
        "Name": "治磐新村",
        "Lat": 25.0829452709661,
        "Lon": 121.56384168984,
        "Sequence": 20,
        "StationID": "8521"
      },
      {
        "Name": "捷運西湖站",
        "Lat": 25.0821974042872,
        "Lon": 121.565884872161,
        "Sequence": 21,
        "StationID": "1000698"
      },
      {
        "Name": "恕德家商",
        "Lat": 25.0819632554949,
        "Lon": 121.56904542401,
        "Sequence": 22,
        "StationID": "1075"
      },
      {
        "Name": "麗山街",
        "Lat": 25.081132,
        "Lon": 121.57184,
        "Sequence": 23,
        "StationID": "8410"
      },
      {
        "Name": "捷運港墘站(內湖高工)",
        "Lat": 25.0801493693391,
        "Lon": 121.574618145655,
        "Sequence": 24,
        "StationID": "997"
      },
      {
        "Name": "西湖圖書館(湖光教會)",
        "Lat": 25.078683,
        "Lon": 121.578396,
        "Sequence": 25,
        "StationID": "1041"
      },
      {
        "Name": "湖光國宅",
        "Lat": 25.0783569202296,
        "Lon": 121.581597209792,
        "Sequence": 26,
        "StationID": "1104"
      },
      {
        "Name": "捷運文德站(碧湖公園)",
        "Lat": 25.07840172,
        "Lon": 121.5841327,
        "Sequence": 27,
        "StationID": "4083"
      },
      {
        "Name": "內湖高中",
        "Lat": 25.0787035812339,
        "Lon": 121.587565869008,
        "Sequence": 28,
        "StationID": "998"
      },
      {
        "Name": "成功路三段",
        "Lat": 25.0796177267452,
        "Lon": 121.589939880159,
        "Sequence": 29,
        "StationID": "8520"
      },
      {
        "Name": "湖光市場",
        "Lat": 25.0816997666211,
        "Lon": 121.59200882874,
        "Sequence": 30,
        "StationID": "8537"
      },
      {
        "Name": "捷運內湖站",
        "Lat": 25.08334,
        "Lon": 121.594132,
        "Sequence": 31,
        "StationID": "8538"
      },
      {
        "Name": "清白里",
        "Lat": 25.08329381,
        "Lon": 121.5956787,
        "Sequence": 32,
        "StationID": "1101"
      },
      {
        "Name": "康寧派出所",
        "Lat": 25.08099496,
        "Lon": 121.5977367,
        "Sequence": 33,
        "StationID": "1088"
      },
      {
        "Name": "美國在臺協會",
        "Lat": 25.079466,
        "Lon": 121.599056,
        "Sequence": 34,
        "StationID": "967"
      },
      {
        "Name": "紫雲里",
        "Lat": 25.0780426740961,
        "Lon": 121.600001703154,
        "Sequence": 35,
        "StationID": "8517"
      },
      {
        "Name": "衛勤訓練中心",
        "Lat": 25.073588,
        "Lon": 121.602349,
        "Sequence": 36,
        "StationID": "1134"
      },
      {
        "Name": "金湖路口",
        "Lat": 25.0734224462912,
        "Lon": 121.604275942446,
        "Sequence": 37,
        "StationID": "1000106"
      },
      {
        "Name": "捷運葫洲站(康寧大學)",
        "Lat": 25.07246542,
        "Lon": 121.6075013,
        "Sequence": 38,
        "StationID": "1165606698"
      },
      {
        "Name": "明湖國小(公共電視台)",
        "Lat": 25.0716328345384,
        "Lon": 121.609320074507,
        "Sequence": 39,
        "StationID": "1049"
      },
      {
        "Name": "五分社區",
        "Lat": 25.06860831,
        "Lon": 121.6144033,
        "Sequence": 40,
        "StationID": "986"
      },
      {
        "Name": "東湖國小",
        "Lat": 25.06806969,
        "Lon": 121.6165906,
        "Sequence": 41,
        "StationID": "8530"
      },
      {
        "Name": "東湖社區",
        "Lat": 25.069547,
        "Lon": 121.618788,
        "Sequence": 42,
        "StationID": "1044"
      },
      {
        "Name": "康樂街",
        "Lat": 25.07119075,
        "Lon": 121.6191996,
        "Sequence": 43,
        "StationID": "1000734"
      },
      {
        "Name": "東湖國中",
        "Lat": 25.07287274,
        "Lon": 121.6194588,
        "Sequence": 44,
        "StationID": "1000677"
      },
      {
        "Name": "五分埤",
        "Lat": 25.0761334864734,
        "Lon": 121.621188834486,
        "Sequence": 45,
        "StationID": "1000211"
      },
      {
        "Name": "康湖隧道口(白馬山莊)",
        "Lat": 25.07715,
        "Lon": 121.62288,
        "Sequence": 46,
        "StationID": "50445"
      },
      {
        "Name": "南寮(忠三街口)",
        "Lat": 25.078715,
        "Lon": 121.62361,
        "Sequence": 47,
        "StationID": "1042"
      }
    ]
  }
]