[
  {
    "Route": "棕6",
    "SubRoute": "棕6",
    "Direction": 0,
    "Stops": [
      {
        "Name": "捷運動物園站",
        "Lat": 24.99881,
        "Lon": 121.58021,
        "Sequence": 1,
        "StationID": "2442"
      },
      {
        "Name": "貓纜動物園站",
        "Lat": 24.9968,
        "Lon": 121.576778,
        "Sequence": 2,
        "StationID": "1000436"
      },
      {
        "Name": "萬壽橋頭(新光)",
        "Lat": 24.993482,
        "Lon": 121.57363,
        "Sequence": 3,
        "StationID": "2512"
      },
      {
        "Name": "萬壽橋頭(秀明)",
        "Lat": 24.99161,
        "Lon": 121.574153,
        "Sequence": 4,
        "StationID": "2510"
      },
      {
        "Name": "萬興國小",
        "Lat": 24.989679,
        "Lon": 121.576757,
        "Sequence": 5,
        "StationID": "2519"
      },
      {
        "Name": "政大一",
        "Lat": 24.98782160454249,
        "Lon": 121.57604615193513,
        "Sequence": 6,
        "StationID": "1001409"
      },
      {
        "Name": "新光路口",
        "Lat": 24.9880845060964,
        "Lon": 121.573881732316,
        "Sequence": 7,
        "StationID": "1000854"
      },
      {
        "Name": "指南路",
        "Lat": 24.987746922127,
        "Lon": 121.56997997801,
        "Sequence": 8,
        "StationID": "1000855"
      },
      {
        "Name": "木柵市場",
        "Lat": 24.98794462737213,
        "Lon": 121.5686729036256,
        "Sequence": 9,
        "StationID": "2384"
      },
      {
        "Name": "木柵",
        "Lat": 24.9885790493873,
        "Lon": 121.566361887311,
        "Sequence": 10,
        "StationID": "56107"
      },
      {
        "Name": "文山一分局",
        "Lat": 24.989024145656842,
        "Lon": 121.56247819644113,
        "Sequence": 11,
        "StationID": "56106"
      },
      {
        "Name": "再興中學",
        "Lat": 24.9888253106036,
        "Lon": 121.559397779257,
        "Sequence": 12,
        "StationID": "56104"
      },
      {
        "Name": "中興公寓",
        "Lat": 24.9885175064144,
        "Lon": 121.556489526679,
        "Sequence": 13,
        "StationID": "56103"
      },
      {
        "Name": "永建國小",
        "Lat": 24.9884186896602,
        "Lon": 121.555474,
        "Sequence": 14,
        "StationID": "56102"
      },
      {
        "Name": "溝子口",
        "Lat": 24.98800122,
        "Lon": 121.5528996,
        "Sequence": 15,
        "StationID": "56101"
      },
      {
        "Name": "考試院",
        "Lat": 24.98759233313,
        "Lon": 121.550077359064,
        "Sequence": 16,
        "StationID": "56100"
      },
      {
        "Name": "復興派出所",
        "Lat": 24.986892,
        "Lon": 121.5464,
        "Sequence": 17,
        "StationID": "56099"
      },
      {
        "Name": "世新大學",
        "Lat": 24.98858,
        "Lon": 121.54401,
        "Sequence": 18,
        "StationID": "56098"
      },
      {
        "Name": "景美國小(景文)",
        "Lat": 24.9891053967322,
        "Lon": 121.540918398248,
        "Sequence": 19,
        "StationID": "1001074"
      },
      {
        "Name": "文山二分局",
        "Lat": 24.9920548778923,
        "Lon": 121.541402549692,
        "Sequence": 20,
        "StationID": "57710"
      },
      {
        "Name": "財政園區",
        "Lat": 24.99545268,
        "Lon": 121.5413365,
        "Sequence": 21,
        "StationID": "1000808"
      },
      {
        "Name": "萬隆",
        "Lat": 24.99931624,
        "Lon": 121.5402001,
        "Sequence": 22,
        "StationID": "1000234"
      },
      {
        "Name": "捷運萬隆站",
        "Lat": 25.00136317,
        "Lon": 121.5393892,
        "Sequence": 23,
        "StationID": "1000235"
      },
      {
        "Name": "武功國小(羅斯福)",
        "Lat": 25.00327364,
        "Lon": 121.5387822,
        "Sequence": 24,
        "StationID": "244"
      },
      {
        "Name": "武功國小(興隆)",
        "Lat": 25.004134202331223,
        "Lon": 121.53985642693925,
        "Sequence": 25,
        "StationID": "2413"
      },
      {
        "Name": "景明街口",
        "Lat": 25.0014489083498,
        "Lon": 121.542377053436,
        "Sequence": 26,
        "StationID": "2458"
      },
      {
        "Name": "憲光公寓",
        "Lat": 24.9994337628866,
        "Lon": 121.54389161859,
        "Sequence": 27,
        "StationID": "1000232"
      },
      {
        "Name": "靜心高中",
        "Lat": 24.998797,
        "Lon": 121.545859,
        "Sequence": 28,
        "StationID": "2546"
      },
      {
        "Name": "興隆市場",
        "Lat": 24.9996328919305,
        "Lon": 121.547902045529,
        "Sequence": 29,
        "StationID": "2536"
      },
      {
        "Name": "興德國小",
        "Lat": 25.0009702685655,
        "Lon": 121.550307886322,
        "Sequence": 30,
        "StationID": "2542"
      },
      {
        "Name": "興隆國小",
        "Lat": 25.0012218102124,
        "Lon": 121.553328388246,
        "Sequence": 31,
        "StationID": "2538"
      },
      {
        "Name": "捷運萬芳醫院站",
        "Lat": 24.999051,
        "Lon": 121.557681,
        "Sequence": 32,
        "StationID": "1165604764"
      },
      {
        "Name": "臺灣警察專科學校",
        "Lat": 24.9982684874929,
        "Lon": 121.558494894192,
        "Sequence": 33,
        "StationID": "1000770"
      },
      {
        "Name": "文山運動中心(萬芳)",
        "Lat": 24.996958,
        "Lon": 121.56078,
        "Sequence": 34,
        "StationID": "1000452"
      },
      {
        "Name": "棕櫚泉社區",
        "Lat": 24.99729,
        "Lon": 121.56229,
        "Sequence": 35,
        "StationID": "2475"
      },
      {
        "Name": "萬利街口",
        "Lat": 24.998733,
        "Lon": 121.56623,
        "Sequence": 36,
        "StationID": "1000041"
      },
      {
        "Name": "捷運萬芳社區站",
        "Lat": 24.9988589682607,
        "Lon": 121.56808367448,
        "Sequence": 37,
        "StationID": "2322"
      },
      {
        "Name": "萬芳6號公園",
        "Lat": 24.99976765,
        "Lon": 121.5691055,
        "Sequence": 38,
        "StationID": "1165604749"
      },
      {
        "Name": "萬芳國小",
        "Lat": 25.001533,
        "Lon": 121.567472,
        "Sequence": 39,
        "StationID": "50053"
      },
      {
        "Name": "萬芳派出所",
        "Lat": 25.001846895493077,
        "Lon": 121.56609661959216,
        "Sequence": 40,
        "StationID": "50052"
      },
      {
        "Name": "公務人員訓練處",
        "Lat": 25.0020353,
        "Lon": 121.5619947,
        "Sequence": 41,
        "StationID": "50051"
      },
      {
        "Name": "萬美社區",
        "Lat": 25.003346,
        "Lon": 121.563081,
        "Sequence": 42,
        "StationID": "1165604841"
      },
      {
        "Name": "萬芳國宅",
        "Lat": 25.003393,
        "Lon": 121.565624,
        "Sequence": 43,
        "StationID": "2495"
      },
      {
        "Name": "萬寧街",
        "Lat": 25.0031179,
        "Lon": 121.5705532,
        "Sequence": 44,
        "StationID": "2515"
      },
      {
        "Name": "萬寧山莊",
        "Lat": 25.0042437073135,
        "Lon": 121.570485304818,
        "Sequence": 45,
        "StationID": "50047"
      },
      {
        "Name": "名門社區",
        "Lat": 25.004782,
        "Lon": 121.567933,
        "Sequence": 46,
        "StationID": "36111"
      },
      {
        "Name": "和平東路4段",
        "Lat": 25.00449451854,
        "Lon": 121.570861398628,
        "Sequence": 47,
        "StationID": "2428"
      },
      {
        "Name": "萬芳社區(和平)",
        "Lat": 25.002678,
        "Lon": 121.57187,
        "Sequence": 48,
        "StationID": "1000684"
      },
      {
        "Name": "軍功新村",
        "Lat": 24.999691818730497,
        "Lon": 121.57374090486223,
        "Sequence": 49,
        "StationID": "2427"
      },
      {
        "Name": "博嘉國小",
        "Lat": 24.99899,
        "Lon": 121.57533,
        "Sequence": 50,
        "StationID": "2454"
      },
      {
        "Name": "信義松仁路口(信義)",
        "Lat": 25.0329497897498,
        "Lon": 121.566687674056,
        "Sequence": 51,
        "StationID": "6929"
      },
      {
        "Name": "捷運台北101/世貿站(市府)",
        "Lat": 25.034512868313872,
        "Lon": 121.56357599974903,
        "Sequence": 52,
        "StationID": "2029"
      },
      {
        "Name": "市政府(市府)",
        "Lat": 25.038332,
        "Lon": 121.563754,
        "Sequence": 53,
        "StationID": "2063"
      },
      {
        "Name": "捷運市政府站",
        "Lat": 25.04100991,
        "Lon": 121.5668354,
        "Sequence": 54,
        "StationID": "3916"
      }
    ]
  },
  {
    "Route": "棕6",
    "SubRoute": "棕6",
    "Direction": 1,
    "Stops": [
      {
        "Name": "消防局(松仁)",
        "Lat": 25.038604,
        "Lon": 121.568284,
        "Sequence": 1,
        "StationID": "1165604593"
      },
      {
        "Name": "興雅國中",
        "Lat": 25.0372323905063,
        "Lon": 121.568268559011,
        "Sequence": 2,
        "StationID": "2179"
      },
      {
        "Name": "信義松仁路口(松仁)",
        "Lat": 25.0345352489599,
        "Lon": 121.568236043782,
        "Sequence": 3,
        "StationID": "2121"
      },
      {
        "Name": "博嘉國小",
        "Lat": 24.9993898137115,
        "Lon": 121.575395362596,
        "Sequence": 4,
        "StationID": "56110"
      },
      {
        "Name": "軍功新村",
        "Lat": 25.0001268,
        "Lon": 121.5737,
        "Sequence": 5,
        "StationID": "36113"
      },
      {
        "Name": "萬芳社區(和平)",
        "Lat": 25.0028541470424,
        "Lon": 121.571969627588,
        "Sequence": 6,
        "StationID": "1000680"
      },
      {
        "Name": "和平東路4段",
        "Lat": 25.0046814962866,
        "Lon": 121.570509533684,
        "Sequence": 7,
        "StationID": "1000088"
      },
      {
        "Name": "名門社區",
        "Lat": 25.0046374220822,
        "Lon": 121.567900817651,
        "Sequence": 8,
        "StationID": "1001411"
      },
      {
        "Name": "萬寧山莊",
        "Lat": 25.0041631244417,
        "Lon": 121.570371684081,
        "Sequence": 9,
        "StationID": "2514"
      },
      {
        "Name": "萬寧街",
        "Lat": 25.0032053525918,
        "Lon": 121.570571682464,
        "Sequence": 10,
        "StationID": "1000089"
      },
      {
        "Name": "萬芳國宅",
        "Lat": 25.003405,
        "Lon": 121.565052,
        "Sequence": 11,
        "StationID": "50048"
      },
      {
        "Name": "萬美社區",
        "Lat": 25.003405,
        "Lon": 121.563084,
        "Sequence": 12,
        "StationID": "1165604842"
      },
      {
        "Name": "公務人員訓練處",
        "Lat": 25.0018116822751,
        "Lon": 121.562127594784,
        "Sequence": 13,
        "StationID": "2373"
      },
      {
        "Name": "萬芳派出所",
        "Lat": 25.0017624091424,
        "Lon": 121.566256708836,
        "Sequence": 14,
        "StationID": "2492"
      },
      {
        "Name": "萬芳國小",
        "Lat": 25.00146028,
        "Lon": 121.5672991,
        "Sequence": 15,
        "StationID": "2494"
      },
      {
        "Name": "萬芳6號公園",
        "Lat": 24.999962,
        "Lon": 121.56892,
        "Sequence": 16,
        "StationID": "1165604748"
      },
      {
        "Name": "萬利街口",
        "Lat": 24.999065,
        "Lon": 121.567262,
        "Sequence": 17,
        "StationID": "2489"
      },
      {
        "Name": "棕櫚泉社區",
        "Lat": 24.99756829,
        "Lon": 121.5625566,
        "Sequence": 18,
        "StationID": "2473"
      },
      {
        "Name": "文山運動中心(萬芳)",
        "Lat": 24.99706037,
        "Lon": 121.5603813,
        "Sequence": 19,
        "StationID": "1000857"
      },
      {
        "Name": "臺灣警察專科學校",
        "Lat": 24.9977449509898,
        "Lon": 121.55947313859588,
        "Sequence": 20,
        "StationID": "1000764"
      },
      {
        "Name": "捷運萬芳醫院站",
        "Lat": 24.999259,
        "Lon": 121.557829,
        "Sequence": 21,
        "StationID": "2449"
      },
      {
        "Name": "中國科技大學(興隆)",
        "Lat": 25.0004051038435,
        "Lon": 121.555797991874,
        "Sequence": 22,
        "StationID": "2375"
      },
      {
        "Name": "興隆國小",
        "Lat": 25.001459963615,
        "Lon": 121.553039816886,
        "Sequence": 23,
        "StationID": "1000035"
      },
      {
        "Name": "興德國小",
        "Lat": 25.0009828977016,
        "Lon": 121.550073640107,
        "Sequence": 24,
        "StationID": "1000858"
      },
      {
        "Name": "興隆市場",
        "Lat": 24.9995842974218,
        "Lon": 121.547448469573,
        "Sequence": 25,
        "StationID": "1000037"
      },
      {
        "Name": "靜心高中",
        "Lat": 24.998953,
        "Lon": 121.545835,
        "Sequence": 26,
        "StationID": "20244"
      },
      {
        "Name": "憲光公寓",
        "Lat": 24.999719170953,
        "Lon": 121.54393655953,
        "Sequence": 27,
        "StationID": "2533"
      },
      {
        "Name": "景明街口",
        "Lat": 25.0015098013863,
        "Lon": 121.542530095186,
        "Sequence": 28,
        "StationID": "2457"
      },
      {
        "Name": "武功國小(興隆)",
        "Lat": 25.0042661031504,
        "Lon": 121.539995594657,
        "Sequence": 29,
        "StationID": "3980"
      },
      {
        "Name": "武功國小(羅斯福)",
        "Lat": 25.00341174,
        "Lon": 121.5384705,
        "Sequence": 30,
        "StationID": "2412"
      },
      {
        "Name": "捷運萬隆站",
        "Lat": 25.00178299384715,
        "Lon": 121.53891974229319,
        "Sequence": 31,
        "StationID": "2450"
      },
      {
        "Name": "萬隆",
        "Lat": 24.99939586,
        "Lon": 121.5398039,
        "Sequence": 32,
        "StationID": "2503"
      },
      {
        "Name": "財政園區",
        "Lat": 24.995644300082535,
        "Lon": 121.54100316430888,
        "Sequence": 33,
        "StationID": "1000807"
      },
      {
        "Name": "景美國中",
        "Lat": 24.992776404618,
        "Lon": 121.542708979168,
        "Sequence": 34,
        "StationID": "2464"
      },
      {
        "Name": "景美國小(景興)",
        "Lat": 24.9897079824046,
        "Lon": 121.542536892973,
        "Sequence": 35,
        "StationID": "2463"
      },
      {
        "Name": "世新大學",
        "Lat": 24.988478,
        "Lon": 121.54381,
        "Sequence": 36,
        "StationID": "2394"
      },
      {
        "Name": "復興派出所",
        "Lat": 24.9867882,
        "Lon": 121.5465259,
        "Sequence": 37,
        "StationID": "2455"
      },
      {
        "Name": "考試院",
        "Lat": 24.9873383747906,
        "Lon": 121.549735378275,
        "Sequence": 38,
        "StationID": "2406"
      },
      {
        "Name": "永建國小",
        "Lat": 24.98809,
        "Lon": 121.554868,
        "Sequence": 39,
        "StationID": "2402"
      },
      {
        "Name": "中興公寓",
        "Lat": 24.9884116429436,
        "Lon": 121.556482491508,
        "Sequence": 40,
        "StationID": "2377"
      },
      {
        "Name": "再興中學",
        "Lat": 24.9886499986778,
        "Lon": 121.559246461721,
        "Sequence": 41,
        "StationID": "2403"
      },
      {
        "Name": "文山一分局",
        "Lat": 24.98887,
        "Lon": 121.56251,
        "Sequence": 42,
        "StationID": "2378"
      },
      {
        "Name": "木柵",
        "Lat": 24.9885,
        "Lon": 121.56657,
        "Sequence": 43,
        "StationID": "1000439"
      },
      {
        "Name": "木柵市場",
        "Lat": 24.98849886,
        "Lon": 121.5685523,
        "Sequence": 44,
        "StationID": "50682"
      },
      {
        "Name": "永安街",
        "Lat": 24.98672,
        "Lon": 121.56893,
        "Sequence": 45,
        "StationID": "142"
      },
      {
        "Name": "指南路口",
        "Lat": 24.9871941238226,
        "Lon": 121.570722800802,
        "Sequence": 46,
        "StationID": "2426"
      },
      {
        "Name": "政大",
        "Lat": 24.9878362086283,
        "Lon": 121.574633255625,
        "Sequence": 47,
        "StationID": "2415"
      },
      {
        "Name": "政大一",
        "Lat": 24.988319,
        "Lon": 121.576427,
        "Sequence": 48,
        "StationID": "1001400"
      },
      {
        "Name": "萬興圖書館",
        "Lat": 24.989020423587586,
        "Lon": 121.57699279565435,
        "Sequence": 49,
        "StationID": "2520"
      },
      {
        "Name": "大誠高中",
        "Lat": 24.990413,
        "Lon": 121.576905,
        "Sequence": 50,
        "StationID": "2368"
      },
      {
        "Name": "萬壽橋頭(秀明)",
        "Lat": 24.991863,
        "Lon": 121.574627,
        "Sequence": 51,
        "StationID": "50671"
      },
      {
        "Name": "萬壽橋頭(新光)",
        "Lat": 24.992819,
        "Lon": 121.573853,
        "Sequence": 52,
        "StationID": "50669"
      },
      {
        "Name": "貓纜動物園站",
        "Lat": 24.9963006246947,
        "Lon": 121.576314002724,
        "Sequence": 53,
        "StationID": "2443"
      },
      {
        "Name": "捷運動物園站",
        "Lat": 24.99857,
        "Lon": 121.57996,
        "Sequence": 54,
        "StationID": "50672"
      }
    ]
  },
  {
    "Route": "棕6",
    "SubRoute": "棕6狗狗公車",
    "Direction": 0,
    "Stops": [
      {
        "Name": "捷運動物園站",
        "Lat": 24.99881,
        "Lon": 121.58021,
        "Sequence": 1,
        "StationID": "2442"
      },
      {
        "Name": "貓纜動物園站",
        "Lat": 24.9968,
        "Lon": 121.576778,
        "Sequence": 2,
        "StationID": "1000436"
      },
      {
        "Name": "萬壽橋頭(新光)",
        "Lat": 24.993482,
        "Lon": 121.57363,
        "Sequence": 3,
        "StationID": "2512"
      },
      {
        "Name": "萬壽橋頭(秀明)",
        "Lat": 24.99161,
        "Lon": 121.574153,
        "Sequence": 4,
        "StationID": "2510"
      },
      {
        "Name": "萬興國小",
        "Lat": 24.989679,
        "Lon": 121.576757,
        "Sequence": 5,
        "StationID": "2519"
      },
      {
        "Name": "政大一",
        "Lat": 24.98782160454249,
        "Lon": 121.57604615193513,
        "Sequence": 6,
        "StationID": "1001409"
      },
      {
        "Name": "新光路口",
        "Lat": 24.9880845060964,
        "Lon": 121.573881732316,
        "Sequence": 7,
        "StationID": "1000854"
      },
      {
        "Name": "指南路",
        "Lat": 24.987746922127,
        "Lon": 121.56997997801,
        "Sequence": 8,
        "StationID": "1000855"
      },
      {
        "Name": "木柵市場",
        "Lat": 24.98794462737213,
        "Lon": 121.5686729036256,
        "Sequence": 9,
        "StationID": "2384"
      },
      {
        "Name": "木柵",
        "Lat": 24.9885790493873,
        "Lon": 121.566361887311,
        "Sequence": 10,
        "StationID": "56107"
      },
      {
        "Name": "文山一分局",
        "Lat": 24.989024145656842,
        "Lon": 121.56247819644113,
        "Sequence": 11,
        "StationID": "56106"
      },
      {
        "Name": "再興中學",
        "Lat": 24.9888253106036,
        "Lon": 121.559397779257,
        "Sequence": 12,
        "StationID": "56104"
      },
      {
        "Name": "中興公寓",
        "Lat": 24.9885175064144,
        "Lon": 121.556489526679,
        "Sequence": 13,
        "StationID": "56103"
      },
      {
        "Name": "永建國小",
        "Lat": 24.9884186896602,
        "Lon": 121.555474,
        "Sequence": 14,
        "StationID": "56102"
      },
      {
        "Name": "溝子口",
        "Lat": 24.98800122,
        "Lon": 121.5528996,
        "Sequence": 15,
        "StationID": "56101"
      },
      {
        "Name": "考試院",
        "Lat": 24.98759233313,
        "Lon": 121.550077359064,
        "Sequence": 16,
        "StationID": "56100"
      },
      {
        "Name": "復興派出所",
        "Lat": 24.986892,
        "Lon": 121.5464,
        "Sequence": 17,
        "StationID": "56099"
      },
      {
        "Name": "世新大學",
        "Lat": 24.98858,
        "Lon": 121.54401,
        "Sequence": 18,
        "StationID": "56098"
      },
      {
        "Name": "景美國小(景文)",
        "Lat": 24.9891053967322,
        "Lon": 121.540918398248,
        "Sequence": 19,
        "StationID": "1001074"
      },
      {
        "Name": "文山二分局",
        "Lat": 24.9920548778923,
        "Lon": 121.541402549692,
        "Sequence": 20,
        "StationID": "57710"
      },
      {
        "Name": "財政園區",
        "Lat": 24.99545268,
        "Lon": 121.5413365,
        "Sequence": 21,
        "StationID": "1000808"
      },
      {
        "Name": "萬隆",
        "Lat": 24.99931624,
        "Lon": 121.5402001,
        "Sequence": 22,
        "StationID": "1000234"
      },
      {
        "Name": "捷運萬隆站",
        "Lat": 25.00136317,
        "Lon": 121.5393892,
        "Sequence": 23,
        "StationID": "1000235"
      },
      {
        "Name": "武功國小(羅斯福)",
        "Lat": 25.00327364,
        "Lon": 121.5387822,
        "Sequence": 24,
        "StationID": "244"
      },
      {
        "Name": "武功國小(興隆)",
        "Lat": 25.004134202331223,
        "Lon": 121.53985642693925,
        "Sequence": 25,
        "StationID": "2413"
      },
      {
        "Name": "景明街口",
        "Lat": 25.0014489083498,
        "Lon": 121.542377053436,
        "Sequence": 26,
        "StationID": "2458"
      },
      {
        "Name": "憲光公寓",
        "Lat": 24.9994337628866,
        "Lon": 121.54389161859,
        "Sequence": 27,
        "StationID": "1000232"
      },
      {
        "Name": "靜心高中",
        "Lat": 24.998797,
        "Lon": 121.545859,
        "Sequence": 28,
        "StationID": "2546"
      },
      {
        "Name": "興隆市場",
        "Lat": 24.9996328919305,
        "Lon": 121.547902045529,
        "Sequence": 29,
        "StationID": "2536"
      },
      {
        "Name": "興德國小",
        "Lat": 25.0009702685655,
        "Lon": 121.550307886322,
        "Sequence": 30,
        "StationID": "2542"
      },
      {
        "Name": "興隆國小",
        "Lat": 25.0012218102124,
        "Lon": 121.553328388246,
        "Sequence": 31,
        "StationID": "2538"
      },
      {
        "Name": "捷運萬芳醫院站",
        "Lat": 24.999051,
        "Lon": 121.557681,
        "Sequence": 32,
        "StationID": "1165604764"
      },
      {
        "Name": "臺灣警察專科學校",
        "Lat": 24.9982684874929,
        "Lon": 121.558494894192,
        "Sequence": 33,
        "StationID": "1000770"
      },
      {
        "Name": "文山運動中心(萬芳)",
        "Lat": 24.996958,
        "Lon": 121.56078,
        "Sequence": 34,
        "StationID": "1000452"
      },
      {
        "Name": "棕櫚泉社區",
        "Lat": 24.99729,
        "Lon": 121.56229,
        "Sequence": 35,
        "StationID": "2475"
      },
      {
        "Name": "萬利街口",
        "Lat": 24.998733,
        "Lon": 121.56623,
        "Sequence": 36,
        "StationID": "1000041"
      },
      {
        "Name": "捷運萬芳社區站",
        "Lat": 24.9988589682607,
        "Lon": 121.56808367448,
        "Sequence": 37,
        "StationID": "2322"
      },
      {
        "Name": "萬芳6號公園",
        "Lat": 24.99976765,
        "Lon": 121.5691055,
        "Sequence": 38,
        "StationID": "1165604749"
      },
      {
        "Name": "萬芳國小",
        "Lat": 25.001533,
        "Lon": 121.567472,
        "Sequence": 39,
        "StationID": "50053"
      },
      {
        "Name": "萬芳派出所",
        "Lat": 25.001846895493077,
        "Lon": 121.56609661959216,
        "Sequence": 40,
        "StationID": "50052"
      },
      {
        "Name": "公務人員訓練處",
        "Lat": 25.0020353,
        "Lon": 121.5619947,
        "Sequence": 41,
        "StationID": "50051"
      },
      {
        "Name": "萬美社區",
        "Lat": 25.003346,
        "Lon": 121.563081,
        "Sequence": 42,
        "StationID": "1165604841"
      },
      {
        "Name": "萬芳國宅",
        "Lat": 25.003393,
        "Lon": 121.565624,
        "Sequence": 43,
        "StationID": "2495"
      },
      {
        "Name": "萬寧街",
        "Lat": 25.0031179,
        "Lon": 121.5705532,
        "Sequence": 44,
        "StationID": "2515"
      },
      {
        "Name": "萬寧山莊",
        "Lat": 25.0042437073135,
        "Lon": 121.570485304818,
        "Sequence": 45,
        "StationID": "50047"
      },
      {
        "Name": "名門社區",
        "Lat": 25.004782,
        "Lon": 121.567933,
        "Sequence": 46,
        "StationID": "36111"
      },
      {
        "Name": "和平東路4段",
        "Lat": 25.00449451854,
        "Lon": 121.570861398628,
        "Sequence": 47,
        "StationID": "2428"
      },
      {
        "Name": "萬芳社區(和平)",
        "Lat": 25.002678,
        "Lon": 121.57187,
        "Sequence": 48,
        "StationID": "1000684"
      },
      {
        "Name": "軍功新村",
        "Lat": 24.999691818730497,
        "Lon": 121.57374090486223,
        "Sequence": 49,
        "StationID": "2427"
      },
      {
        "Name": "博嘉國小",
        "Lat": 24.99899,
        "Lon": 121.57533,
        "Sequence": 50,
        "StationID": "2454"
      },
      {
        "Name": "信義松仁路口(信義)",
        "Lat": 25.0329497897498,
        "Lon": 121.566687674056,
        "Sequence": 51,
        "StationID": "6929"
      },
      {
        "Name": "捷運台北101/世貿站(市府)",
        "Lat": 25.034512868313872,
        "Lon": 121.56357599974903,
        "Sequence": 52,
        "StationID": "2029"
      },
      {
        "Name": "市政府(市府)",
        "Lat": 25.038332,
        "Lon": 121.563754,
        "Sequence": 53,
        "StationID": "2063"
      },
      {
        "Name": "捷運市政府站",
        "Lat": 25.04100991,
        "Lon": 121.5668354,
        "Sequence": 54,
        "StationID": "3916"
      }
    ]
  },
  {
    "Route": "棕6",
    "SubRoute": "棕6狗狗公車",
    "Direction": 1,
    "Stops": [
      {
        "Name": "消防局(松仁)",
        "Lat": 25.038604,
        "Lon": 121.568284,
        "Sequence": 1,
        "StationID": "1165604593"
      },
      {
        "Name": "興雅國中",
        "Lat": 25.0372323905063,
        "Lon": 121.568268559011,
        "Sequence": 2,
        "StationID": "2179"
      },
      {
        "Name": "信義松仁路口(松仁)",
        "Lat": 25.0345352489599,
        "Lon": 121.568236043782,
        "Sequence": 3,
        "StationID": "2121"
      },
      {
        "Name": "博嘉國小",
        "Lat": 24.9993898137115,
        "Lon": 121.575395362596,
        "Sequence": 4,
        "StationID": "56110"
      },
      {
        "Name": "軍功新村",
        "Lat": 25.0001268,
        "Lon": 121.5737,
        "Sequence": 5,
        "StationID": "36113"
      },
      {
        "Name": "萬芳社區(和平)",
        "Lat": 25.0028541470424,
        "Lon": 121.571969627588,
        "Sequence": 6,
        "StationID": "1000680"
      },
      {
        "Name": "和平東路4段",
        "Lat": 25.0046814962866,
        "Lon": 121.570509533684,
        "Sequence": 7,
        "StationID": "1000088"
      },
      {
        "Name": "名門社區",
        "Lat": 25.0046374220822,
        "Lon": 121.567900817651,
        "Sequence": 8,
        "StationID": "1001411"
      },
      {
        "Name": "萬寧山莊",
        "Lat": 25.0041631244417,
        "Lon": 121.570371684081,
        "Sequence": 9,
        "StationID": "2514"
      },
      {
        "Name": "萬寧街",
        "Lat": 25.0032053525918,
        "Lon": 121.570571682464,
        "Sequence": 10,
        "StationID": "1000089"
      },
      {
        "Name": "萬芳國宅",
        "Lat": 25.003405,
        "Lon": 121.565052,
        "Sequence": 11,
        "StationID": "50048"
      },
      {
        "Name": "萬美社區",
        "Lat": 25.003405,
        "Lon": 121.563084,
        "Sequence": 12,
        "StationID": "1165604842"
      },
      {
        "Name": "公務人員訓練處",
        "Lat": 25.0018116822751,
        "Lon": 121.562127594784,
        "Sequence": 13,
        "StationID": "2373"
      },
      {
        "Name": "萬芳派出所",
        "Lat": 25.0017624091424,
        "Lon": 121.566256708836,
        "Sequence": 14,
        "StationID": "2492"
      },
      {
        "Name": "萬芳國小",
        "Lat": 25.00146028,
        "Lon": 121.5672991,
        "Sequence": 15,
        "StationID": "2494"
      },
      {
        "Name": "萬芳6號公園",
        "Lat": 24.999962,
        "Lon": 121.56892,
        "Sequence": 16,
        "StationID": "1165604748"
      },
      {
        "Name": "萬利街口",
        "Lat": 24.999065,
        "Lon": 121.567262,
        "Sequence": 17,
        "StationID": "2489"
      },
      {
        "Name": "棕櫚泉社區",
        "Lat": 24.99756829,
        "Lon": 121.5625566,
        "Sequence": 18,
        "StationID": "2473"
      },
      {
        "Name": "文山運動中心(萬芳)",
        "Lat": 24.99706037,
        "Lon": 121.5603813,
        "Sequence": 19,
        "StationID": "1000857"
      },
      {
        "Name": "臺灣警察專科學校",
        "Lat": 24.9977449509898,
        "Lon": 121.55947313859588,
        "Sequence": 20,
        "StationID": "1000764"
      },
      {
        "Name": "捷運萬芳醫院站",
        "Lat": 24.999259,
        "Lon": 121.557829,
        "Sequence": 21,
        "StationID": "2449"
      },
      {
        "Name": "中國科技大學(興隆)",
        "Lat": 25.0004051038435,
        "Lon": 121.555797991874,
        "Sequence": 22,
        "StationID": "2375"
      },
      {
        "Name": "興隆國小",
        "Lat": 25.001459963615,
        "Lon": 121.553039816886,
        "Sequence": 23,
        "StationID": "1000035"
      },
      {
        "Name": "興德國小",
        "Lat": 25.0009828977016,
        "Lon": 121.550073640107,
        "Sequence": 24,
        "StationID": "1000858"
      },
      {
        "Name": "興隆市場",
        "Lat": 24.9995842974218,
        "Lon": 121.547448469573,
        "Sequence": 25,
        "StationID": "1000037"
      },
      {
        "Name": "靜心高中",
        "Lat": 24.998953,
        "Lon": 121.545835,
        "Sequence": 26,
        "StationID": "20244"
      },
      {
        "Name": "憲光公寓",
        "Lat": 24.999719170953,
        "Lon": 121.54393655953,
        "Sequence": 27,
        "StationID": "2533"
      },
      {
        "Name": "景明街口",
        "Lat": 25.0015098013863,
        "Lon": 121.542530095186,
        "Sequence": 28,
        "StationID": "2457"
      },
      {
        "Name": "武功國小(興隆)",
        "Lat": 25.0042661031504,
        "Lon": 121.539995594657,
        "Sequence": 29,
        "StationID": "3980"
      },
      {
        "Name": "武功國小(羅斯福)",
        "Lat": 25.00341174,
        "Lon": 121.5384705,
        "Sequence": 30,
        "StationID": "2412"
      },
      {
        "Name": "捷運萬隆站",
        "Lat": 25.00178299384715,
        "Lon": 121.53891974229319,
        "Sequence": 31,
        "StationID": "2450"
      },
      {
        "Name": "萬隆",
        "Lat": 24.99939586,
        "Lon": 121.5398039,
        "Sequence": 32,
        "StationID": "2503"
      },
      {
        "Name": "財政園區",
        "Lat": 24.995644300082535,
        "Lon": 121.54100316430888,
        "Sequence": 33,
        "StationID": "1000807"
      },
      {
        "Name": "景美國中",
        "Lat": 24.992776404618,
        "Lon": 121.542708979168,
        "Sequence": 34,
        "StationID": "2464"
      },
      {
        "Name": "景美國小(景興)",
        "Lat": 24.9897079824046,
        "Lon": 121.542536892973,
        "Sequence": 35,
        "StationID": "2463"
      },
      {
        "Name": "世新大學",
        "Lat": 24.988478,
        "Lon": 121.54381,
        "Sequence": 36,
        "StationID": "2394"
      },
      {
        "Name": "復興派出所",
        "Lat": 24.9867882,
        "Lon": 121.5465259,
        "Sequence": 37,
        "StationID": "2455"
      },
      {
        "Name": "考試院",
        "Lat": 24.9873383747906,
        "Lon": 121.549735378275,
        "Sequence": 38,
        "StationID": "2406"
      },
      {
        "Name": "永建國小",
        "Lat": 24.98809,
        "Lon": 121.554868,
        "Sequence": 39,
        "StationID": "2402"
      },
      {
        "Name": "中興公寓",
        "Lat": 24.9884116429436,
        "Lon": 121.556482491508,
        "Sequence": 40,
        "StationID": "2377"
      },
      {
        "Name": "再興中學",
        "Lat": 24.9886499986778,
        "Lon": 121.559246461721,
        "Sequence": 41,
        "StationID": "2403"
      },
      {
        "Name": "文山一分局",
        "Lat": 24.98887,
        "Lon": 121.56251,
        "Sequence": 42,
        "StationID": "2378"
      },
      {
        "Name": "木柵",
        "Lat": 24.9885,
        "Lon": 121.56657,
        "Sequence": 43,
        "StationID": "1000439"
      },
      {
        "Name": "木柵市場",
        "Lat": 24.98849886,
        "Lon": 121.5685523,
        "Sequence": 44,
        "StationID": "50682"
      },
      {
        "Name": "永安街",
        "Lat": 24.98672,
        "Lon": 121.56893,
        "Sequence": 45,
        "StationID": "142"
      },
      {
        "Name": "指南路口",
        "Lat": 24.9871941238226,
        "Lon": 121.570722800802,
        "Sequence": 46,
        "StationID": "2426"
      },
      {
        "Name": "政大",
        "Lat": 24.9878362086283,
        "Lon": 121.574633255625,
        "Sequence": 47,
        "StationID": "2415"
      },
      {
        "Name": "政大一",
        "Lat": 24.988319,
        "Lon": 121.576427,
        "Sequence": 48,
        "StationID": "1001400"
      },
      {
        "Name": "萬興圖書館",
        "Lat": 24.989020423587586,
        "Lon": 121.57699279565435,
        "Sequence": 49,
        "StationID": "2520"
      },
      {
        "Name": "大誠高中",
        "Lat": 24.990413,
        "Lon": 121.576905,
        "Sequence": 50,
        "StationID": "2368"
      },
      {
        "Name": "萬壽橋頭(秀明)",
        "Lat": 24.991863,
        "Lon": 121.574627,
        "Sequence": 51,
        "StationID": "50671"
      },
      {
        "Name": "萬壽橋頭(新光)",
        "Lat": 24.992819,
        "Lon": 121.573853,
        "Sequence": 52,
        "StationID": "50669"
      },
      {
        "Name": "貓纜動物園站",
        "Lat": 24.9963006246947,
        "Lon": 121.576314002724,
        "Sequence": 53,
        "StationID": "2443"
      },
      {
        "Name": "捷運動物園站",
        "Lat": 24.99857,
        "Lon": 121.57996,
        "Sequence": 54,
        "StationID": "50672"
      }
    ]
  }
]