[
  {
    "Route": "內科通勤專車8",
    "SubRoute": "內科8往內科",
    "Direction": 0,
    "Stops": [
      {
        "Name": "松山車站",
        "Lat": 25.0498061943222,
        "Lon": 121.578206062017,
        "Sequence": 1,
        "StationID": "15102"
      },
      {
        "Name": "週美里一",
        "Lat": 25.05636,
        "Lon": 121.581944,
        "Sequence": 2,
        "StationID": "50407"
      },
      {
        "Name": "潭美國小(舊宗)",
        "Lat": 25.057957,
        "Lon": 121.581074,
        "Sequence": 3,
        "StationID": "1000222"
      },
      {
        "Name": "新湖舊宗路口",
        "Lat": 25.062,
        "Lon": 121.57861,
        "Sequence": 4,
        "StationID": "1124"
      },
      {
        "Name": "精技大樓",
        "Lat": 25.063647810032915,
        "Lon": 121.58149990509064,
        "Sequence": 5,
        "StationID": "1001443"
      },
      {
        "Name": "新湖行善路口",
        "Lat": 25.064826,
        "Lon": 121.585286,
        "Sequence": 6,
        "StationID": "1165606699"
      },
      {
        "Name": "麗寶大樓",
        "Lat": 25.070517,
        "Lon": 121.582711,
        "Sequence": 7,
        "StationID": "8603"
      },
      {
        "Name": "公館山",
        "Lat": 25.071952,
        "Lon": 121.581177,
        "Sequence": 8,
        "StationID": "8621"
      },
      {
        "Name": "瑞光路",
        "Lat": 25.07478024553194,
        "Lon": 121.57766690657958,
        "Sequence": 9,
        "StationID": "1000897"
      },
      {
        "Name": "瑞光港墘路口",
        "Lat": 25.07729684,
        "Lon": 121.5731066,
        "Sequence": 10,
        "StationID": "1000895"
      },
      {
        "Name": "仁寶大樓",
        "Lat": 25.079478,
        "Lon": 121.568256,
        "Sequence": 11,
        "StationID": "1000896"
      },
      {
        "Name": "基湖路口",
        "Lat": 25.0805158061818,
        "Lon": 121.565903409458,
        "Sequence": 12,
        "StationID": "8403"
      },
      {
        "Name": "基湖站",
        "Lat": 25.07973077,
        "Lon": 121.5646071,
        "Sequence": 13,
        "StationID": "1083"
      }
    ]
  },
  {
    "Route": "內科通勤專車8",
    "SubRoute": "內科8往松山車站",
    "Direction": 1,
    "Stops": [
      {
        "Name": "基湖站",
        "Lat": 25.0801,
        "Lon": 121.56489,
        "Sequence": 1,
        "StationID": "8405"
      },
      {
        "Name": "基湖路口",
        "Lat": 25.08025003,
        "Lon": 121.5662362,
        "Sequence": 2,
        "StationID": "8404"
      },
      {
        "Name": "仁寶大樓",
        "Lat": 25.07921316,
        "Lon": 121.5684974,
        "Sequence": 4,
        "StationID": "1007"
      },
      {
        "Name": "瑞光港墘路口",
        "Lat": 25.077753,
        "Lon": 121.571868,
        "Sequence": 6,
        "StationID": "1013"
      },
      {
        "Name": "瑞光路",
        "Lat": 25.074821,
        "Lon": 121.577343,
        "Sequence": 7,
        "StationID": "1132"
      },
      {
        "Name": "公館山",
        "Lat": 25.07198833,
        "Lon": 121.5809507,
        "Sequence": 8,
        "StationID": "1006"
      },
      {
        "Name": "麗寶大樓",
        "Lat": 25.070960172287336,
        "Lon": 121.5820136022182,
        "Sequence": 9,
        "StationID": "1165610352"
      },
      {
        "Name": "精技大樓",
        "Lat": 25.064394618249743,
        "Lon": 121.58235002103366,
        "Sequence": 10,
        "StationID": "1139"
      },
      {
        "Name": "東南客運停車場",
        "Lat": 25.0635997659263,
        "Lon": 121.580999258182,
        "Sequence": 11,
        "StationID": "4820"
      },
      {
        "Name": "新湖舊宗路口",
        "Lat": 25.0623176113037,
        "Lon": 121.578721077514,
        "Sequence": 12,
        "StationID": "4020"
      },
      {
        "Name": "潭美國小(舊宗)",
        "Lat": 25.058297,
        "Lon": 121.580495,
        "Sequence": 13,
        "StationID": "1000215"
      },
      {
        "Name": "週美里一",
        "Lat": 25.05609097336375,
        "Lon": 121.58190757561452,
        "Sequence": 14,
        "StationID": "1112"
      },
      {
        "Name": "松山車站",
        "Lat": 25.0498061943222,
        "Lon": 121.578206062017,
        "Sequence": 15,
        "StationID": "15102"
      }
    ]
  }
]