[
  {
    "Route": "內科通勤專車16",
    "SubRoute": "內科16往內科",
    "Direction": 0,
    "Stops": [
      {
        "Name": "貴子坑水土保持園區",
        "Lat": 25.14506,
        "Lon": 121.49262,
        "Sequence": 1,
        "StationID": "437"
      },
      {
        "Name": "秀山里",
        "Lat": 25.1452880512553,
        "Lon": 121.493826634438,
        "Sequence": 2,
        "StationID": "1000928"
      },
      {
        "Name": "慈航寺",
        "Lat": 25.144571,
        "Lon": 121.497011,
        "Sequence": 3,
        "StationID": "454"
      },
      {
        "Name": "國泰新村",
        "Lat": 25.1435377973513,
        "Lon": 121.498005120919,
        "Sequence": 4,
        "StationID": "343"
      },
      {
        "Name": "中和里",
        "Lat": 25.1420654536477,
        "Lon": 121.49875524785,
        "Sequence": 5,
        "StationID": "63"
      },
      {
        "Name": "復興中學",
        "Lat": 25.1404257952951,
        "Lon": 121.500142024239,
        "Sequence": 6,
        "StationID": "414"
      },
      {
        "Name": "中和街",
        "Lat": 25.1391571863191,
        "Lon": 121.501520744986,
        "Sequence": 7,
        "StationID": "64"
      },
      {
        "Name": "新北投",
        "Lat": 25.137791,
        "Lon": 121.502937,
        "Sequence": 8,
        "StationID": "456"
      },
      {
        "Name": "北投公園",
        "Lat": 25.1363484992167,
        "Lon": 121.504124469582,
        "Sequence": 9,
        "StationID": "112"
      },
      {
        "Name": "第一銀行",
        "Lat": 25.1345133895389,
        "Lon": 121.50235879653,
        "Sequence": 10,
        "StationID": "399"
      },
      {
        "Name": "中央南路",
        "Lat": 25.1321537676007,
        "Lon": 121.50131769692,
        "Sequence": 11,
        "StationID": "7241"
      },
      {
        "Name": "中央南大興街口",
        "Lat": 25.130163,
        "Lon": 121.501062,
        "Sequence": 12,
        "StationID": "357"
      },
      {
        "Name": "慈后宮",
        "Lat": 25.1278841376109,
        "Lon": 121.501189626271,
        "Sequence": 13,
        "StationID": "50086"
      },
      {
        "Name": "忠義新村",
        "Lat": 25.12583115,
        "Lon": 121.5015983,
        "Sequence": 14,
        "StationID": "222"
      },
      {
        "Name": "崇仁路口",
        "Lat": 25.12247,
        "Lon": 121.50284,
        "Sequence": 15,
        "StationID": "7234"
      },
      {
        "Name": "捷運唭哩岸站二(西安)",
        "Lat": 25.12098,
        "Lon": 121.50419,
        "Sequence": 16,
        "StationID": "382"
      },
      {
        "Name": "捷運唭哩岸站一(西安)",
        "Lat": 25.120365436068,
        "Lon": 121.507204221793,
        "Sequence": 17,
        "StationID": "384"
      },
      {
        "Name": "健行新村(西安)",
        "Lat": 25.120154,
        "Lon": 121.508648,
        "Sequence": 18,
        "StationID": "333"
      },
      {
        "Name": "陽明交大(西安)",
        "Lat": 25.1191852593947,
        "Lon": 121.511691191756,
        "Sequence": 19,
        "StationID": "441"
      },
      {
        "Name": "石牌國中",
        "Lat": 25.11668,
        "Lon": 121.51367,
        "Sequence": 20,
        "StationID": "4662"
      },
      {
        "Name": "捷運石牌站(西安)",
        "Lat": 25.114729,
        "Lon": 121.51501,
        "Sequence": 21,
        "StationID": "1001371"
      },
      {
        "Name": "自強街口(西安)",
        "Lat": 25.11229,
        "Lon": 121.51664,
        "Sequence": 22,
        "StationID": "172"
      },
      {
        "Name": "捷運明德站(西安)",
        "Lat": 25.109208,
        "Lon": 121.518827,
        "Sequence": 23,
        "StationID": "374"
      },
      {
        "Name": "明德國中",
        "Lat": 25.107279457424,
        "Lon": 121.517707662365,
        "Sequence": 24,
        "StationID": "239"
      },
      {
        "Name": "中正高中",
        "Lat": 25.105059,
        "Lon": 121.517803,
        "Sequence": 25,
        "StationID": "60"
      },
      {
        "Name": "捷運芝山站(戲曲中心)",
        "Lat": 25.1022630440787,
        "Lon": 121.520473605143,
        "Sequence": 26,
        "StationID": "800"
      },
      {
        "Name": "捷運芝山站一",
        "Lat": 25.1008497293525,
        "Lon": 121.522307508871,
        "Sequence": 27,
        "StationID": "1000347"
      },
      {
        "Name": "士林",
        "Lat": 25.0959118891448,
        "Lon": 121.524279381093,
        "Sequence": 28,
        "StationID": "569"
      },
      {
        "Name": "捷運士林站(中正)",
        "Lat": 25.09543483,
        "Lon": 121.5267653,
        "Sequence": 29,
        "StationID": "10210"
      },
      {
        "Name": "福林國小",
        "Lat": 25.09583325,
        "Lon": 121.5290055,
        "Sequence": 30,
        "StationID": "896"
      },
      {
        "Name": "士林官邸(中正)",
        "Lat": 25.096324,
        "Lon": 121.531395,
        "Sequence": 31,
        "StationID": "1000618"
      },
      {
        "Name": "泰北中學",
        "Lat": 25.0972847950979,
        "Lon": 121.533481875716,
        "Sequence": 32,
        "StationID": "777"
      },
      {
        "Name": "東吳大學(錢穆故居)",
        "Lat": 25.097131,
        "Lon": 121.541888,
        "Sequence": 33,
        "StationID": "729"
      },
      {
        "Name": "外雙溪(故宮)",
        "Lat": 25.09735486763365,
        "Lon": 121.54679912183309,
        "Sequence": 34,
        "StationID": "660"
      },
      {
        "Name": "捷運劍南路站",
        "Lat": 25.08484,
        "Lon": 121.555253,
        "Sequence": 35,
        "StationID": "1000117"
      },
      {
        "Name": "治磐新村",
        "Lat": 25.0829452709661,
        "Lon": 121.56384168984,
        "Sequence": 36,
        "StationID": "8521"
      },
      {
        "Name": "內湖基湖路口",
        "Lat": 25.08198997,
        "Lon": 121.5652273,
        "Sequence": 37,
        "StationID": "1001"
      },
      {
        "Name": "基湖路口",
        "Lat": 25.08025003,
        "Lon": 121.5662362,
        "Sequence": 38,
        "StationID": "8404"
      },
      {
        "Name": "仁寶大樓",
        "Lat": 25.07921316,
        "Lon": 121.5684974,
        "Sequence": 39,
        "StationID": "1007"
      },
      {
        "Name": "瑞光港墘路口",
        "Lat": 25.077753,
        "Lon": 121.571868,
        "Sequence": 40,
        "StationID": "1013"
      },
      {
        "Name": "瑞光路",
        "Lat": 25.074821,
        "Lon": 121.577343,
        "Sequence": 41,
        "StationID": "1132"
      },
      {
        "Name": "公館山",
        "Lat": 25.07198833,
        "Lon": 121.5809507,
        "Sequence": 42,
        "StationID": "1006"
      },
      {
        "Name": "麗寶大樓",
        "Lat": 25.070960172287336,
        "Lon": 121.5820136022182,
        "Sequence": 43,
        "StationID": "1165610352"
      },
      {
        "Name": "時報廣場",
        "Lat": 25.0685609459737,
        "Lon": 121.583129808238,
        "Sequence": 44,
        "StationID": "8601"
      },
      {
        "Name": "民權大橋",
        "Lat": 25.066982973174284,
        "Lon": 121.57895384595646,
        "Sequence": 45,
        "StationID": "8602"
      }
    ]
  },
  {
    "Route": "內科通勤專車16",
    "SubRoute": "內科16往北投",
    "Direction": 1,
    "Stops": [
      {
        "Name": "民權大橋",
        "Lat": 25.066876801458,
        "Lon": 121.579477870198,
        "Sequence": 1,
        "StationID": "1017"
      },
      {
        "Name": "時報廣場",
        "Lat": 25.0680848776157,
        "Lon": 121.58212115754,
        "Sequence": 2,
        "StationID": "1077"
      },
      {
        "Name": "麗寶大樓",
        "Lat": 25.070517,
        "Lon": 121.582711,
        "Sequence": 3,
        "StationID": "8603"
      },
      {
        "Name": "公館山",
        "Lat": 25.071952,
        "Lon": 121.581177,
        "Sequence": 4,
        "StationID": "8621"
      },
      {
        "Name": "瑞光路",
        "Lat": 25.07478024553194,
        "Lon": 121.57766690657958,
        "Sequence": 5,
        "StationID": "1000897"
      },
      {
        "Name": "瑞光港墘路口",
        "Lat": 25.07729684,
        "Lon": 121.5731066,
        "Sequence": 6,
        "StationID": "1000895"
      },
      {
        "Name": "仁寶大樓",
        "Lat": 25.079478,
        "Lon": 121.568256,
        "Sequence": 7,
        "StationID": "1000896"
      },
      {
        "Name": "基湖路口",
        "Lat": 25.0805158061818,
        "Lon": 121.565903409458,
        "Sequence": 8,
        "StationID": "8403"
      },
      {
        "Name": "治磐新村",
        "Lat": 25.0830692818289,
        "Lon": 121.564098538475,
        "Sequence": 9,
        "StationID": "194"
      },
      {
        "Name": "捷運劍南路站",
        "Lat": 25.085303158353604,
        "Lon": 121.55468793143969,
        "Sequence": 10,
        "StationID": "1000695"
      },
      {
        "Name": "外雙溪(故宮)",
        "Lat": 25.096654067919133,
        "Lon": 121.54728315713145,
        "Sequence": 11,
        "StationID": "3948"
      },
      {
        "Name": "東吳大學(錢穆故居)",
        "Lat": 25.097411,
        "Lon": 121.541307,
        "Sequence": 12,
        "StationID": "728"
      },
      {
        "Name": "泰北中學",
        "Lat": 25.0977513146504,
        "Lon": 121.534030294965,
        "Sequence": 13,
        "StationID": "778"
      },
      {
        "Name": "士林官邸(中正)",
        "Lat": 25.0965,
        "Lon": 121.53144,
        "Sequence": 14,
        "StationID": "3953"
      },
      {
        "Name": "福林國小",
        "Lat": 25.0962,
        "Lon": 121.52976,
        "Sequence": 15,
        "StationID": "3954"
      },
      {
        "Name": "捷運士林站(中正)",
        "Lat": 25.095583,
        "Lon": 121.526622,
        "Sequence": 16,
        "StationID": "797"
      },
      {
        "Name": "士林",
        "Lat": 25.096111,
        "Lon": 121.524405,
        "Sequence": 17,
        "StationID": "10209"
      },
      {
        "Name": "捷運芝山站一",
        "Lat": 25.1007959524461,
        "Lon": 121.522657043885,
        "Sequence": 18,
        "StationID": "801"
      },
      {
        "Name": "捷運芝山站(戲曲中心)",
        "Lat": 25.1025,
        "Lon": 121.52067,
        "Sequence": 19,
        "StationID": "1000388"
      },
      {
        "Name": "中正高中",
        "Lat": 25.1058289859016,
        "Lon": 121.517290935039,
        "Sequence": 20,
        "StationID": "1000348"
      },
      {
        "Name": "明德國中",
        "Lat": 25.1072816355752,
        "Lon": 121.517862336613,
        "Sequence": 21,
        "StationID": "7246"
      },
      {
        "Name": "捷運明德站(東華)",
        "Lat": 25.10987,
        "Lon": 121.51904,
        "Sequence": 22,
        "StationID": "375"
      },
      {
        "Name": "自強街口(東華)",
        "Lat": 25.11225,
        "Lon": 121.51761,
        "Sequence": 23,
        "StationID": "173"
      },
      {
        "Name": "捷運石牌站(東華)",
        "Lat": 25.11515658,
        "Lon": 121.5154878,
        "Sequence": 24,
        "StationID": "364"
      },
      {
        "Name": "義理街口",
        "Lat": 25.116067992916,
        "Lon": 121.51478635582,
        "Sequence": 25,
        "StationID": "4663"
      },
      {
        "Name": "陽明交大(東華)",
        "Lat": 25.119636,
        "Lon": 121.511973,
        "Sequence": 26,
        "StationID": "442"
      },
      {
        "Name": "健行新村(東華)",
        "Lat": 25.12051,
        "Lon": 121.50914,
        "Sequence": 27,
        "StationID": "334"
      },
      {
        "Name": "捷運唭哩岸站一(東華)",
        "Lat": 25.120913,
        "Lon": 121.50736,
        "Sequence": 28,
        "StationID": "385"
      },
      {
        "Name": "捷運唭哩岸站二(東華)",
        "Lat": 25.1213471298747,
        "Lon": 121.505229693995,
        "Sequence": 29,
        "StationID": "387"
      },
      {
        "Name": "崇仁路口",
        "Lat": 25.1223766584811,
        "Lon": 121.502948188139,
        "Sequence": 30,
        "StationID": "345"
      },
      {
        "Name": "忠義新村",
        "Lat": 25.12552173,
        "Lon": 121.5017756,
        "Sequence": 31,
        "StationID": "50085"
      },
      {
        "Name": "慈后宮",
        "Lat": 25.12750085,
        "Lon": 121.5013728,
        "Sequence": 32,
        "StationID": "453"
      },
      {
        "Name": "清江里",
        "Lat": 25.12874,
        "Lon": 121.50117,
        "Sequence": 33,
        "StationID": "395"
      },
      {
        "Name": "中央南路",
        "Lat": 25.1322245985598,
        "Lon": 121.501443570835,
        "Sequence": 34,
        "StationID": "56"
      },
      {
        "Name": "第一銀行",
        "Lat": 25.13489933134952,
        "Lon": 121.50256846263959,
        "Sequence": 35,
        "StationID": "7239"
      },
      {
        "Name": "北投公園",
        "Lat": 25.13658039419034,
        "Lon": 121.50444128215462,
        "Sequence": 36,
        "StationID": "113"
      },
      {
        "Name": "新北投",
        "Lat": 25.1377878885811,
        "Lon": 121.503116860832,
        "Sequence": 37,
        "StationID": "4113"
      },
      {
        "Name": "中和街",
        "Lat": 25.1392080991718,
        "Lon": 121.501688456724,
        "Sequence": 38,
        "StationID": "7238"
      },
      {
        "Name": "復興中學",
        "Lat": 25.140779616914,
        "Lon": 121.50003982457,
        "Sequence": 39,
        "StationID": "3990"
      },
      {
        "Name": "中和里",
        "Lat": 25.1422718056895,
        "Lon": 121.498822886077,
        "Sequence": 40,
        "StationID": "7237"
      },
      {
        "Name": "國泰新村",
        "Lat": 25.1434882184522,
        "Lon": 121.498191201655,
        "Sequence": 41,
        "StationID": "3991"
      },
      {
        "Name": "慈航寺",
        "Lat": 25.144813,
        "Lon": 121.496498,
        "Sequence": 42,
        "StationID": "3995"
      },
      {
        "Name": "秀山里",
        "Lat": 25.1454283711567,
        "Lon": 121.494135327259,
        "Sequence": 43,
        "StationID": "7236"
      },
      {
        "Name": "貴子坑水土保持園區",
        "Lat": 25.1452633730156,
        "Lon": 121.492633753399,
        "Sequence": 44,
        "StationID": "1000350"
      },
      {
        "Name": "北投站",
        "Lat": 25.144595,
        "Lon": 121.492071,
        "Sequence": 45,
        "StationID": "1000351"
      }
    ]
  }
]