[
  {
    "Route": "612",
    "SubRoute": "612",
    "Direction": 0,
    "Stops": [
      {
        "Name": "松德站",
        "Lat": 25.03236982,
        "Lon": 121.5746629,
        "Sequence": 1,
        "StationID": "2107"
      },
      {
        "Name": "捷運象山站",
        "Lat": 25.033006,
        "Lon": 121.570056,
        "Sequence": 2,
        "StationID": "20304"
      },
      {
        "Name": "信義松仁路口(松仁)",
        "Lat": 25.0336908507959,
        "Lon": 121.568446471104,
        "Sequence": 3,
        "StationID": "2122"
      },
      {
        "Name": "松壽路口",
        "Lat": 25.0358810435418,
        "Lon": 121.566640146973,
        "Sequence": 4,
        "StationID": "2070"
      },
      {
        "Name": "市政府(松壽)",
        "Lat": 25.035992,
        "Lon": 121.564528,
        "Sequence": 5,
        "StationID": "2067"
      },
      {
        "Name": "市政府(市府)",
        "Lat": 25.038332,
        "Lon": 121.563754,
        "Sequence": 6,
        "StationID": "2063"
      },
      {
        "Name": "松山高中(松隆)",
        "Lat": 25.0435373602736,
        "Lon": 121.56755129315535,
        "Sequence": 7,
        "StationID": "2094"
      },
      {
        "Name": "興雅國小",
        "Lat": 25.0457633038403,
        "Lon": 121.569761304102,
        "Sequence": 8,
        "StationID": "2177"
      },
      {
        "Name": "東興路",
        "Lat": 25.04641,
        "Lon": 121.56682,
        "Sequence": 9,
        "StationID": "15105"
      },
      {
        "Name": "東興路一",
        "Lat": 25.05002,
        "Lon": 121.56552,
        "Sequence": 10,
        "StationID": "1541"
      },
      {
        "Name": "南京公寓(捷運南京三民)",
        "Lat": 25.051492,
        "Lon": 121.564777,
        "Sequence": 11,
        "StationID": "50160"
      },
      {
        "Name": "西松國小",
        "Lat": 25.053597,
        "Lon": 121.5638994,
        "Sequence": 12,
        "StationID": "50003"
      },
      {
        "Name": "三民健康路口(西松高中)",
        "Lat": 25.05481494,
        "Lon": 121.5638473,
        "Sequence": 13,
        "StationID": "50006"
      },
      {
        "Name": "三民路",
        "Lat": 25.05753,
        "Lon": 121.56368,
        "Sequence": 14,
        "StationID": "10404"
      },
      {
        "Name": "民生社區活動中心",
        "Lat": 25.058808540179,
        "Lon": 121.561144568697,
        "Sequence": 15,
        "StationID": "1000074"
      },
      {
        "Name": "聯合二村",
        "Lat": 25.0586249332513,
        "Lon": 121.558923442523,
        "Sequence": 16,
        "StationID": "1000075"
      },
      {
        "Name": "介壽國中",
        "Lat": 25.058415078013,
        "Lon": 121.556044429017,
        "Sequence": 17,
        "StationID": "10408"
      },
      {
        "Name": "公教住宅",
        "Lat": 25.05813129,
        "Lon": 121.5526273,
        "Sequence": 18,
        "StationID": "10421"
      },
      {
        "Name": "民生敦化路口",
        "Lat": 25.05785197,
        "Lon": 121.5468517,
        "Sequence": 19,
        "StationID": "10418"
      },
      {
        "Name": "民生復興路口",
        "Lat": 25.05790896,
        "Lon": 121.545132,
        "Sequence": 20,
        "StationID": "10420"
      },
      {
        "Name": "臺北大學(臺北校區)",
        "Lat": 25.05795717284778,
        "Lon": 121.5417414658165,
        "Sequence": 21,
        "StationID": "10419"
      },
      {
        "Name": "合江街口",
        "Lat": 25.05803455,
        "Lon": 121.5383134,
        "Sequence": 22,
        "StationID": "10401"
      },
      {
        "Name": "民生松江路口",
        "Lat": 25.05813986,
        "Lon": 121.5361688,
        "Sequence": 23,
        "StationID": "1571"
      },
      {
        "Name": "民權松江路口",
        "Lat": 25.062118989233,
        "Lon": 121.53321393502,
        "Sequence": 24,
        "StationID": "6705"
      },
      {
        "Name": "民權吉林路口",
        "Lat": 25.062636,
        "Lon": 121.529148,
        "Sequence": 25,
        "StationID": "1000162"
      },
      {
        "Name": "捷運中山國小站",
        "Lat": 25.0628463290373,
        "Lon": 121.524689553008,
        "Sequence": 26,
        "StationID": "4097"
      },
      {
        "Name": "大同公司(晴光市場)",
        "Lat": 25.0642887,
        "Lon": 121.5224722,
        "Sequence": 27,
        "StationID": "16264"
      },
      {
        "Name": "大同大學",
        "Lat": 25.06770081,
        "Lon": 121.5228199,
        "Sequence": 28,
        "StationID": "1169"
      },
      {
        "Name": "臺北市立美術館",
        "Lat": 25.0721395085303,
        "Lon": 121.523964286473,
        "Sequence": 29,
        "StationID": "101"
      },
      {
        "Name": "劍潭",
        "Lat": 25.0805889011559,
        "Lon": 121.524381872313,
        "Sequence": 30,
        "StationID": "50629"
      },
      {
        "Name": "銘傳大學",
        "Lat": 25.08697,
        "Lon": 121.52663,
        "Sequence": 31,
        "StationID": "50630"
      },
      {
        "Name": "台電台北北區營業處",
        "Lat": 25.091209,
        "Lon": 121.527703,
        "Sequence": 32,
        "StationID": "1218"
      },
      {
        "Name": "士林官邸(中山)",
        "Lat": 25.0947774592454,
        "Lon": 121.528319753964,
        "Sequence": 33,
        "StationID": "576"
      },
      {
        "Name": "福林橋",
        "Lat": 25.097204,
        "Lon": 121.527715,
        "Sequence": 34,
        "StationID": "1165606095"
      },
      {
        "Name": "士林電機(中山德行路口)",
        "Lat": 25.105464036905595,
        "Lon": 121.52496462789321,
        "Sequence": 35,
        "StationID": "589"
      },
      {
        "Name": "克強游泳池",
        "Lat": 25.10833609,
        "Lon": 121.525339,
        "Sequence": 36,
        "StationID": "703"
      },
      {
        "Name": "士東國小",
        "Lat": 25.1114606666738,
        "Lon": 121.525980301506,
        "Sequence": 37,
        "StationID": "50631"
      },
      {
        "Name": "賴厝",
        "Lat": 25.1136575672193,
        "Lon": 121.527168964819,
        "Sequence": 38,
        "StationID": "934"
      },
      {
        "Name": "台北美國/日僑學校",
        "Lat": 25.11569,
        "Lon": 121.52816,
        "Sequence": 39,
        "StationID": "50637"
      },
      {
        "Name": "齊福華廈",
        "Lat": 25.118505671344,
        "Lon": 121.52764368221,
        "Sequence": 40,
        "StationID": "4981"
      },
      {
        "Name": "天母國小",
        "Lat": 25.11878529,
        "Lon": 121.5262529,
        "Sequence": 41,
        "StationID": "638"
      },
      {
        "Name": "天玉里",
        "Lat": 25.12118051,
        "Lon": 121.5267177,
        "Sequence": 42,
        "StationID": "646"
      },
      {
        "Name": "天北站",
        "Lat": 25.12292985,
        "Lon": 121.5266532,
        "Sequence": 43,
        "StationID": "50646"
      },
      {
        "Name": "福德廟(行義)",
        "Lat": 25.12451,
        "Lon": 121.52619,
        "Sequence": 44,
        "StationID": "14618"
      },
      {
        "Name": "磺溪",
        "Lat": 25.126212,
        "Lon": 121.528123,
        "Sequence": 45,
        "StationID": "536"
      },
      {
        "Name": "明山宮",
        "Lat": 25.1281732,
        "Lon": 121.5292833,
        "Sequence": 46,
        "StationID": "20378"
      },
      {
        "Name": "永和里",
        "Lat": 25.128842,
        "Lon": 121.528537,
        "Sequence": 47,
        "StationID": "226"
      },
      {
        "Name": "行義路",
        "Lat": 25.1304703,
        "Lon": 121.5281012,
        "Sequence": 48,
        "StationID": "7215"
      },
      {
        "Name": "行義路一",
        "Lat": 25.13278,
        "Lon": 121.52858,
        "Sequence": 49,
        "StationID": "178"
      },
      {
        "Name": "行義路二",
        "Lat": 25.13595232,
        "Lon": 121.5287961,
        "Sequence": 50,
        "StationID": "179"
      },
      {
        "Name": "行義路三",
        "Lat": 25.13776309,
        "Lon": 121.5282707,
        "Sequence": 51,
        "StationID": "182"
      },
      {
        "Name": "行義路四",
        "Lat": 25.13969584,
        "Lon": 121.5283094,
        "Sequence": 52,
        "StationID": "183"
      },
      {
        "Name": "惇敘工商(行義)",
        "Lat": 25.14348,
        "Lon": 121.52727,
        "Sequence": 53,
        "StationID": "7208"
      },
      {
        "Name": "大同之家",
        "Lat": 25.14588,
        "Lon": 121.52314,
        "Sequence": 54,
        "StationID": "20"
      }
    ]
  },
  {
    "Route": "612",
    "SubRoute": "612",
    "Direction": 1,
    "Stops": [
      {
        "Name": "大同之家",
        "Lat": 25.146018,
        "Lon": 121.523174,
        "Sequence": 1,
        "StationID": "1001316"
      },
      {
        "Name": "惇敘工商(行義)",
        "Lat": 25.143236986588352,
        "Lon": 121.52715689953087,
        "Sequence": 2,
        "StationID": "7209"
      },
      {
        "Name": "行義路四",
        "Lat": 25.14028,
        "Lon": 121.52766,
        "Sequence": 3,
        "StationID": "188"
      },
      {
        "Name": "行義路三",
        "Lat": 25.137649,
        "Lon": 121.528164,
        "Sequence": 4,
        "StationID": "7216"
      },
      {
        "Name": "行義路二",
        "Lat": 25.13577979,
        "Lon": 121.5286395,
        "Sequence": 5,
        "StationID": "7217"
      },
      {
        "Name": "行義路一",
        "Lat": 25.13284684,
        "Lon": 121.5283054,
        "Sequence": 6,
        "StationID": "7218"
      },
      {
        "Name": "行義路",
        "Lat": 25.13056285,
        "Lon": 121.5279257,
        "Sequence": 7,
        "StationID": "7214"
      },
      {
        "Name": "永和里",
        "Lat": 25.129093,
        "Lon": 121.527864,
        "Sequence": 8,
        "StationID": "1165605355"
      },
      {
        "Name": "明山宮",
        "Lat": 25.1281062,
        "Lon": 121.5291514,
        "Sequence": 9,
        "StationID": "14614"
      },
      {
        "Name": "磺溪",
        "Lat": 25.125905,
        "Lon": 121.527588,
        "Sequence": 10,
        "StationID": "14615"
      },
      {
        "Name": "福德廟(行義)",
        "Lat": 25.1246,
        "Lon": 121.52614,
        "Sequence": 11,
        "StationID": "14617"
      },
      {
        "Name": "天北站",
        "Lat": 25.12288432,
        "Lon": 121.5265466,
        "Sequence": 12,
        "StationID": "634"
      },
      {
        "Name": "天玉里",
        "Lat": 25.1214083603177,
        "Lon": 121.52664417791,
        "Sequence": 13,
        "StationID": "50648"
      },
      {
        "Name": "天母國小",
        "Lat": 25.118950713724,
        "Lon": 121.52615807606,
        "Sequence": 14,
        "StationID": "50655"
      },
      {
        "Name": "齊福華廈",
        "Lat": 25.11838172,
        "Lon": 121.5275693,
        "Sequence": 15,
        "StationID": "3890"
      },
      {
        "Name": "台北美國/日僑學校",
        "Lat": 25.11588,
        "Lon": 121.52797,
        "Sequence": 16,
        "StationID": "570"
      },
      {
        "Name": "賴厝",
        "Lat": 25.1141183409596,
        "Lon": 121.527040561596,
        "Sequence": 17,
        "StationID": "50632"
      },
      {
        "Name": "士東國小",
        "Lat": 25.1115197312941,
        "Lon": 121.525723879398,
        "Sequence": 18,
        "StationID": "584"
      },
      {
        "Name": "克強游泳池",
        "Lat": 25.10831235,
        "Lon": 121.5250351,
        "Sequence": 19,
        "StationID": "50636"
      },
      {
        "Name": "士林電機(中山德行路口)",
        "Lat": 25.105356,
        "Lon": 121.524661,
        "Sequence": 20,
        "StationID": "50633"
      },
      {
        "Name": "德行(中山忠誠路口)",
        "Lat": 25.103354,
        "Lon": 121.524957,
        "Sequence": 21,
        "StationID": "922"
      },
      {
        "Name": "福林橋",
        "Lat": 25.097079,
        "Lon": 121.527411,
        "Sequence": 22,
        "StationID": "897"
      },
      {
        "Name": "捷運士林站(中山)",
        "Lat": 25.092853732851424,
        "Lon": 121.5276799453955,
        "Sequence": 23,
        "StationID": "796"
      },
      {
        "Name": "台電台北北區營業處",
        "Lat": 25.09069989,
        "Lon": 121.5273919,
        "Sequence": 24,
        "StationID": "1000264"
      },
      {
        "Name": "銘傳大學",
        "Lat": 25.08800277,
        "Lon": 121.5269357,
        "Sequence": 25,
        "StationID": "913"
      },
      {
        "Name": "捷運劍潭站(中山)",
        "Lat": 25.085353,
        "Lon": 121.525327,
        "Sequence": 26,
        "StationID": "803"
      },
      {
        "Name": "劍潭",
        "Lat": 25.0817595131148,
        "Lon": 121.524712226022,
        "Sequence": 27,
        "StationID": "1000266"
      },
      {
        "Name": "民族東路口",
        "Lat": 25.06731,
        "Lon": 121.52756,
        "Sequence": 28,
        "StationID": "1233"
      },
      {
        "Name": "稻江護校",
        "Lat": 25.0650407,
        "Lon": 121.5276297,
        "Sequence": 29,
        "StationID": "1388"
      },
      {
        "Name": "中山國小(新生)",
        "Lat": 25.06333,
        "Lon": 121.52748,
        "Sequence": 30,
        "StationID": "6660"
      },
      {
        "Name": "民權吉林路口",
        "Lat": 25.06254664,
        "Lon": 121.5300637,
        "Sequence": 31,
        "StationID": "1000112"
      },
      {
        "Name": "捷運行天宮站(松江路)",
        "Lat": 25.060643374791923,
        "Lon": 121.53313278818085,
        "Sequence": 32,
        "StationID": "6707"
      },
      {
        "Name": "民生松江路口",
        "Lat": 25.057791,
        "Lon": 121.535046,
        "Sequence": 33,
        "StationID": "1572"
      },
      {
        "Name": "合江街口",
        "Lat": 25.05772436,
        "Lon": 121.5381394,
        "Sequence": 34,
        "StationID": "1517"
      },
      {
        "Name": "臺北大學(臺北校區)",
        "Lat": 25.057628,
        "Lon": 121.5428,
        "Sequence": 35,
        "StationID": "1206"
      },
      {
        "Name": "民生復興路口",
        "Lat": 25.057658,
        "Lon": 121.545777,
        "Sequence": 36,
        "StationID": "1523"
      },
      {
        "Name": "民生敦化路口",
        "Lat": 25.05758765,
        "Lon": 121.5479795,
        "Sequence": 37,
        "StationID": "1561"
      },
      {
        "Name": "公教住宅",
        "Lat": 25.05792823,
        "Lon": 121.5525641,
        "Sequence": 38,
        "StationID": "1495"
      },
      {
        "Name": "介壽國中",
        "Lat": 25.058201423962956,
        "Lon": 121.55569442816517,
        "Sequence": 39,
        "StationID": "1497"
      },
      {
        "Name": "聯合二村",
        "Lat": 25.0585017739443,
        "Lon": 121.559216750962,
        "Sequence": 40,
        "StationID": "1597"
      },
      {
        "Name": "民生社區活動中心",
        "Lat": 25.0586405271738,
        "Lon": 121.560927032747,
        "Sequence": 41,
        "StationID": "1506"
      },
      {
        "Name": "三民路",
        "Lat": 25.0575,
        "Lon": 121.5634,
        "Sequence": 42,
        "StationID": "1492"
      },
      {
        "Name": "三民健康路口(西松高中)",
        "Lat": 25.05524502,
        "Lon": 121.5635808,
        "Sequence": 43,
        "StationID": "1489"
      },
      {
        "Name": "西松國小",
        "Lat": 25.05282745475233,
        "Lon": 121.56375921983846,
        "Sequence": 44,
        "StationID": "1521"
      },
      {
        "Name": "南京公寓(捷運南京三民)",
        "Lat": 25.051276,
        "Lon": 121.564943,
        "Sequence": 45,
        "StationID": "1545"
      },
      {
        "Name": "東興路一",
        "Lat": 25.05013,
        "Lon": 121.56523,
        "Sequence": 46,
        "StationID": "1542"
      },
      {
        "Name": "東興路",
        "Lat": 25.046530959098416,
        "Lon": 121.56649195154529,
        "Sequence": 47,
        "StationID": "1540"
      },
      {
        "Name": "松山高中(基隆路)",
        "Lat": 25.0444493988665,
        "Lon": 121.56628044728,
        "Sequence": 48,
        "StationID": "2095"
      },
      {
        "Name": "市政府(市府)",
        "Lat": 25.038501,
        "Lon": 121.563553,
        "Sequence": 49,
        "StationID": "4171"
      },
      {
        "Name": "市政府(松壽)",
        "Lat": 25.0358368102123,
        "Lon": 121.564893286779,
        "Sequence": 50,
        "StationID": "2069"
      },
      {
        "Name": "松壽路口",
        "Lat": 25.0357841121602,
        "Lon": 121.567407790567,
        "Sequence": 51,
        "StationID": "2105"
      },
      {
        "Name": "信義松仁路口(松仁)",
        "Lat": 25.0345352489599,
        "Lon": 121.568236043782,
        "Sequence": 52,
        "StationID": "2121"
      },
      {
        "Name": "捷運象山站",
        "Lat": 25.032648,
        "Lon": 121.568984,
        "Sequence": 53,
        "StationID": "20305"
      },
      {
        "Name": "松德站",
        "Lat": 25.03255317,
        "Lon": 121.5744778,
        "Sequence": 54,
        "StationID": "2106"
      }
    ]
  }
]