[
  {
    "Route": "643",
    "SubRoute": "643",
    "Direction": 0,
    "Stops": [
      {
        "Name": "錦繡站",
        "Lat": 24.943378,
        "Lon": 121.475736,
        "Sequence": 1,
        "StationID": "2971"
      },
      {
        "Name": "美墅家",
        "Lat": 24.94431726,
        "Lon": 121.4764402,
        "Sequence": 2,
        "StationID": "1001019"
      },
      {
        "Name": "錦繡一",
        "Lat": 24.94553,
        "Lon": 121.47824,
        "Sequence": 3,
        "StationID": "60049"
      },
      {
        "Name": "錦秀路口",
        "Lat": 24.945972,
        "Lon": 121.479176,
        "Sequence": 4,
        "StationID": "1165603298"
      },
      {
        "Name": "碧瑤",
        "Lat": 24.94681,
        "Lon": 121.47982,
        "Sequence": 5,
        "StationID": "60048"
      },
      {
        "Name": "日興市民活動中心",
        "Lat": 24.948762,
        "Lon": 121.481962,
        "Sequence": 6,
        "StationID": "4119"
      },
      {
        "Name": "三城",
        "Lat": 24.949637,
        "Lon": 121.483119,
        "Sequence": 7,
        "StationID": "1000372"
      },
      {
        "Name": "建業路",
        "Lat": 24.95121,
        "Lon": 121.484465,
        "Sequence": 8,
        "StationID": "1000374"
      },
      {
        "Name": "二城",
        "Lat": 24.95159154,
        "Lon": 121.4860328,
        "Sequence": 9,
        "StationID": "1000375"
      },
      {
        "Name": "中央印製廠",
        "Lat": 24.951722671131,
        "Lon": 121.488385431569,
        "Sequence": 10,
        "StationID": "1000376"
      },
      {
        "Name": "中央新城",
        "Lat": 24.951708,
        "Lon": 121.489551,
        "Sequence": 11,
        "StationID": "2868"
      },
      {
        "Name": "頭城",
        "Lat": 24.95177354,
        "Lon": 121.4915448,
        "Sequence": 12,
        "StationID": "1000379"
      },
      {
        "Name": "頭城一",
        "Lat": 24.952962,
        "Lon": 121.493053,
        "Sequence": 13,
        "StationID": "2975"
      },
      {
        "Name": "大茅埔",
        "Lat": 24.95431753,
        "Lon": 121.4946626,
        "Sequence": 14,
        "StationID": "1000380"
      },
      {
        "Name": "康樂新村",
        "Lat": 24.955162,
        "Lon": 121.496698,
        "Sequence": 15,
        "StationID": "1000381"
      },
      {
        "Name": "仁康醫院",
        "Lat": 24.956348,
        "Lon": 121.499054,
        "Sequence": 16,
        "StationID": "3983"
      },
      {
        "Name": "薏仁坑",
        "Lat": 24.95733611,
        "Lon": 121.502106,
        "Sequence": 17,
        "StationID": "3982"
      },
      {
        "Name": "安康車子路口",
        "Lat": 24.958027,
        "Lon": 121.505929,
        "Sequence": 18,
        "StationID": "3984"
      },
      {
        "Name": "台北菸廠",
        "Lat": 24.959017,
        "Lon": 121.509284,
        "Sequence": 19,
        "StationID": "2887"
      },
      {
        "Name": "浪漫貴族",
        "Lat": 24.960016,
        "Lon": 121.511483,
        "Sequence": 20,
        "StationID": "1000401"
      },
      {
        "Name": "公崙新村(豐榮醫院)",
        "Lat": 24.962041,
        "Lon": 121.512648,
        "Sequence": 21,
        "StationID": "1000402"
      },
      {
        "Name": "安康派出所",
        "Lat": 24.963642,
        "Lon": 121.515311,
        "Sequence": 22,
        "StationID": "1000403"
      },
      {
        "Name": "光華新村(安康路)",
        "Lat": 24.963936,
        "Lon": 121.517942,
        "Sequence": 23,
        "StationID": "2896"
      },
      {
        "Name": "安華路口",
        "Lat": 24.9637050292789,
        "Lon": 121.521365324681,
        "Sequence": 24,
        "StationID": "20310"
      },
      {
        "Name": "下城社區",
        "Lat": 24.96347353,
        "Lon": 121.5235251,
        "Sequence": 25,
        "StationID": "2858"
      },
      {
        "Name": "胡璉故居紀念館",
        "Lat": 24.962917,
        "Lon": 121.52598,
        "Sequence": 26,
        "StationID": "2857"
      },
      {
        "Name": "頂城",
        "Lat": 24.961725,
        "Lon": 121.528339,
        "Sequence": 27,
        "StationID": "2934"
      },
      {
        "Name": "大坪頂",
        "Lat": 24.961041,
        "Lon": 121.530152,
        "Sequence": 28,
        "StationID": "2855"
      },
      {
        "Name": "溪頭",
        "Lat": 24.960256,
        "Lon": 121.532361,
        "Sequence": 29,
        "StationID": "2679"
      },
      {
        "Name": "碧潭橋頭",
        "Lat": 24.963158,
        "Lon": 121.53982,
        "Sequence": 30,
        "StationID": "60071"
      },
      {
        "Name": "檳榔路",
        "Lat": 24.96500149,
        "Lon": 121.5405875,
        "Sequence": 31,
        "StationID": "2981"
      },
      {
        "Name": "捷運新店區公所站(北新)",
        "Lat": 24.96763873691205,
        "Lon": 121.54161613426882,
        "Sequence": 32,
        "StationID": "30100"
      },
      {
        "Name": "七張(北新路)",
        "Lat": 24.971513,
        "Lon": 121.542921,
        "Sequence": 33,
        "StationID": "30101"
      },
      {
        "Name": "捷運七張站",
        "Lat": 24.9753,
        "Lon": 121.5430453,
        "Sequence": 34,
        "StationID": "30102"
      },
      {
        "Name": "新店郵局",
        "Lat": 24.978161,
        "Lon": 121.542795,
        "Sequence": 35,
        "StationID": "30103"
      },
      {
        "Name": "大坪林",
        "Lat": 24.98123266,
        "Lon": 121.5418387,
        "Sequence": 36,
        "StationID": "30104"
      },
      {
        "Name": "捷運大坪林站",
        "Lat": 24.98334421,
        "Lon": 121.5413983,
        "Sequence": 37,
        "StationID": "30105"
      },
      {
        "Name": "滬江中學",
        "Lat": 24.991120032966297,
        "Lon": 121.54025525837187,
        "Sequence": 38,
        "StationID": "1000547"
      },
      {
        "Name": "捷運景美站",
        "Lat": 24.99234145800376,
        "Lon": 121.54075736926794,
        "Sequence": 39,
        "StationID": "1000548"
      },
      {
        "Name": "財政園區",
        "Lat": 24.99545268,
        "Lon": 121.5413365,
        "Sequence": 40,
        "StationID": "1000808"
      },
      {
        "Name": "萬隆",
        "Lat": 24.99931624,
        "Lon": 121.5402001,
        "Sequence": 41,
        "StationID": "1000234"
      },
      {
        "Name": "捷運萬隆站",
        "Lat": 25.00136317,
        "Lon": 121.5393892,
        "Sequence": 42,
        "StationID": "1000235"
      },
      {
        "Name": "武功國小(羅斯福)",
        "Lat": 25.00327364,
        "Lon": 121.5387822,
        "Sequence": 43,
        "StationID": "244"
      },
      {
        "Name": "師大分部",
        "Lat": 25.0076706783786,
        "Lon": 121.538470307254,
        "Sequence": 44,
        "StationID": "1000036"
      },
      {
        "Name": "捷運公館站",
        "Lat": 25.013993,
        "Lon": 121.535185,
        "Sequence": 45,
        "StationID": "1990"
      },
      {
        "Name": "臺大",
        "Lat": 25.01800299,
        "Lon": 121.5337036,
        "Sequence": 46,
        "StationID": "6667"
      },
      {
        "Name": "臺大綜合體育館",
        "Lat": 25.0214053337175,
        "Lon": 121.534388191196,
        "Sequence": 47,
        "StationID": "2197"
      },
      {
        "Name": "龍安國小(公務人力發展學院)",
        "Lat": 25.02527096,
        "Lon": 121.5349231,
        "Sequence": 48,
        "StationID": "2255"
      },
      {
        "Name": "金華新生路口",
        "Lat": 25.03048,
        "Lon": 121.53384,
        "Sequence": 49,
        "StationID": "1943"
      },
      {
        "Name": "信義新生路口",
        "Lat": 25.03320526,
        "Lon": 121.5329027,
        "Sequence": 50,
        "StationID": "6670"
      },
      {
        "Name": "仁愛新生路口",
        "Lat": 25.03779674,
        "Lon": 121.5328703,
        "Sequence": 51,
        "StationID": "6682"
      },
      {
        "Name": "捷運忠孝新生站",
        "Lat": 25.04198981,
        "Lon": 121.5328758,
        "Sequence": 52,
        "StationID": "2264"
      },
      {
        "Name": "光華商場",
        "Lat": 25.045,
        "Lon": 121.53299,
        "Sequence": 53,
        "StationID": "6683"
      },
      {
        "Name": "長安松江路口",
        "Lat": 25.0482736559236,
        "Lon": 121.532997019655,
        "Sequence": 54,
        "StationID": "1281"
      },
      {
        "Name": "捷運松江南京站",
        "Lat": 25.0517997,
        "Lon": 121.533087,
        "Sequence": 55,
        "StationID": "6702"
      },
      {
        "Name": "長春松江路口",
        "Lat": 25.05453652,
        "Lon": 121.5331386,
        "Sequence": 56,
        "StationID": "1270"
      },
      {
        "Name": "捷運行天宮站(松江路)",
        "Lat": 25.057613818954,
        "Lon": 121.533176617617,
        "Sequence": 57,
        "StationID": "6704"
      },
      {
        "Name": "行天宮",
        "Lat": 25.06316776,
        "Lon": 121.5334449,
        "Sequence": 58,
        "StationID": "6706"
      },
      {
        "Name": "新生公園(林安泰)",
        "Lat": 25.0671805,
        "Lon": 121.5333635,
        "Sequence": 59,
        "StationID": "16265"
      },
      {
        "Name": "臺北漁市",
        "Lat": 25.068066,
        "Lon": 121.537162,
        "Sequence": 60,
        "StationID": "4175"
      },
      {
        "Name": "第二果菜市場",
        "Lat": 25.068039,
        "Lon": 121.538733,
        "Sequence": 61,
        "StationID": "1344"
      },
      {
        "Name": "下埤里",
        "Lat": 25.067849,
        "Lon": 121.542007,
        "Sequence": 62,
        "StationID": "3987"
      },
      {
        "Name": "復興北村",
        "Lat": 25.06497867,
        "Lon": 121.5441547,
        "Sequence": 63,
        "StationID": "1348"
      }
    ]
  },
  {
    "Route": "643",
    "SubRoute": "643",
    "Direction": 1,
    "Stops": [
      {
        "Name": "五常街口",
        "Lat": 25.06369319,
        "Lon": 121.5440531,
        "Sequence": 1,
        "StationID": "6989"
      },
      {
        "Name": "捷運中山國中站",
        "Lat": 25.06148096,
        "Lon": 121.5440343,
        "Sequence": 2,
        "StationID": "1574"
      },
      {
        "Name": "臺北大學(臺北校區)",
        "Lat": 25.05795717284778,
        "Lon": 121.5417414658165,
        "Sequence": 3,
        "StationID": "10419"
      },
      {
        "Name": "合江街口",
        "Lat": 25.05803455,
        "Lon": 121.5383134,
        "Sequence": 4,
        "StationID": "10401"
      },
      {
        "Name": "民生松江路口",
        "Lat": 25.05813986,
        "Lon": 121.5361688,
        "Sequence": 5,
        "StationID": "1571"
      },
      {
        "Name": "長春松江路口",
        "Lat": 25.05500621,
        "Lon": 121.533011,
        "Sequence": 6,
        "StationID": "1294"
      },
      {
        "Name": "捷運松江南京站",
        "Lat": 25.05228153,
        "Lon": 121.5329812,
        "Sequence": 7,
        "StationID": "1000806"
      },
      {
        "Name": "長安松江路口",
        "Lat": 25.04864879,
        "Lon": 121.5329145,
        "Sequence": 8,
        "StationID": "1280"
      },
      {
        "Name": "光華商場",
        "Lat": 25.04460839,
        "Lon": 121.5328606,
        "Sequence": 9,
        "StationID": "6684"
      },
      {
        "Name": "捷運忠孝新生站",
        "Lat": 25.040288,
        "Lon": 121.532693,
        "Sequence": 10,
        "StationID": "1000396"
      },
      {
        "Name": "仁愛新生路口",
        "Lat": 25.03851244,
        "Lon": 121.5326821,
        "Sequence": 11,
        "StationID": "6681"
      },
      {
        "Name": "信義新生路口",
        "Lat": 25.03403642,
        "Lon": 121.5325798,
        "Sequence": 12,
        "StationID": "6669"
      },
      {
        "Name": "金華新生路口",
        "Lat": 25.03087,
        "Lon": 121.53346,
        "Sequence": 13,
        "StationID": "1942"
      },
      {
        "Name": "和平新生路口",
        "Lat": 25.02639,
        "Lon": 121.53478,
        "Sequence": 14,
        "StationID": "2256"
      },
      {
        "Name": "龍安國小(公務人力發展學院)",
        "Lat": 25.02466421,
        "Lon": 121.5345198,
        "Sequence": 15,
        "StationID": "2344"
      },
      {
        "Name": "臺大綜合體育館",
        "Lat": 25.0215502113013,
        "Lon": 121.534113646475,
        "Sequence": 16,
        "StationID": "2199"
      },
      {
        "Name": "臺大",
        "Lat": 25.018246284477,
        "Lon": 121.533425339383,
        "Sequence": 17,
        "StationID": "2224"
      },
      {
        "Name": "捷運公館站",
        "Lat": 25.014321,
        "Lon": 121.534722,
        "Sequence": 18,
        "StationID": "1991"
      },
      {
        "Name": "師大分部",
        "Lat": 25.0081406778406,
        "Lon": 121.538064047069,
        "Sequence": 19,
        "StationID": "2430"
      },
      {
        "Name": "武功國小(羅斯福)",
        "Lat": 25.00341174,
        "Lon": 121.5384705,
        "Sequence": 20,
        "StationID": "2412"
      },
      {
        "Name": "捷運萬隆站",
        "Lat": 25.00178299384715,
        "Lon": 121.53891974229319,
        "Sequence": 21,
        "StationID": "2450"
      },
      {
        "Name": "萬隆",
        "Lat": 24.99939586,
        "Lon": 121.5398039,
        "Sequence": 22,
        "StationID": "2503"
      },
      {
        "Name": "財政園區",
        "Lat": 24.995644300082535,
        "Lon": 121.54100316430888,
        "Sequence": 23,
        "StationID": "1000807"
      },
      {
        "Name": "捷運景美站",
        "Lat": 24.99351516343611,
        "Lon": 121.5408467495785,
        "Sequence": 24,
        "StationID": "2445"
      },
      {
        "Name": "滬江中學",
        "Lat": 24.990932666343376,
        "Lon": 121.53983078018952,
        "Sequence": 25,
        "StationID": "2523"
      },
      {
        "Name": "捷運大坪林站",
        "Lat": 24.98335228,
        "Lon": 121.5411399,
        "Sequence": 26,
        "StationID": "2925"
      },
      {
        "Name": "大坪林",
        "Lat": 24.980858,
        "Lon": 121.541691,
        "Sequence": 27,
        "StationID": "2854"
      },
      {
        "Name": "新店郵局",
        "Lat": 24.978011,
        "Lon": 121.542478,
        "Sequence": 28,
        "StationID": "2947"
      },
      {
        "Name": "捷運七張站",
        "Lat": 24.97475,
        "Lon": 121.542746,
        "Sequence": 29,
        "StationID": "1001015"
      },
      {
        "Name": "七張(北新路)",
        "Lat": 24.97141,
        "Lon": 121.5426501,
        "Sequence": 30,
        "StationID": "2853"
      },
      {
        "Name": "捷運新店區公所站(北新)",
        "Lat": 24.967768,
        "Lon": 121.541385,
        "Sequence": 31,
        "StationID": "2928"
      },
      {
        "Name": "檳榔路",
        "Lat": 24.96516884,
        "Lon": 121.5404224,
        "Sequence": 32,
        "StationID": "2982"
      },
      {
        "Name": "碧潭橋頭",
        "Lat": 24.962441,
        "Lon": 121.539199,
        "Sequence": 33,
        "StationID": "2956"
      },
      {
        "Name": "溪頭",
        "Lat": 24.96083175,
        "Lon": 121.5319036,
        "Sequence": 34,
        "StationID": "2950"
      },
      {
        "Name": "大坪頂",
        "Lat": 24.96132951,
        "Lon": 121.5298939,
        "Sequence": 35,
        "StationID": "1001047"
      },
      {
        "Name": "頂城",
        "Lat": 24.961886,
        "Lon": 121.528356,
        "Sequence": 36,
        "StationID": "1001048"
      },
      {
        "Name": "胡璉故居紀念館",
        "Lat": 24.963037,
        "Lon": 121.526281,
        "Sequence": 37,
        "StationID": "1001049"
      },
      {
        "Name": "下城社區",
        "Lat": 24.96359615,
        "Lon": 121.5239545,
        "Sequence": 38,
        "StationID": "1001050"
      },
      {
        "Name": "安華路口",
        "Lat": 24.9639074679223,
        "Lon": 121.52120824524,
        "Sequence": 39,
        "StationID": "20309"
      },
      {
        "Name": "光華新村(安康路)",
        "Lat": 24.96414395,
        "Lon": 121.5182441,
        "Sequence": 40,
        "StationID": "1000706"
      },
      {
        "Name": "安康派出所",
        "Lat": 24.963346,
        "Lon": 121.514015,
        "Sequence": 41,
        "StationID": "2900"
      },
      {
        "Name": "公崙新村(豐榮醫院)",
        "Lat": 24.961978,
        "Lon": 121.512518,
        "Sequence": 42,
        "StationID": "2876"
      },
      {
        "Name": "浪漫貴族",
        "Lat": 24.95991,
        "Lon": 121.51084,
        "Sequence": 43,
        "StationID": "2917"
      },
      {
        "Name": "台北菸廠",
        "Lat": 24.95887022,
        "Lon": 121.5084746,
        "Sequence": 44,
        "StationID": "2886"
      },
      {
        "Name": "安康車子路口",
        "Lat": 24.95808137,
        "Lon": 121.5048646,
        "Sequence": 45,
        "StationID": "2905"
      },
      {
        "Name": "薏仁坑",
        "Lat": 24.957301,
        "Lon": 121.501307,
        "Sequence": 46,
        "StationID": "2979"
      },
      {
        "Name": "仁康醫院",
        "Lat": 24.956813,
        "Lon": 121.499692,
        "Sequence": 47,
        "StationID": "2901"
      },
      {
        "Name": "康樂新村",
        "Lat": 24.95549,
        "Lon": 121.4972383,
        "Sequence": 48,
        "StationID": "2922"
      },
      {
        "Name": "大茅埔",
        "Lat": 24.954594,
        "Lon": 121.494847,
        "Sequence": 49,
        "StationID": "2859"
      },
      {
        "Name": "頭城一",
        "Lat": 24.952911,
        "Lon": 121.492819,
        "Sequence": 50,
        "StationID": "2977"
      },
      {
        "Name": "頭城",
        "Lat": 24.95188782,
        "Lon": 121.4914979,
        "Sequence": 51,
        "StationID": "2974"
      },
      {
        "Name": "中央印製廠",
        "Lat": 24.951867,
        "Lon": 121.488257,
        "Sequence": 52,
        "StationID": "2866"
      },
      {
        "Name": "二城",
        "Lat": 24.951821,
        "Lon": 121.48623,
        "Sequence": 53,
        "StationID": "2851"
      },
      {
        "Name": "建業路",
        "Lat": 24.95122,
        "Lon": 121.48431,
        "Sequence": 54,
        "StationID": "2913"
      },
      {
        "Name": "三城",
        "Lat": 24.949649,
        "Lon": 121.482922,
        "Sequence": 55,
        "StationID": "2856"
      },
      {
        "Name": "日興市民活動中心",
        "Lat": 24.948736,
        "Lon": 121.481227,
        "Sequence": 56,
        "StationID": "4120"
      },
      {
        "Name": "碧瑤",
        "Lat": 24.946929,
        "Lon": 121.47968,
        "Sequence": 57,
        "StationID": "2955"
      },
      {
        "Name": "錦繡一",
        "Lat": 24.94561528,
        "Lon": 121.4780758,
        "Sequence": 58,
        "StationID": "2969"
      },
      {
        "Name": "美墅家",
        "Lat": 24.944344,
        "Lon": 121.476154,
        "Sequence": 59,
        "StationID": "2915"
      },
      {
        "Name": "錦繡站",
        "Lat": 24.943378,
        "Lon": 121.475736,
        "Sequence": 60,
        "StationID": "2971"
      }
    ]
  }
]