[
  {
    "Route": "內科通勤專車18",
    "SubRoute": "內科18(捷民權西-內科)",
    "Direction": 0,
    "Stops": [
      {
        "Name": "捷運民權西路站",
        "Lat": 25.0628480067,
        "Lon": 121.5178677888,
        "Sequence": 1,
        "StationID": "1000398"
      },
      {
        "Name": "民權中山路口",
        "Lat": 25.06271419,
        "Lon": 121.5223009,
        "Sequence": 2,
        "StationID": "1235"
      },
      {
        "Name": "捷運中山國小站",
        "Lat": 25.06266873,
        "Lon": 121.5253813,
        "Sequence": 3,
        "StationID": "4098"
      },
      {
        "Name": "民權吉林路口",
        "Lat": 25.06254664,
        "Lon": 121.5300637,
        "Sequence": 4,
        "StationID": "1000112"
      },
      {
        "Name": "民權松江路口",
        "Lat": 25.0624771,
        "Lon": 121.5328589,
        "Sequence": 5,
        "StationID": "1239"
      },
      {
        "Name": "民權建國路口",
        "Lat": 25.06236889,
        "Lon": 121.5364984,
        "Sequence": 6,
        "StationID": "1242"
      },
      {
        "Name": "民權龍江路口",
        "Lat": 25.0623255291835,
        "Lon": 121.540554014847,
        "Sequence": 7,
        "StationID": "1000186"
      },
      {
        "Name": "民權復興路口",
        "Lat": 25.06227185,
        "Lon": 121.5438692,
        "Sequence": 8,
        "StationID": "1000326"
      },
      {
        "Name": "民權敦化路口",
        "Lat": 25.062020643130538,
        "Lon": 121.54762539917303,
        "Sequence": 9,
        "StationID": "1244"
      },
      {
        "Name": "民權東路口",
        "Lat": 25.06145,
        "Lon": 121.552,
        "Sequence": 10,
        "StationID": "4158"
      },
      {
        "Name": "中華航空",
        "Lat": 25.06188,
        "Lon": 121.55578,
        "Sequence": 11,
        "StationID": "1496"
      },
      {
        "Name": "民權公園",
        "Lat": 25.06199574,
        "Lon": 121.5573,
        "Sequence": 12,
        "StationID": "1511"
      },
      {
        "Name": "民權國小",
        "Lat": 25.06247253,
        "Lon": 121.5611,
        "Sequence": 13,
        "StationID": "1514"
      },
      {
        "Name": "三民國小",
        "Lat": 25.06279839209022,
        "Lon": 121.56364748952177,
        "Sequence": 14,
        "StationID": "8671"
      },
      {
        "Name": "民權大橋",
        "Lat": 25.066876801458,
        "Lon": 121.579477870198,
        "Sequence": 15,
        "StationID": "1017"
      },
      {
        "Name": "時報廣場",
        "Lat": 25.0680848776157,
        "Lon": 121.58212115754,
        "Sequence": 16,
        "StationID": "1077"
      },
      {
        "Name": "麗寶大樓",
        "Lat": 25.070517,
        "Lon": 121.582711,
        "Sequence": 17,
        "StationID": "8603"
      },
      {
        "Name": "公館山",
        "Lat": 25.071952,
        "Lon": 121.581177,
        "Sequence": 18,
        "StationID": "8621"
      },
      {
        "Name": "瑞光路",
        "Lat": 25.07478024553194,
        "Lon": 121.57766690657958,
        "Sequence": 19,
        "StationID": "1000897"
      },
      {
        "Name": "瑞光港墘路口",
        "Lat": 25.07729684,
        "Lon": 121.5731066,
        "Sequence": 20,
        "StationID": "1000895"
      },
      {
        "Name": "仁寶大樓",
        "Lat": 25.079478,
        "Lon": 121.568256,
        "Sequence": 21,
        "StationID": "1000896"
      },
      {
        "Name": "基湖路口",
        "Lat": 25.0805158061818,
        "Lon": 121.565903409458,
        "Sequence": 22,
        "StationID": "8403"
      },
      {
        "Name": "內湖基湖路口",
        "Lat": 25.08167506,
        "Lon": 121.5653587,
        "Sequence": 23,
        "StationID": "8402"
      },
      {
        "Name": "西湖國中",
        "Lat": 25.08562294,
        "Lon": 121.5656019,
        "Sequence": 24,
        "StationID": "1039"
      }
    ]
  },
  {
    "Route": "內科通勤專車18",
    "SubRoute": "內科18(內科-捷民權西)",
    "Direction": 1,
    "Stops": [
      {
        "Name": "西湖國中",
        "Lat": 25.08514,
        "Lon": 121.56545,
        "Sequence": 1,
        "StationID": "50511"
      },
      {
        "Name": "內湖基湖路口",
        "Lat": 25.08198997,
        "Lon": 121.5652273,
        "Sequence": 2,
        "StationID": "1001"
      },
      {
        "Name": "基湖路口",
        "Lat": 25.08025003,
        "Lon": 121.5662362,
        "Sequence": 3,
        "StationID": "8404"
      },
      {
        "Name": "仁寶大樓",
        "Lat": 25.07921316,
        "Lon": 121.5684974,
        "Sequence": 4,
        "StationID": "1007"
      },
      {
        "Name": "瑞光港墘路口",
        "Lat": 25.077753,
        "Lon": 121.571868,
        "Sequence": 5,
        "StationID": "1013"
      },
      {
        "Name": "瑞光路",
        "Lat": 25.074821,
        "Lon": 121.577343,
        "Sequence": 6,
        "StationID": "1132"
      },
      {
        "Name": "公館山",
        "Lat": 25.07198833,
        "Lon": 121.5809507,
        "Sequence": 7,
        "StationID": "1006"
      },
      {
        "Name": "麗寶大樓",
        "Lat": 25.070960172287336,
        "Lon": 121.5820136022182,
        "Sequence": 8,
        "StationID": "1165610352"
      },
      {
        "Name": "時報廣場",
        "Lat": 25.0685609459737,
        "Lon": 121.583129808238,
        "Sequence": 9,
        "StationID": "8601"
      },
      {
        "Name": "民權大橋",
        "Lat": 25.066982973174284,
        "Lon": 121.57895384595646,
        "Sequence": 10,
        "StationID": "8602"
      },
      {
        "Name": "三民國小",
        "Lat": 25.063093,
        "Lon": 121.564002,
        "Sequence": 11,
        "StationID": "10403"
      },
      {
        "Name": "民權國小",
        "Lat": 25.06265373,
        "Lon": 121.5605346,
        "Sequence": 12,
        "StationID": "8650"
      },
      {
        "Name": "中華航空",
        "Lat": 25.06209189,
        "Lon": 121.5555141,
        "Sequence": 13,
        "StationID": "8604"
      },
      {
        "Name": "民權敦化路口",
        "Lat": 25.06203573,
        "Lon": 121.5482873,
        "Sequence": 14,
        "StationID": "60134"
      },
      {
        "Name": "民權復興路口",
        "Lat": 25.06222037,
        "Lon": 121.5446524,
        "Sequence": 15,
        "StationID": "1000329"
      },
      {
        "Name": "民權龍江路口",
        "Lat": 25.0623959365736,
        "Lon": 121.541275218891,
        "Sequence": 16,
        "StationID": "1000184"
      },
      {
        "Name": "民權建國路口",
        "Lat": 25.06248317,
        "Lon": 121.53746,
        "Sequence": 17,
        "StationID": "4081"
      },
      {
        "Name": "民權松江路口",
        "Lat": 25.06252486,
        "Lon": 121.5334388,
        "Sequence": 18,
        "StationID": "1240"
      },
      {
        "Name": "民權吉林路口",
        "Lat": 25.062636,
        "Lon": 121.529148,
        "Sequence": 19,
        "StationID": "1000162"
      },
      {
        "Name": "捷運中山國小站",
        "Lat": 25.0627519578754,
        "Lon": 121.5259472364,
        "Sequence": 20,
        "StationID": "1165603308"
      },
      {
        "Name": "民權中山路口",
        "Lat": 25.06285356,
        "Lon": 121.5230024,
        "Sequence": 21,
        "StationID": "1236"
      },
      {
        "Name": "捷運民權西路站",
        "Lat": 25.062948670718,
        "Lon": 121.518977516403,
        "Sequence": 22,
        "StationID": "1000393"
      },
      {
        "Name": "成淵高中",
        "Lat": 25.061107,
        "Lon": 121.518101,
        "Sequence": 23,
        "StationID": "1165604811"
      },
      {
        "Name": "大同分局",
        "Lat": 25.060110116537,
        "Lon": 121.51466338277,
        "Sequence": 24,
        "StationID": "1000894"
      },
      {
        "Name": "捷運民權西路站",
        "Lat": 25.0628480067,
        "Lon": 121.5178677888,
        "Sequence": 25,
        "StationID": "1000398"
      }
    ]
  }
]