[
  {
    "Route": "內湖幹線",
    "SubRoute": "內湖幹線",
    "Direction": 0,
    "Stops": [
      {
        "Name": "南寮(忠三街口)",
        "Lat": 25.079068,
        "Lon": 121.623553,
        "Sequence": 1,
        "StationID": "50446"
      },
      {
        "Name": "康湖隧道口(白馬山莊)",
        "Lat": 25.0773157481393,
        "Lon": 121.622813623616,
        "Sequence": 2,
        "StationID": "1025"
      },
      {
        "Name": "五分埤",
        "Lat": 25.0762017702812,
        "Lon": 121.62118809341,
        "Sequence": 3,
        "StationID": "1000201"
      },
      {
        "Name": "東湖國中",
        "Lat": 25.0726450755284,
        "Lon": 121.619351259043,
        "Sequence": 4,
        "StationID": "1055"
      },
      {
        "Name": "康樂街",
        "Lat": 25.0711232284945,
        "Lon": 121.619134959956,
        "Sequence": 5,
        "StationID": "1000203"
      },
      {
        "Name": "東湖社區",
        "Lat": 25.06922957,
        "Lon": 121.6184776,
        "Sequence": 6,
        "StationID": "50444"
      },
      {
        "Name": "東湖國小",
        "Lat": 25.068177,
        "Lon": 121.61668,
        "Sequence": 7,
        "StationID": "8531"
      },
      {
        "Name": "五分社區",
        "Lat": 25.068763284981,
        "Lon": 121.614308439756,
        "Sequence": 8,
        "StationID": "5441"
      },
      {
        "Name": "明湖國中",
        "Lat": 25.0702607638519,
        "Lon": 121.611642249953,
        "Sequence": 9,
        "StationID": "8534"
      },
      {
        "Name": "明湖國小(公共電視台)",
        "Lat": 25.0718101504888,
        "Lon": 121.609308386226,
        "Sequence": 10,
        "StationID": "50442"
      },
      {
        "Name": "捷運葫洲站(康寧大學)",
        "Lat": 25.0726213066526,
        "Lon": 121.607610913193,
        "Sequence": 11,
        "StationID": "1165606697"
      },
      {
        "Name": "康寧醫院",
        "Lat": 25.07543061,
        "Lon": 121.6072451,
        "Sequence": 12,
        "StationID": "8629"
      },
      {
        "Name": "黃石公廟",
        "Lat": 25.078107,
        "Lon": 121.607197,
        "Sequence": 13,
        "StationID": "1118"
      },
      {
        "Name": "大湖公園",
        "Lat": 25.08303681690925,
        "Lon": 121.60525229995443,
        "Sequence": 14,
        "StationID": "50448"
      },
      {
        "Name": "捷運大湖公園站",
        "Lat": 25.08373507,
        "Lon": 121.6025457,
        "Sequence": 15,
        "StationID": "3997"
      },
      {
        "Name": "大湖",
        "Lat": 25.08478664,
        "Lon": 121.6000154,
        "Sequence": 16,
        "StationID": "974"
      },
      {
        "Name": "金龍里",
        "Lat": 25.0845601194501,
        "Lon": 121.59638478301,
        "Sequence": 17,
        "StationID": "1000737"
      },
      {
        "Name": "捷運內湖站",
        "Lat": 25.0834615421604,
        "Lon": 121.593879114086,
        "Sequence": 18,
        "StationID": "1071"
      },
      {
        "Name": "湖光市場",
        "Lat": 25.081779319488682,
        "Lon": 121.59179366923021,
        "Sequence": 19,
        "StationID": "1103"
      },
      {
        "Name": "成功路三段",
        "Lat": 25.0798544258006,
        "Lon": 121.589838083526,
        "Sequence": 20,
        "StationID": "1029"
      },
      {
        "Name": "內湖高中",
        "Lat": 25.07901319,
        "Lon": 121.5883097,
        "Sequence": 21,
        "StationID": "8523"
      },
      {
        "Name": "捷運文德站(碧湖公園)",
        "Lat": 25.078655,
        "Lon": 121.584351,
        "Sequence": 22,
        "StationID": "1109"
      },
      {
        "Name": "湖光國宅",
        "Lat": 25.07859,
        "Lon": 121.58078,
        "Sequence": 23,
        "StationID": "8415"
      },
      {
        "Name": "西湖圖書館(湖光教會)",
        "Lat": 25.07910692,
        "Lon": 121.5779835,
        "Sequence": 24,
        "StationID": "1000499"
      },
      {
        "Name": "捷運港墘站(內湖高工)",
        "Lat": 25.0798366021365,
        "Lon": 121.57610868441,
        "Sequence": 25,
        "StationID": "8527"
      },
      {
        "Name": "麗山國中",
        "Lat": 25.0806380998734,
        "Lon": 121.573860343024,
        "Sequence": 26,
        "StationID": "4084"
      },
      {
        "Name": "麗山街",
        "Lat": 25.081473,
        "Lon": 121.571386,
        "Sequence": 27,
        "StationID": "1153"
      },
      {
        "Name": "恕德家商",
        "Lat": 25.082118261496,
        "Lon": 121.569461375068,
        "Sequence": 28,
        "StationID": "50515"
      },
      {
        "Name": "捷運西湖站",
        "Lat": 25.0824213906562,
        "Lon": 121.565868143978,
        "Sequence": 29,
        "StationID": "1000723"
      },
      {
        "Name": "治磐新村",
        "Lat": 25.0830692818289,
        "Lon": 121.564098538475,
        "Sequence": 30,
        "StationID": "194"
      },
      {
        "Name": "文湖國小",
        "Lat": 25.0843810062584,
        "Lon": 121.561535778783,
        "Sequence": 31,
        "StationID": "8670"
      },
      {
        "Name": "美麗華",
        "Lat": 25.0848172776379,
        "Lon": 121.558119339359,
        "Sequence": 32,
        "StationID": "1322"
      },
      {
        "Name": "捷運劍南路站",
        "Lat": 25.085303158353604,
        "Lon": 121.55468793143969,
        "Sequence": 33,
        "StationID": "1000695"
      },
      {
        "Name": "自強隧道",
        "Lat": 25.08377483,
        "Lon": 121.5490281,
        "Sequence": 34,
        "StationID": "4182"
      },
      {
        "Name": "植福宮",
        "Lat": 25.0808482,
        "Lon": 121.5482394,
        "Sequence": 35,
        "StationID": "9435"
      },
      {
        "Name": "捷運大直站",
        "Lat": 25.0799238282333,
        "Lon": 121.546139731473,
        "Sequence": 36,
        "StationID": "1000126"
      },
      {
        "Name": "大直高中",
        "Lat": 25.07978102,
        "Lon": 121.5436838,
        "Sequence": 37,
        "StationID": "9433"
      },
      {
        "Name": "空軍司令部",
        "Lat": 25.07961,
        "Lon": 121.54169,
        "Sequence": 38,
        "StationID": "9437"
      },
      {
        "Name": "忠烈祠",
        "Lat": 25.0780024350627,
        "Lon": 121.535552182321,
        "Sequence": 39,
        "StationID": "9436"
      },
      {
        "Name": "中央電台",
        "Lat": 25.0781282212443,
        "Lon": 121.530144788528,
        "Sequence": 40,
        "StationID": "9434"
      },
      {
        "Name": "圓山大飯店",
        "Lat": 25.077322358349,
        "Lon": 121.527964269875,
        "Sequence": 41,
        "StationID": "1357"
      },
      {
        "Name": "臺北市立美術館",
        "Lat": 25.070066233009,
        "Lon": 121.523095139749,
        "Sequence": 42,
        "StationID": "4121"
      },
      {
        "Name": "大同大學",
        "Lat": 25.0673,
        "Lon": 121.52244,
        "Sequence": 43,
        "StationID": "1170"
      },
      {
        "Name": "大同公司(晴光市場)",
        "Lat": 25.06438114,
        "Lon": 121.5221621,
        "Sequence": 44,
        "StationID": "1171"
      },
      {
        "Name": "台泥大樓(馬偕醫院)",
        "Lat": 25.0608309862107,
        "Lon": 121.522776776113,
        "Sequence": 45,
        "StationID": "1000155"
      },
      {
        "Name": "國賓飯店",
        "Lat": 25.0564276089864,
        "Lon": 121.522628910085,
        "Sequence": 46,
        "StationID": "1000156"
      },
      {
        "Name": "中山市場",
        "Lat": 25.05126405386,
        "Lon": 121.52202112765,
        "Sequence": 47,
        "StationID": "1000064"
      },
      {
        "Name": "行政院",
        "Lat": 25.046484462941,
        "Lon": 121.519759690546,
        "Sequence": 48,
        "StationID": "50688"
      },
      {
        "Name": "臺北車站(忠孝)",
        "Lat": 25.0465408,
        "Lon": 121.5167218,
        "Sequence": 49,
        "StationID": "1000082"
      },
      {
        "Name": "重慶南路一段",
        "Lat": 25.04555817012959,
        "Lon": 121.51317492694037,
        "Sequence": 50,
        "StationID": "1962"
      },
      {
        "Name": "二二八和平公園",
        "Lat": 25.0423685522993,
        "Lon": 121.512543916311,
        "Sequence": 51,
        "StationID": "1848"
      }
    ]
  },
  {
    "Route": "內湖幹線",
    "SubRoute": "內湖幹線",
    "Direction": 1,
    "Stops": [
      {
        "Name": "博愛路",
        "Lat": 25.043262,
        "Lon": 121.511555,
        "Sequence": 1,
        "StationID": "2002"
      },
      {
        "Name": "臺北郵局",
        "Lat": 25.04676505924,
        "Lon": 121.51129364418,
        "Sequence": 2,
        "StationID": "1000108"
      },
      {
        "Name": "臺北車站(忠孝)",
        "Lat": 25.0462559043502,
        "Lon": 121.51700353811,
        "Sequence": 3,
        "StationID": "1886"
      },
      {
        "Name": "行政院",
        "Lat": 25.046578538214,
        "Lon": 121.520239869754,
        "Sequence": 4,
        "StationID": "1919"
      },
      {
        "Name": "中山市場",
        "Lat": 25.050519,
        "Lon": 121.522081,
        "Sequence": 5,
        "StationID": "1000712"
      },
      {
        "Name": "國賓飯店",
        "Lat": 25.0562422589842,
        "Lon": 121.522969858739,
        "Sequence": 6,
        "StationID": "1000157"
      },
      {
        "Name": "台泥大樓(馬偕醫院)",
        "Lat": 25.06158152,
        "Lon": 121.5230341,
        "Sequence": 7,
        "StationID": "1000158"
      },
      {
        "Name": "大同公司(晴光市場)",
        "Lat": 25.0642887,
        "Lon": 121.5224722,
        "Sequence": 8,
        "StationID": "16264"
      },
      {
        "Name": "大同大學",
        "Lat": 25.06770081,
        "Lon": 121.5228199,
        "Sequence": 9,
        "StationID": "1169"
      },
      {
        "Name": "臺北市立美術館",
        "Lat": 25.0721395085303,
        "Lon": 121.523964286473,
        "Sequence": 10,
        "StationID": "101"
      },
      {
        "Name": "圓山大飯店",
        "Lat": 25.0772703676354,
        "Lon": 121.528167347349,
        "Sequence": 11,
        "StationID": "1356"
      },
      {
        "Name": "中央電台",
        "Lat": 25.0779258290758,
        "Lon": 121.53000062511,
        "Sequence": 12,
        "StationID": "1195"
      },
      {
        "Name": "忠烈祠",
        "Lat": 25.07800478,
        "Lon": 121.5319142,
        "Sequence": 13,
        "StationID": "1260"
      },
      {
        "Name": "經國七海文化園區",
        "Lat": 25.07778224,
        "Lon": 121.535397,
        "Sequence": 14,
        "StationID": "4740"
      },
      {
        "Name": "空軍司令部",
        "Lat": 25.0793999240419,
        "Lon": 121.540311649212,
        "Sequence": 15,
        "StationID": "1382"
      },
      {
        "Name": "大直高中",
        "Lat": 25.07949,
        "Lon": 121.54255,
        "Sequence": 16,
        "StationID": "1179"
      },
      {
        "Name": "大直國小",
        "Lat": 25.07971159,
        "Lon": 121.5453154,
        "Sequence": 17,
        "StationID": "1180"
      },
      {
        "Name": "捷運大直站",
        "Lat": 25.0802161011772,
        "Lon": 121.5479855392,
        "Sequence": 18,
        "StationID": "4187"
      },
      {
        "Name": "植福宮",
        "Lat": 25.08160965,
        "Lon": 121.5488002,
        "Sequence": 19,
        "StationID": "1212"
      },
      {
        "Name": "自強隧道(大直教會)",
        "Lat": 25.0837373733406,
        "Lon": 121.549307259251,
        "Sequence": 20,
        "StationID": "1255"
      },
      {
        "Name": "自強隧道",
        "Lat": 25.0858624708036,
        "Lon": 121.551895985064,
        "Sequence": 21,
        "StationID": "1254"
      },
      {
        "Name": "捷運劍南路站",
        "Lat": 25.08484,
        "Lon": 121.555253,
        "Sequence": 22,
        "StationID": "1000117"
      },
      {
        "Name": "美麗華",
        "Lat": 25.0845384449731,
        "Lon": 121.558196913178,
        "Sequence": 23,
        "StationID": "1000127"
      },
      {
        "Name": "文湖國小",
        "Lat": 25.0841512660387,
        "Lon": 121.5615165067,
        "Sequence": 24,
        "StationID": "1008"
      },
      {
        "Name": "治磐新村",
        "Lat": 25.0829452709661,
        "Lon": 121.56384168984,
        "Sequence": 25,
        "StationID": "8521"
      },
      {
        "Name": "捷運西湖站",
        "Lat": 25.0821974042872,
        "Lon": 121.565884872161,
        "Sequence": 26,
        "StationID": "1000698"
      },
      {
        "Name": "恕德家商",
        "Lat": 25.0819632554949,
        "Lon": 121.56904542401,
        "Sequence": 27,
        "StationID": "1075"
      },
      {
        "Name": "麗山街",
        "Lat": 25.081132,
        "Lon": 121.57184,
        "Sequence": 28,
        "StationID": "8410"
      },
      {
        "Name": "捷運港墘站(內湖高工)",
        "Lat": 25.0801493693391,
        "Lon": 121.574618145655,
        "Sequence": 29,
        "StationID": "997"
      },
      {
        "Name": "西湖圖書館(湖光教會)",
        "Lat": 25.078683,
        "Lon": 121.578396,
        "Sequence": 30,
        "StationID": "1041"
      },
      {
        "Name": "湖光國宅",
        "Lat": 25.0783569202296,
        "Lon": 121.581597209792,
        "Sequence": 31,
        "StationID": "1104"
      },
      {
        "Name": "捷運文德站(碧湖公園)",
        "Lat": 25.07840172,
        "Lon": 121.5841327,
        "Sequence": 32,
        "StationID": "4083"
      },
      {
        "Name": "內湖高中",
        "Lat": 25.0787035812339,
        "Lon": 121.587565869008,
        "Sequence": 33,
        "StationID": "998"
      },
      {
        "Name": "成功路三段",
        "Lat": 25.0796177267452,
        "Lon": 121.589939880159,
        "Sequence": 34,
        "StationID": "8520"
      },
      {
        "Name": "湖光市場",
        "Lat": 25.0816997666211,
        "Lon": 121.59200882874,
        "Sequence": 35,
        "StationID": "8537"
      },
      {
        "Name": "捷運內湖站",
        "Lat": 25.08334,
        "Lon": 121.594132,
        "Sequence": 36,
        "StationID": "8538"
      },
      {
        "Name": "秀湖",
        "Lat": 25.08456,
        "Lon": 121.59841,
        "Sequence": 37,
        "StationID": "1000732"
      },
      {
        "Name": "大湖",
        "Lat": 25.08453,
        "Lon": 121.600182,
        "Sequence": 38,
        "StationID": "968"
      },
      {
        "Name": "捷運大湖公園站",
        "Lat": 25.08343,
        "Lon": 121.602592,
        "Sequence": 39,
        "StationID": "3998"
      },
      {
        "Name": "大湖公園",
        "Lat": 25.08288733,
        "Lon": 121.6048,
        "Sequence": 40,
        "StationID": "8524"
      },
      {
        "Name": "黃石公廟",
        "Lat": 25.077575,
        "Lon": 121.606985,
        "Sequence": 41,
        "StationID": "4009"
      },
      {
        "Name": "康寧醫院",
        "Lat": 25.076003252282835,
        "Lon": 121.60709165757346,
        "Sequence": 42,
        "StationID": "1094"
      },
      {
        "Name": "康寧社區",
        "Lat": 25.07432866824676,
        "Lon": 121.60631194598926,
        "Sequence": 43,
        "StationID": "3999"
      },
      {
        "Name": "捷運葫洲站(康寧大學)",
        "Lat": 25.07246542,
        "Lon": 121.6075013,
        "Sequence": 44,
        "StationID": "1165606698"
      },
      {
        "Name": "明湖國小(公共電視台)",
        "Lat": 25.0716328345384,
        "Lon": 121.609320074507,
        "Sequence": 45,
        "StationID": "1049"
      },
      {
        "Name": "五分社區",
        "Lat": 25.06860831,
        "Lon": 121.6144033,
        "Sequence": 46,
        "StationID": "986"
      },
      {
        "Name": "東湖國小",
        "Lat": 25.06806969,
        "Lon": 121.6165906,
        "Sequence": 47,
        "StationID": "8530"
      },
      {
        "Name": "東湖社區",
        "Lat": 25.069547,
        "Lon": 121.618788,
        "Sequence": 48,
        "StationID": "1044"
      },
      {
        "Name": "康樂街",
        "Lat": 25.07119075,
        "Lon": 121.6191996,
        "Sequence": 49,
        "StationID": "1000734"
      },
      {
        "Name": "東湖國中",
        "Lat": 25.07287274,
        "Lon": 121.6194588,
        "Sequence": 50,
        "StationID": "1000677"
      },
      {
        "Name": "五分埤",
        "Lat": 25.0761334864734,
        "Lon": 121.621188834486,
        "Sequence": 51,
        "StationID": "1000211"
      },
      {
        "Name": "康湖隧道口(白馬山莊)",
        "Lat": 25.07715,
        "Lon": 121.62288,
        "Sequence": 52,
        "StationID": "50445"
      },
      {
        "Name": "南寮(忠三街口)",
        "Lat": 25.078715,
        "Lon": 121.62361,
        "Sequence": 53,
        "StationID": "1042"
      }
    ]
  }
]