[
  {
    "Route": "兒樂2號線",
    "SubRoute": "兒童新樂園2",
    "Direction": 0,
    "Stops": [
      {
        "Name": "兒童新樂園",
        "Lat": 25.09636438,
        "Lon": 121.5146581,
        "Sequence": 1,
        "StationID": "1165603310"
      },
      {
        "Name": "福港街",
        "Lat": 25.089884,
        "Lon": 121.517833,
        "Sequence": 3,
        "StationID": "20379"
      },
      {
        "Name": "承德路四段",
        "Lat": 25.08926881,
        "Lon": 121.5204586,
        "Sequence": 4,
        "StationID": "1165610408"
      },
      {
        "Name": "大南路口",
        "Lat": 25.0885191533109,
        "Lon": 121.521560747477,
        "Sequence": 5,
        "StationID": "1000111"
      },
      {
        "Name": "捷運劍潭站(北藝中心)",
        "Lat": 25.084952,
        "Lon": 121.525031,
        "Sequence": 6,
        "StationID": "1000256"
      },
      {
        "Name": "士林市場(銘傳會館)",
        "Lat": 25.0878445553514,
        "Lon": 121.524004254885,
        "Sequence": 7,
        "StationID": "573"
      },
      {
        "Name": "公教住宅",
        "Lat": 25.090677,
        "Lon": 121.522119,
        "Sequence": 8,
        "StationID": "1000171"
      },
      {
        "Name": "士林區行政中心(基河)",
        "Lat": 25.09297967,
        "Lon": 121.5204546,
        "Sequence": 9,
        "StationID": "50628"
      },
      {
        "Name": "天文科學館",
        "Lat": 25.09549,
        "Lon": 121.51822,
        "Sequence": 10,
        "StationID": "572"
      },
      {
        "Name": "國立科教館",
        "Lat": 25.0953476878965,
        "Lon": 121.517419129378,
        "Sequence": 11,
        "StationID": "790"
      },
      {
        "Name": "兒童新樂園",
        "Lat": 25.0962474556487,
        "Lon": 121.514658137578,
        "Sequence": 12,
        "StationID": "1165603310"
      }
    ]
  }
]