[
  {
    "Route": "651",
    "SubRoute": "651假日",
    "Direction": 0,
    "Stops": [
      {
        "Name": "板橋後站",
        "Lat": 24.994077985945424,
        "Lon": 121.45956067216025,
        "Sequence": 1,
        "StationID": "1165606375"
      },
      {
        "Name": "干城路口",
        "Lat": 24.992159,
        "Lon": 121.460458,
        "Sequence": 2,
        "StationID": "3131"
      },
      {
        "Name": "廣福公園",
        "Lat": 24.991481,
        "Lon": 121.46251,
        "Sequence": 3,
        "StationID": "60010"
      },
      {
        "Name": "五權公園",
        "Lat": 24.99277,
        "Lon": 121.464927,
        "Sequence": 4,
        "StationID": "60011"
      },
      {
        "Name": "壽德街口",
        "Lat": 24.993802,
        "Lon": 121.4663395,
        "Sequence": 5,
        "StationID": "72416"
      },
      {
        "Name": "華福街口",
        "Lat": 24.9973835862678,
        "Lon": 121.468087386348,
        "Sequence": 6,
        "StationID": "1001055"
      },
      {
        "Name": "自強國小(民德路)",
        "Lat": 24.99986,
        "Lon": 121.46855,
        "Sequence": 7,
        "StationID": "50824"
      },
      {
        "Name": "民德路口",
        "Lat": 25.00154,
        "Lon": 121.46895,
        "Sequence": 8,
        "StationID": "50823"
      },
      {
        "Name": "民德路",
        "Lat": 25.003222,
        "Lon": 121.468023,
        "Sequence": 9,
        "StationID": "50822"
      },
      {
        "Name": "福德里",
        "Lat": 25.002914,
        "Lon": 121.46635,
        "Sequence": 10,
        "StationID": "1165606865"
      },
      {
        "Name": "後埔國小",
        "Lat": 25.00403,
        "Lon": 121.464285,
        "Sequence": 11,
        "StationID": "2635"
      },
      {
        "Name": "實踐成都街口",
        "Lat": 25.005869973155434,
        "Lon": 121.46393390614749,
        "Sequence": 12,
        "StationID": "1001060"
      },
      {
        "Name": "深丘里(板橋放送所)",
        "Lat": 25.0094647431906,
        "Lon": 121.465328106817,
        "Sequence": 13,
        "StationID": "14208"
      },
      {
        "Name": "新北市政府(新府路)",
        "Lat": 25.012043,
        "Lon": 121.464544,
        "Sequence": 14,
        "StationID": "2699"
      },
      {
        "Name": "新北板橋公車站",
        "Lat": 25.012813,
        "Lon": 121.462602,
        "Sequence": 15,
        "StationID": "70717"
      },
      {
        "Name": "新北市政府(中山路)",
        "Lat": 25.01269,
        "Lon": 121.46755,
        "Sequence": 16,
        "StationID": "6200"
      },
      {
        "Name": "中山漢生路口",
        "Lat": 25.014344,
        "Lon": 121.471041,
        "Sequence": 17,
        "StationID": "2606"
      },
      {
        "Name": "西安里",
        "Lat": 25.01497569,
        "Lon": 121.4724073,
        "Sequence": 18,
        "StationID": "2594"
      },
      {
        "Name": "民生中山路口",
        "Lat": 25.01501499,
        "Lon": 121.4740357,
        "Sequence": 19,
        "StationID": "2560"
      },
      {
        "Name": "玉光里",
        "Lat": 25.016673,
        "Lon": 121.473016,
        "Sequence": 20,
        "StationID": "2584"
      },
      {
        "Name": "民生路橋",
        "Lat": 25.01795,
        "Lon": 121.47202,
        "Sequence": 21,
        "StationID": "2577"
      },
      {
        "Name": "莊敬公園",
        "Lat": 25.02077,
        "Lon": 121.4705,
        "Sequence": 22,
        "StationID": "60030"
      },
      {
        "Name": "勞工大學",
        "Lat": 25.022968,
        "Lon": 121.472195,
        "Sequence": 23,
        "StationID": "4766"
      },
      {
        "Name": "八德公園",
        "Lat": 25.0233647,
        "Lon": 121.4750226,
        "Sequence": 24,
        "StationID": "2554"
      },
      {
        "Name": "雙十路口",
        "Lat": 25.02510475,
        "Lon": 121.4779471,
        "Sequence": 25,
        "StationID": "2708"
      },
      {
        "Name": "環南市場(西藏)",
        "Lat": 25.028426,
        "Lon": 121.493132,
        "Sequence": 26,
        "StationID": "1837"
      },
      {
        "Name": "華江高中(西園)",
        "Lat": 25.0295844111411,
        "Lon": 121.496162828269,
        "Sequence": 27,
        "StationID": "4627"
      },
      {
        "Name": "西園29服飾基地",
        "Lat": 25.03244,
        "Lon": 121.497718,
        "Sequence": 28,
        "StationID": "4628"
      },
      {
        "Name": "大理服飾",
        "Lat": 25.034147,
        "Lon": 121.498768,
        "Sequence": 29,
        "StationID": "4626"
      },
      {
        "Name": "捷運龍山寺站",
        "Lat": 25.035143,
        "Lon": 121.500164,
        "Sequence": 30,
        "StationID": "1794"
      },
      {
        "Name": "龍山國中",
        "Lat": 25.03563,
        "Lon": 121.50409,
        "Sequence": 31,
        "StationID": "1165606056"
      },
      {
        "Name": "小南門",
        "Lat": 25.03821366,
        "Lon": 121.5073666,
        "Sequence": 32,
        "StationID": "50691"
      },
      {
        "Name": "捷運西門站",
        "Lat": 25.0409460489424,
        "Lon": 121.508219187662,
        "Sequence": 33,
        "StationID": "50040"
      },
      {
        "Name": "寶慶路",
        "Lat": 25.0414915346214,
        "Lon": 121.509834083745,
        "Sequence": 34,
        "StationID": "2027"
      },
      {
        "Name": "衡陽路口",
        "Lat": 25.042018,
        "Lon": 121.5132,
        "Sequence": 35,
        "StationID": "6685"
      },
      {
        "Name": "博物館(襄陽)",
        "Lat": 25.0433393370677,
        "Lon": 121.51572629465,
        "Sequence": 36,
        "StationID": "1165603382"
      },
      {
        "Name": "捷運台大醫院站",
        "Lat": 25.0419357569938,
        "Lon": 121.516148167061,
        "Sequence": 37,
        "StationID": "1994"
      },
      {
        "Name": "仁愛中山路口",
        "Lat": 25.03926197,
        "Lon": 121.5183669,
        "Sequence": 38,
        "StationID": "1860"
      },
      {
        "Name": "仁愛林森路口",
        "Lat": 25.03876925,
        "Lon": 121.5213453,
        "Sequence": 39,
        "StationID": "6942"
      },
      {
        "Name": "仁愛紹興街口",
        "Lat": 25.0384529,
        "Lon": 121.5235878,
        "Sequence": 40,
        "StationID": "1868"
      },
      {
        "Name": "仁愛臨沂街口",
        "Lat": 25.03821895,
        "Lon": 121.5280453,
        "Sequence": 41,
        "StationID": "2216"
      },
      {
        "Name": "仁愛新生路口",
        "Lat": 25.038163002655,
        "Lon": 121.532402806246,
        "Sequence": 42,
        "StationID": "2214"
      },
      {
        "Name": "幸安國小",
        "Lat": 25.03804468,
        "Lon": 121.5343357,
        "Sequence": 43,
        "StationID": "75"
      },
      {
        "Name": "仁愛建國路口一",
        "Lat": 25.0380314055468,
        "Lon": 121.537072110796,
        "Sequence": 44,
        "StationID": "1867"
      },
      {
        "Name": "仁愛建國路口二",
        "Lat": 25.03796159361127,
        "Lon": 121.54077520473633,
        "Sequence": 45,
        "StationID": "2205"
      },
      {
        "Name": "仁愛復興路口(福華飯店)",
        "Lat": 25.037854,
        "Lon": 121.543165,
        "Sequence": 46,
        "StationID": "1165604754"
      },
      {
        "Name": "仁愛大安路口(仁愛醫院)",
        "Lat": 25.03784,
        "Lon": 121.545738,
        "Sequence": 47,
        "StationID": "1000138"
      },
      {
        "Name": "仁愛敦化路口(圓環)",
        "Lat": 25.03778353,
        "Lon": 121.5476903,
        "Sequence": 48,
        "StationID": "1201"
      },
      {
        "Name": "仁愛安和路口",
        "Lat": 25.0377212341364,
        "Lon": 121.550883391345,
        "Sequence": 49,
        "StationID": "1863"
      },
      {
        "Name": "仁愛國泰醫院",
        "Lat": 25.037669,
        "Lon": 121.552717,
        "Sequence": 50,
        "StationID": "2305"
      },
      {
        "Name": "仁愛延吉街口",
        "Lat": 25.0376217119559,
        "Lon": 121.555234376148,
        "Sequence": 51,
        "StationID": "1864"
      },
      {
        "Name": "仁愛光復路口",
        "Lat": 25.03754,
        "Lon": 121.55728,
        "Sequence": 52,
        "StationID": "1862"
      },
      {
        "Name": "國父紀念館",
        "Lat": 25.037543,
        "Lon": 121.56118,
        "Sequence": 53,
        "StationID": "6921"
      },
      {
        "Name": "興雅國中",
        "Lat": 25.0372323905063,
        "Lon": 121.568268559011,
        "Sequence": 54,
        "StationID": "2179"
      },
      {
        "Name": "松壽路口",
        "Lat": 25.0358810435418,
        "Lon": 121.566640146973,
        "Sequence": 55,
        "StationID": "2070"
      },
      {
        "Name": "市政府(松壽)",
        "Lat": 25.035992,
        "Lon": 121.564528,
        "Sequence": 56,
        "StationID": "2067"
      }
    ]
  },
  {
    "Route": "651",
    "SubRoute": "651假日",
    "Direction": 1,
    "Stops": [
      {
        "Name": "市議會",
        "Lat": 25.0370286899675,
        "Lon": 121.562097736356,
        "Sequence": 1,
        "StationID": "2072"
      },
      {
        "Name": "國父紀念館",
        "Lat": 25.03768543,
        "Lon": 121.5609264,
        "Sequence": 2,
        "StationID": "6922"
      },
      {
        "Name": "仁愛光復路口",
        "Lat": 25.0377,
        "Lon": 121.55781,
        "Sequence": 3,
        "StationID": "6923"
      },
      {
        "Name": "仁愛延吉街口",
        "Lat": 25.0377743210687,
        "Lon": 121.555779394717,
        "Sequence": 4,
        "StationID": "6926"
      },
      {
        "Name": "仁愛國泰醫院",
        "Lat": 25.0378288007837,
        "Lon": 121.553215911831,
        "Sequence": 5,
        "StationID": "6925"
      },
      {
        "Name": "仁愛安和路口",
        "Lat": 25.03796,
        "Lon": 121.55181,
        "Sequence": 6,
        "StationID": "6924"
      },
      {
        "Name": "仁愛敦化路口(圓環)",
        "Lat": 25.03801348,
        "Lon": 121.5472892,
        "Sequence": 7,
        "StationID": "6919"
      },
      {
        "Name": "仁愛復興路口(福華飯店)",
        "Lat": 25.03806,
        "Lon": 121.544071,
        "Sequence": 8,
        "StationID": "1869"
      },
      {
        "Name": "仁愛建國路口一",
        "Lat": 25.038167764865,
        "Lon": 121.53942763922,
        "Sequence": 9,
        "StationID": "2204"
      },
      {
        "Name": "幸安國小",
        "Lat": 25.0382385066713,
        "Lon": 121.534337688959,
        "Sequence": 10,
        "StationID": "1202"
      },
      {
        "Name": "仁愛新生路口",
        "Lat": 25.03824508,
        "Lon": 121.5331329,
        "Sequence": 11,
        "StationID": "1165603230"
      },
      {
        "Name": "仁愛臨沂街口",
        "Lat": 25.03829306,
        "Lon": 121.5295416,
        "Sequence": 12,
        "StationID": "1872"
      },
      {
        "Name": "仁愛杭州路口",
        "Lat": 25.03835233,
        "Lon": 121.5254546,
        "Sequence": 13,
        "StationID": "1865"
      },
      {
        "Name": "仁愛林森路口",
        "Lat": 25.03891262,
        "Lon": 121.5211551,
        "Sequence": 14,
        "StationID": "6943"
      },
      {
        "Name": "仁愛中山路口",
        "Lat": 25.03912915,
        "Lon": 121.5184523,
        "Sequence": 15,
        "StationID": "1861"
      },
      {
        "Name": "捷運台大醫院站",
        "Lat": 25.04192722,
        "Lon": 121.5163535,
        "Sequence": 16,
        "StationID": "1993"
      },
      {
        "Name": "博物館(襄陽)",
        "Lat": 25.0434538159783,
        "Lon": 121.515494267729,
        "Sequence": 17,
        "StationID": "6687"
      },
      {
        "Name": "衡陽路口",
        "Lat": 25.042568,
        "Lon": 121.513172,
        "Sequence": 18,
        "StationID": "6686"
      },
      {
        "Name": "衡陽路",
        "Lat": 25.0423,
        "Lon": 121.51088,
        "Sequence": 19,
        "StationID": "2020"
      },
      {
        "Name": "捷運西門站",
        "Lat": 25.041649236993,
        "Lon": 121.507887356667,
        "Sequence": 20,
        "StationID": "4608"
      },
      {
        "Name": "小南門",
        "Lat": 25.0380081419194,
        "Lon": 121.506812536211,
        "Sequence": 21,
        "StationID": "1975"
      },
      {
        "Name": "龍山國中",
        "Lat": 25.03584463,
        "Lon": 121.5038948,
        "Sequence": 22,
        "StationID": "1835"
      },
      {
        "Name": "捷運龍山寺站",
        "Lat": 25.035369,
        "Lon": 121.500584,
        "Sequence": 23,
        "StationID": "3911"
      },
      {
        "Name": "大理服飾",
        "Lat": 25.034146,
        "Lon": 121.498448,
        "Sequence": 24,
        "StationID": "1738"
      },
      {
        "Name": "西園29服飾基地",
        "Lat": 25.03244,
        "Lon": 121.49746,
        "Sequence": 25,
        "StationID": "1825"
      },
      {
        "Name": "華江高中(西園)",
        "Lat": 25.0296582647227,
        "Lon": 121.495950804601,
        "Sequence": 26,
        "StationID": "1804"
      },
      {
        "Name": "環南市場(西藏)",
        "Lat": 25.028698,
        "Lon": 121.493015,
        "Sequence": 27,
        "StationID": "4633"
      },
      {
        "Name": "雙十路口",
        "Lat": 25.02546678,
        "Lon": 121.4776891,
        "Sequence": 28,
        "StationID": "4768"
      },
      {
        "Name": "八德公園",
        "Lat": 25.023557,
        "Lon": 121.475017,
        "Sequence": 29,
        "StationID": "60032"
      },
      {
        "Name": "勞工大學",
        "Lat": 25.023576,
        "Lon": 121.473584,
        "Sequence": 30,
        "StationID": "4767"
      },
      {
        "Name": "中山公園",
        "Lat": 25.0229182015549,
        "Lon": 121.471805766359,
        "Sequence": 31,
        "StationID": "4876"
      },
      {
        "Name": "莊敬公園",
        "Lat": 25.02094205,
        "Lon": 121.470401,
        "Sequence": 32,
        "StationID": "2664"
      },
      {
        "Name": "民生路橋",
        "Lat": 25.017445,
        "Lon": 121.471608,
        "Sequence": 33,
        "StationID": "1001059"
      },
      {
        "Name": "西安里",
        "Lat": 25.015119,
        "Lon": 121.47229,
        "Sequence": 34,
        "StationID": "14201"
      },
      {
        "Name": "中山漢生路口",
        "Lat": 25.014023,
        "Lon": 121.470005,
        "Sequence": 35,
        "StationID": "6198"
      },
      {
        "Name": "新北市政府(中山路)",
        "Lat": 25.012734,
        "Lon": 121.46719,
        "Sequence": 36,
        "StationID": "6199"
      },
      {
        "Name": "新北板橋公車站",
        "Lat": 25.012769,
        "Lon": 121.46261,
        "Sequence": 37,
        "StationID": "2673"
      },
      {
        "Name": "新北市政府(新府路)",
        "Lat": 25.0118568,
        "Lon": 121.4643742,
        "Sequence": 38,
        "StationID": "2700"
      },
      {
        "Name": "深丘里(板橋放送所)",
        "Lat": 25.009624,
        "Lon": 121.465209,
        "Sequence": 39,
        "StationID": "14209"
      },
      {
        "Name": "實踐成都街口",
        "Lat": 25.005813340145494,
        "Lon": 121.4638419943008,
        "Sequence": 40,
        "StationID": "2680"
      },
      {
        "Name": "後埔國小",
        "Lat": 25.003585,
        "Lon": 121.464213,
        "Sequence": 41,
        "StationID": "60015"
      },
      {
        "Name": "福德里",
        "Lat": 25.002705,
        "Lon": 121.465771,
        "Sequence": 42,
        "StationID": "1165606864"
      },
      {
        "Name": "民德路",
        "Lat": 25.003209,
        "Lon": 121.468199,
        "Sequence": 43,
        "StationID": "3091"
      },
      {
        "Name": "民德路口",
        "Lat": 25.002053,
        "Lon": 121.46875,
        "Sequence": 44,
        "StationID": "3092"
      },
      {
        "Name": "自強國小(民德路)",
        "Lat": 24.99984,
        "Lon": 121.46864,
        "Sequence": 45,
        "StationID": "3098"
      },
      {
        "Name": "華福街口",
        "Lat": 24.99723486,
        "Lon": 121.4678927,
        "Sequence": 46,
        "StationID": "3149"
      },
      {
        "Name": "壽德街口",
        "Lat": 24.99467,
        "Lon": 121.4669,
        "Sequence": 47,
        "StationID": "3153"
      },
      {
        "Name": "五權公園",
        "Lat": 24.992745,
        "Lon": 121.464571,
        "Sequence": 48,
        "StationID": "2568"
      },
      {
        "Name": "廣福公園",
        "Lat": 24.99182614,
        "Lon": 121.4628264,
        "Sequence": 49,
        "StationID": "2694"
      },
      {
        "Name": "干城路口",
        "Lat": 24.992198,
        "Lon": 121.460644,
        "Sequence": 50,
        "StationID": "3030"
      },
      {
        "Name": "板橋後站",
        "Lat": 24.99400354256151,
        "Lon": 121.45973879089169,
        "Sequence": 51,
        "StationID": "1165606376"
      }
    ]
  },
  {
    "Route": "651",
    "SubRoute": "651",
    "Direction": 0,
    "Stops": [
      {
        "Name": "板橋後站",
        "Lat": 24.994077985945424,
        "Lon": 121.45956067216025,
        "Sequence": 1,
        "StationID": "1165606375"
      },
      {
        "Name": "干城路口",
        "Lat": 24.992159,
        "Lon": 121.460458,
        "Sequence": 2,
        "StationID": "3131"
      },
      {
        "Name": "廣福公園",
        "Lat": 24.991481,
        "Lon": 121.46251,
        "Sequence": 3,
        "StationID": "60010"
      },
      {
        "Name": "五權公園",
        "Lat": 24.99277,
        "Lon": 121.464927,
        "Sequence": 4,
        "StationID": "60011"
      },
      {
        "Name": "壽德街口",
        "Lat": 24.993802,
        "Lon": 121.4663395,
        "Sequence": 5,
        "StationID": "72416"
      },
      {
        "Name": "華福街口",
        "Lat": 24.9973835862678,
        "Lon": 121.468087386348,
        "Sequence": 6,
        "StationID": "1001055"
      },
      {
        "Name": "自強國小(民德路)",
        "Lat": 24.99986,
        "Lon": 121.46855,
        "Sequence": 7,
        "StationID": "50824"
      },
      {
        "Name": "民德路口",
        "Lat": 25.00154,
        "Lon": 121.46895,
        "Sequence": 8,
        "StationID": "50823"
      },
      {
        "Name": "民德路",
        "Lat": 25.003222,
        "Lon": 121.468023,
        "Sequence": 9,
        "StationID": "50822"
      },
      {
        "Name": "福德里",
        "Lat": 25.002914,
        "Lon": 121.46635,
        "Sequence": 10,
        "StationID": "1165606865"
      },
      {
        "Name": "後埔國小",
        "Lat": 25.00403,
        "Lon": 121.464285,
        "Sequence": 11,
        "StationID": "2635"
      },
      {
        "Name": "實踐成都街口",
        "Lat": 25.005869973155434,
        "Lon": 121.46393390614749,
        "Sequence": 12,
        "StationID": "1001060"
      },
      {
        "Name": "深丘里(板橋放送所)",
        "Lat": 25.0094647431906,
        "Lon": 121.465328106817,
        "Sequence": 13,
        "StationID": "14208"
      },
      {
        "Name": "新北市政府(新府路)",
        "Lat": 25.012043,
        "Lon": 121.464544,
        "Sequence": 14,
        "StationID": "2699"
      },
      {
        "Name": "新北板橋公車站",
        "Lat": 25.012813,
        "Lon": 121.462602,
        "Sequence": 15,
        "StationID": "70717"
      },
      {
        "Name": "新北市政府(中山路)",
        "Lat": 25.01269,
        "Lon": 121.46755,
        "Sequence": 16,
        "StationID": "6200"
      },
      {
        "Name": "中山漢生路口",
        "Lat": 25.014344,
        "Lon": 121.471041,
        "Sequence": 17,
        "StationID": "2606"
      },
      {
        "Name": "西安里",
        "Lat": 25.01497569,
        "Lon": 121.4724073,
        "Sequence": 18,
        "StationID": "2594"
      },
      {
        "Name": "民生中山路口",
        "Lat": 25.01501499,
        "Lon": 121.4740357,
        "Sequence": 19,
        "StationID": "2560"
      },
      {
        "Name": "玉光里",
        "Lat": 25.016673,
        "Lon": 121.473016,
        "Sequence": 20,
        "StationID": "2584"
      },
      {
        "Name": "民生路橋",
        "Lat": 25.01795,
        "Lon": 121.47202,
        "Sequence": 21,
        "StationID": "2577"
      },
      {
        "Name": "莊敬公園",
        "Lat": 25.02077,
        "Lon": 121.4705,
        "Sequence": 22,
        "StationID": "60030"
      },
      {
        "Name": "勞工大學",
        "Lat": 25.022968,
        "Lon": 121.472195,
        "Sequence": 23,
        "StationID": "4766"
      },
      {
        "Name": "八德公園",
        "Lat": 25.0233647,
        "Lon": 121.4750226,
        "Sequence": 24,
        "StationID": "2554"
      },
      {
        "Name": "雙十路口",
        "Lat": 25.02510475,
        "Lon": 121.4779471,
        "Sequence": 25,
        "StationID": "2708"
      },
      {
        "Name": "環南市場(西藏)",
        "Lat": 25.028426,
        "Lon": 121.493132,
        "Sequence": 26,
        "StationID": "1837"
      },
      {
        "Name": "華江高中(西園)",
        "Lat": 25.0295844111411,
        "Lon": 121.496162828269,
        "Sequence": 27,
        "StationID": "4627"
      },
      {
        "Name": "西園29服飾基地",
        "Lat": 25.03244,
        "Lon": 121.497718,
        "Sequence": 28,
        "StationID": "4628"
      },
      {
        "Name": "大理服飾",
        "Lat": 25.034147,
        "Lon": 121.498768,
        "Sequence": 29,
        "StationID": "4626"
      },
      {
        "Name": "捷運龍山寺站",
        "Lat": 25.035143,
        "Lon": 121.500164,
        "Sequence": 30,
        "StationID": "1794"
      },
      {
        "Name": "龍山國中",
        "Lat": 25.03563,
        "Lon": 121.50409,
        "Sequence": 31,
        "StationID": "1165606056"
      },
      {
        "Name": "小南門",
        "Lat": 25.03821366,
        "Lon": 121.5073666,
        "Sequence": 32,
        "StationID": "50691"
      },
      {
        "Name": "捷運西門站",
        "Lat": 25.0409460489424,
        "Lon": 121.508219187662,
        "Sequence": 33,
        "StationID": "50040"
      },
      {
        "Name": "寶慶路",
        "Lat": 25.0414915346214,
        "Lon": 121.509834083745,
        "Sequence": 34,
        "StationID": "2027"
      },
      {
        "Name": "衡陽路口",
        "Lat": 25.042018,
        "Lon": 121.5132,
        "Sequence": 35,
        "StationID": "6685"
      },
      {
        "Name": "博物館(襄陽)",
        "Lat": 25.0433393370677,
        "Lon": 121.51572629465,
        "Sequence": 36,
        "StationID": "1165603382"
      },
      {
        "Name": "捷運台大醫院站",
        "Lat": 25.0419357569938,
        "Lon": 121.516148167061,
        "Sequence": 37,
        "StationID": "1994"
      },
      {
        "Name": "仁愛中山路口",
        "Lat": 25.03926197,
        "Lon": 121.5183669,
        "Sequence": 38,
        "StationID": "1860"
      },
      {
        "Name": "仁愛林森路口",
        "Lat": 25.03876925,
        "Lon": 121.5213453,
        "Sequence": 39,
        "StationID": "6942"
      },
      {
        "Name": "仁愛紹興街口",
        "Lat": 25.0384529,
        "Lon": 121.5235878,
        "Sequence": 40,
        "StationID": "1868"
      },
      {
        "Name": "仁愛臨沂街口",
        "Lat": 25.03821895,
        "Lon": 121.5280453,
        "Sequence": 41,
        "StationID": "2216"
      },
      {
        "Name": "仁愛新生路口",
        "Lat": 25.038163002655,
        "Lon": 121.532402806246,
        "Sequence": 42,
        "StationID": "2214"
      },
      {
        "Name": "幸安國小",
        "Lat": 25.03804468,
        "Lon": 121.5343357,
        "Sequence": 43,
        "StationID": "75"
      },
      {
        "Name": "仁愛建國路口一",
        "Lat": 25.0380314055468,
        "Lon": 121.537072110796,
        "Sequence": 44,
        "StationID": "1867"
      },
      {
        "Name": "仁愛建國路口二",
        "Lat": 25.03796159361127,
        "Lon": 121.54077520473633,
        "Sequence": 45,
        "StationID": "2205"
      },
      {
        "Name": "仁愛復興路口(福華飯店)",
        "Lat": 25.037854,
        "Lon": 121.543165,
        "Sequence": 46,
        "StationID": "1165604754"
      },
      {
        "Name": "仁愛大安路口(仁愛醫院)",
        "Lat": 25.03784,
        "Lon": 121.545738,
        "Sequence": 47,
        "StationID": "1000138"
      },
      {
        "Name": "仁愛敦化路口(圓環)",
        "Lat": 25.03778353,
        "Lon": 121.5476903,
        "Sequence": 48,
        "StationID": "1201"
      },
      {
        "Name": "仁愛安和路口",
        "Lat": 25.0377212341364,
        "Lon": 121.550883391345,
        "Sequence": 49,
        "StationID": "1863"
      },
      {
        "Name": "仁愛國泰醫院",
        "Lat": 25.037669,
        "Lon": 121.552717,
        "Sequence": 50,
        "StationID": "2305"
      },
      {
        "Name": "仁愛延吉街口",
        "Lat": 25.0376217119559,
        "Lon": 121.555234376148,
        "Sequence": 51,
        "StationID": "1864"
      },
      {
        "Name": "仁愛光復路口",
        "Lat": 25.03754,
        "Lon": 121.55728,
        "Sequence": 52,
        "StationID": "1862"
      },
      {
        "Name": "國父紀念館",
        "Lat": 25.037543,
        "Lon": 121.56118,
        "Sequence": 53,
        "StationID": "6921"
      },
      {
        "Name": "市政府(市府)",
        "Lat": 25.038332,
        "Lon": 121.563754,
        "Sequence": 54,
        "StationID": "2063"
      },
      {
        "Name": "興雅國中",
        "Lat": 25.0372323905063,
        "Lon": 121.568268559011,
        "Sequence": 55,
        "StationID": "2179"
      },
      {
        "Name": "松壽路口",
        "Lat": 25.0358810435418,
        "Lon": 121.566640146973,
        "Sequence": 56,
        "StationID": "2070"
      },
      {
        "Name": "市政府(松壽)",
        "Lat": 25.035992,
        "Lon": 121.564528,
        "Sequence": 57,
        "StationID": "2067"
      }
    ]
  },
  {
    "Route": "651",
    "SubRoute": "651",
    "Direction": 1,
    "Stops": [
      {
        "Name": "市議會",
        "Lat": 25.0370286899675,
        "Lon": 121.562097736356,
        "Sequence": 1,
        "StationID": "2072"
      },
      {
        "Name": "國父紀念館",
        "Lat": 25.03768543,
        "Lon": 121.5609264,
        "Sequence": 2,
        "StationID": "6922"
      },
      {
        "Name": "仁愛光復路口",
        "Lat": 25.0377,
        "Lon": 121.55781,
        "Sequence": 3,
        "StationID": "6923"
      },
      {
        "Name": "仁愛延吉街口",
        "Lat": 25.0377743210687,
        "Lon": 121.555779394717,
        "Sequence": 4,
        "StationID": "6926"
      },
      {
        "Name": "仁愛國泰醫院",
        "Lat": 25.0378288007837,
        "Lon": 121.553215911831,
        "Sequence": 5,
        "StationID": "6925"
      },
      {
        "Name": "仁愛安和路口",
        "Lat": 25.03796,
        "Lon": 121.55181,
        "Sequence": 6,
        "StationID": "6924"
      },
      {
        "Name": "仁愛敦化路口(圓環)",
        "Lat": 25.03801348,
        "Lon": 121.5472892,
        "Sequence": 7,
        "StationID": "6919"
      },
      {
        "Name": "仁愛復興路口(福華飯店)",
        "Lat": 25.03806,
        "Lon": 121.544071,
        "Sequence": 8,
        "StationID": "1869"
      },
      {
        "Name": "仁愛建國路口一",
        "Lat": 25.038167764865,
        "Lon": 121.53942763922,
        "Sequence": 9,
        "StationID": "2204"
      },
      {
        "Name": "幸安國小",
        "Lat": 25.0382385066713,
        "Lon": 121.534337688959,
        "Sequence": 10,
        "StationID": "1202"
      },
      {
        "Name": "仁愛新生路口",
        "Lat": 25.03824508,
        "Lon": 121.5331329,
        "Sequence": 11,
        "StationID": "1165603230"
      },
      {
        "Name": "仁愛臨沂街口",
        "Lat": 25.03829306,
        "Lon": 121.5295416,
        "Sequence": 12,
        "StationID": "1872"
      },
      {
        "Name": "仁愛杭州路口",
        "Lat": 25.03835233,
        "Lon": 121.5254546,
        "Sequence": 13,
        "StationID": "1865"
      },
      {
        "Name": "仁愛林森路口",
        "Lat": 25.03891262,
        "Lon": 121.5211551,
        "Sequence": 14,
        "StationID": "6943"
      },
      {
        "Name": "仁愛中山路口",
        "Lat": 25.03912915,
        "Lon": 121.5184523,
        "Sequence": 15,
        "StationID": "1861"
      },
      {
        "Name": "捷運台大醫院站",
        "Lat": 25.04192722,
        "Lon": 121.5163535,
        "Sequence": 16,
        "StationID": "1993"
      },
      {
        "Name": "博物館(襄陽)",
        "Lat": 25.0434538159783,
        "Lon": 121.515494267729,
        "Sequence": 17,
        "StationID": "6687"
      },
      {
        "Name": "衡陽路口",
        "Lat": 25.042568,
        "Lon": 121.513172,
        "Sequence": 18,
        "StationID": "6686"
      },
      {
        "Name": "衡陽路",
        "Lat": 25.0423,
        "Lon": 121.51088,
        "Sequence": 19,
        "StationID": "2020"
      },
      {
        "Name": "捷運西門站",
        "Lat": 25.041649236993,
        "Lon": 121.507887356667,
        "Sequence": 20,
        "StationID": "4608"
      },
      {
        "Name": "小南門",
        "Lat": 25.0380081419194,
        "Lon": 121.506812536211,
        "Sequence": 21,
        "StationID": "1975"
      },
      {
        "Name": "龍山國中",
        "Lat": 25.03584463,
        "Lon": 121.5038948,
        "Sequence": 22,
        "StationID": "1835"
      },
      {
        "Name": "捷運龍山寺站",
        "Lat": 25.035369,
        "Lon": 121.500584,
        "Sequence": 23,
        "StationID": "3911"
      },
      {
        "Name": "大理服飾",
        "Lat": 25.034146,
        "Lon": 121.498448,
        "Sequence": 24,
        "StationID": "1738"
      },
      {
        "Name": "西園29服飾基地",
        "Lat": 25.03244,
        "Lon": 121.49746,
        "Sequence": 25,
        "StationID": "1825"
      },
      {
        "Name": "華江高中(西園)",
        "Lat": 25.0296582647227,
        "Lon": 121.495950804601,
        "Sequence": 26,
        "StationID": "1804"
      },
      {
        "Name": "環南市場(西藏)",
        "Lat": 25.028698,
        "Lon": 121.493015,
        "Sequence": 27,
        "StationID": "4633"
      },
      {
        "Name": "雙十路口",
        "Lat": 25.02546678,
        "Lon": 121.4776891,
        "Sequence": 28,
        "StationID": "4768"
      },
      {
        "Name": "八德公園",
        "Lat": 25.023557,
        "Lon": 121.475017,
        "Sequence": 29,
        "StationID": "60032"
      },
      {
        "Name": "勞工大學",
        "Lat": 25.023576,
        "Lon": 121.473584,
        "Sequence": 30,
        "StationID": "4767"
      },
      {
        "Name": "中山公園",
        "Lat": 25.0229182015549,
        "Lon": 121.471805766359,
        "Sequence": 31,
        "StationID": "4876"
      },
      {
        "Name": "莊敬公園",
        "Lat": 25.02094205,
        "Lon": 121.470401,
        "Sequence": 32,
        "StationID": "2664"
      },
      {
        "Name": "民生路橋",
        "Lat": 25.017445,
        "Lon": 121.471608,
        "Sequence": 33,
        "StationID": "1001059"
      },
      {
        "Name": "西安里",
        "Lat": 25.015119,
        "Lon": 121.47229,
        "Sequence": 34,
        "StationID": "14201"
      },
      {
        "Name": "中山漢生路口",
        "Lat": 25.014023,
        "Lon": 121.470005,
        "Sequence": 35,
        "StationID": "6198"
      },
      {
        "Name": "新北市政府(中山路)",
        "Lat": 25.012734,
        "Lon": 121.46719,
        "Sequence": 36,
        "StationID": "6199"
      },
      {
        "Name": "新北板橋公車站",
        "Lat": 25.012769,
        "Lon": 121.46261,
        "Sequence": 37,
        "StationID": "2673"
      },
      {
        "Name": "新北市政府(新府路)",
        "Lat": 25.0118568,
        "Lon": 121.4643742,
        "Sequence": 38,
        "StationID": "2700"
      },
      {
        "Name": "深丘里(板橋放送所)",
        "Lat": 25.009624,
        "Lon": 121.465209,
        "Sequence": 39,
        "StationID": "14209"
      },
      {
        "Name": "實踐成都街口",
        "Lat": 25.005813340145494,
        "Lon": 121.4638419943008,
        "Sequence": 40,
        "StationID": "2680"
      },
      {
        "Name": "後埔國小",
        "Lat": 25.003585,
        "Lon": 121.464213,
        "Sequence": 41,
        "StationID": "60015"
      },
      {
        "Name": "福德里",
        "Lat": 25.002705,
        "Lon": 121.465771,
        "Sequence": 42,
        "StationID": "1165606864"
      },
      {
        "Name": "民德路",
        "Lat": 25.003209,
        "Lon": 121.468199,
        "Sequence": 43,
        "StationID": "3091"
      },
      {
        "Name": "民德路口",
        "Lat": 25.002053,
        "Lon": 121.46875,
        "Sequence": 44,
        "StationID": "3092"
      },
      {
        "Name": "自強國小(民德路)",
        "Lat": 24.99984,
        "Lon": 121.46864,
        "Sequence": 45,
        "StationID": "3098"
      },
      {
        "Name": "華福街口",
        "Lat": 24.99723486,
        "Lon": 121.4678927,
        "Sequence": 46,
        "StationID": "3149"
      },
      {
        "Name": "壽德街口",
        "Lat": 24.99467,
        "Lon": 121.4669,
        "Sequence": 47,
        "StationID": "3153"
      },
      {
        "Name": "五權公園",
        "Lat": 24.992745,
        "Lon": 121.464571,
        "Sequence": 48,
        "StationID": "2568"
      },
      {
        "Name": "廣福公園",
        "Lat": 24.99182614,
        "Lon": 121.4628264,
        "Sequence": 49,
        "StationID": "2694"
      },
      {
        "Name": "干城路口",
        "Lat": 24.992198,
        "Lon": 121.460644,
        "Sequence": 50,
        "StationID": "3030"
      },
      {
        "Name": "板橋後站",
        "Lat": 24.99400354256151,
        "Lon": 121.45973879089169,
        "Sequence": 51,
        "StationID": "1165606376"
      }
    ]
  }
]