[
  {
    "Route": "261預",
    "SubRoute": "261預",
    "Direction": 0,
    "Stops": [
      {
        "Name": "蘆洲總站",
        "Lat": 25.090152,
        "Lon": 121.465175,
        "Sequence": 1,
        "StationID": "1165605965"
      },
      {
        "Name": "捷運蘆洲站",
        "Lat": 25.09079,
        "Lon": 121.465126,
        "Sequence": 2,
        "StationID": "3487"
      },
      {
        "Name": "民族路口",
        "Lat": 25.089515678208,
        "Lon": 121.46813918097,
        "Sequence": 3,
        "StationID": "3647"
      },
      {
        "Name": "空中大學(三民路)",
        "Lat": 25.08807,
        "Lon": 121.46984,
        "Sequence": 4,
        "StationID": "15077"
      },
      {
        "Name": "捷運三民高中站",
        "Lat": 25.086159,
        "Lon": 121.472179,
        "Sequence": 5,
        "StationID": "3681"
      },
      {
        "Name": "蘆洲區公所",
        "Lat": 25.084575,
        "Lon": 121.474196,
        "Sequence": 6,
        "StationID": "74362"
      },
      {
        "Name": "鷺江國小(三民路)",
        "Lat": 25.082946,
        "Lon": 121.475381,
        "Sequence": 7,
        "StationID": "3700"
      },
      {
        "Name": "中山一路",
        "Lat": 25.080837,
        "Lon": 121.47348,
        "Sequence": 8,
        "StationID": "50418"
      },
      {
        "Name": "民生街口",
        "Lat": 25.07961,
        "Lon": 121.47182,
        "Sequence": 9,
        "StationID": "20385"
      },
      {
        "Name": "大同新村",
        "Lat": 25.0751848083815,
        "Lon": 121.467915780225,
        "Sequence": 10,
        "StationID": "15090"
      },
      {
        "Name": "褒仔寮",
        "Lat": 25.07235,
        "Lon": 121.468721,
        "Sequence": 11,
        "StationID": "3687"
      },
      {
        "Name": "穀保家商",
        "Lat": 25.0720737220282,
        "Lon": 121.470692510068,
        "Sequence": 12,
        "StationID": "10615"
      },
      {
        "Name": "仙公廟",
        "Lat": 25.071403,
        "Lon": 121.473752,
        "Sequence": 13,
        "StationID": "3421"
      },
      {
        "Name": "博愛新村(三民街)",
        "Lat": 25.069312,
        "Lon": 121.476744,
        "Sequence": 14,
        "StationID": "3453"
      },
      {
        "Name": "三重商工(三民街)",
        "Lat": 25.067757,
        "Lon": 121.479518,
        "Sequence": 15,
        "StationID": "3400"
      },
      {
        "Name": "東海中學",
        "Lat": 25.065398,
        "Lon": 121.482301,
        "Sequence": 16,
        "StationID": "10625"
      },
      {
        "Name": "三民街",
        "Lat": 25.06332591,
        "Lon": 121.485128,
        "Sequence": 17,
        "StationID": "3386"
      },
      {
        "Name": "新北大道路口",
        "Lat": 25.063061,
        "Lon": 121.48724,
        "Sequence": 18,
        "StationID": "10475"
      },
      {
        "Name": "修德國小",
        "Lat": 25.0670131,
        "Lon": 121.489458,
        "Sequence": 19,
        "StationID": "10476"
      },
      {
        "Name": "大智街口",
        "Lat": 25.0704530835803,
        "Lon": 121.492136594352,
        "Sequence": 20,
        "StationID": "10470"
      },
      {
        "Name": "介壽廣場",
        "Lat": 25.071369,
        "Lon": 121.49367,
        "Sequence": 21,
        "StationID": "10611"
      },
      {
        "Name": "龍門路口",
        "Lat": 25.070603,
        "Lon": 121.494692,
        "Sequence": 22,
        "StationID": "1165605415"
      },
      {
        "Name": "三安里",
        "Lat": 25.068994,
        "Lon": 121.495798,
        "Sequence": 23,
        "StationID": "10601"
      },
      {
        "Name": "長壽西街口",
        "Lat": 25.067022,
        "Lon": 121.49641,
        "Sequence": 24,
        "StationID": "1000148"
      },
      {
        "Name": "長元西街口",
        "Lat": 25.065609,
        "Lon": 121.496788,
        "Sequence": 25,
        "StationID": "3395"
      },
      {
        "Name": "正義重新路口",
        "Lat": 25.06310647,
        "Lon": 121.4974644,
        "Sequence": 26,
        "StationID": "3435"
      },
      {
        "Name": "三重郵局",
        "Lat": 25.060928,
        "Lon": 121.498057,
        "Sequence": 27,
        "StationID": "3403"
      },
      {
        "Name": "光興國小",
        "Lat": 25.05971795,
        "Lon": 121.4983337,
        "Sequence": 28,
        "StationID": "3425"
      },
      {
        "Name": "三重空軍一村",
        "Lat": 25.05760253,
        "Lon": 121.498795,
        "Sequence": 29,
        "StationID": "3422"
      },
      {
        "Name": "天后宮",
        "Lat": 25.05707,
        "Lon": 121.49998,
        "Sequence": 30,
        "StationID": "3420"
      },
      {
        "Name": "福德南路",
        "Lat": 25.062224,
        "Lon": 121.503152,
        "Sequence": 31,
        "StationID": "3482"
      },
      {
        "Name": "捷運民權西路站",
        "Lat": 25.0628480067,
        "Lon": 121.5178677888,
        "Sequence": 32,
        "StationID": "1000398"
      },
      {
        "Name": "台泥大樓(馬偕醫院)",
        "Lat": 25.0608309862107,
        "Lon": 121.522776776113,
        "Sequence": 33,
        "StationID": "1000155"
      },
      {
        "Name": "國賓飯店",
        "Lat": 25.0564276089864,
        "Lon": 121.522628910085,
        "Sequence": 34,
        "StationID": "1000156"
      },
      {
        "Name": "中山市場",
        "Lat": 25.05126405386,
        "Lon": 121.52202112765,
        "Sequence": 35,
        "StationID": "1000064"
      },
      {
        "Name": "行政院",
        "Lat": 25.046484462941,
        "Lon": 121.519759690546,
        "Sequence": 36,
        "StationID": "50688"
      },
      {
        "Name": "臺大醫院",
        "Lat": 25.042525923467416,
        "Lon": 121.51846488093777,
        "Sequence": 37,
        "StationID": "50687"
      }
    ]
  },
  {
    "Route": "261預",
    "SubRoute": "261預",
    "Direction": 1,
    "Stops": [
      {
        "Name": "臺大醫院",
        "Lat": 25.041403318287,
        "Lon": 121.5185552467,
        "Sequence": 1,
        "StationID": "1000087"
      },
      {
        "Name": "行政院",
        "Lat": 25.046578538214,
        "Lon": 121.520239869754,
        "Sequence": 2,
        "StationID": "1919"
      },
      {
        "Name": "中山市場",
        "Lat": 25.050519,
        "Lon": 121.522081,
        "Sequence": 3,
        "StationID": "1000712"
      },
      {
        "Name": "國賓飯店",
        "Lat": 25.0562422589842,
        "Lon": 121.522969858739,
        "Sequence": 4,
        "StationID": "1000157"
      },
      {
        "Name": "華泰飯店",
        "Lat": 25.05785405,
        "Lon": 121.5243951,
        "Sequence": 5,
        "StationID": "10414"
      },
      {
        "Name": "聚盛里",
        "Lat": 25.05865,
        "Lon": 121.52563,
        "Sequence": 6,
        "StationID": "1379"
      },
      {
        "Name": "新興國中",
        "Lat": 25.06130893,
        "Lon": 121.5257163,
        "Sequence": 7,
        "StationID": "7609"
      },
      {
        "Name": "民權中山路口",
        "Lat": 25.06285356,
        "Lon": 121.5230024,
        "Sequence": 8,
        "StationID": "1236"
      },
      {
        "Name": "捷運民權西路站",
        "Lat": 25.062948670718,
        "Lon": 121.518977516403,
        "Sequence": 9,
        "StationID": "1000393"
      },
      {
        "Name": "民權大龍街口",
        "Lat": 25.062976,
        "Lon": 121.516467,
        "Sequence": 10,
        "StationID": "1427"
      },
      {
        "Name": "三重派出所(重新路)",
        "Lat": 25.063667,
        "Lon": 121.501606,
        "Sequence": 11,
        "StationID": "3488"
      },
      {
        "Name": "捷運台北橋站",
        "Lat": 25.06321,
        "Lon": 121.500403,
        "Sequence": 12,
        "StationID": "13200"
      },
      {
        "Name": "正義重新路口",
        "Lat": 25.06353227,
        "Lon": 121.4975969,
        "Sequence": 13,
        "StationID": "1000150"
      },
      {
        "Name": "長元西街口",
        "Lat": 25.065218,
        "Lon": 121.497108,
        "Sequence": 14,
        "StationID": "1165605416"
      },
      {
        "Name": "長壽西街口",
        "Lat": 25.067084,
        "Lon": 121.496507,
        "Sequence": 15,
        "StationID": "3437"
      },
      {
        "Name": "三安里",
        "Lat": 25.0686318968407,
        "Lon": 121.496081127723,
        "Sequence": 16,
        "StationID": "3388"
      },
      {
        "Name": "龍門路口",
        "Lat": 25.070313,
        "Lon": 121.495103,
        "Sequence": 17,
        "StationID": "10626"
      },
      {
        "Name": "介壽廣場",
        "Lat": 25.0715952730589,
        "Lon": 121.493557306213,
        "Sequence": 18,
        "StationID": "3416"
      },
      {
        "Name": "大智街口(三重)",
        "Lat": 25.0702152144716,
        "Lon": 121.491668116521,
        "Sequence": 19,
        "StationID": "10444"
      },
      {
        "Name": "修德國小",
        "Lat": 25.066958309947,
        "Lon": 121.48910250793,
        "Sequence": 20,
        "StationID": "3448"
      },
      {
        "Name": "新北大道路口",
        "Lat": 25.06280719,
        "Lon": 121.4867752,
        "Sequence": 21,
        "StationID": "10472"
      },
      {
        "Name": "三民街",
        "Lat": 25.06343,
        "Lon": 121.485248,
        "Sequence": 22,
        "StationID": "10624"
      },
      {
        "Name": "東海中學",
        "Lat": 25.065509,
        "Lon": 121.482592,
        "Sequence": 23,
        "StationID": "3432"
      },
      {
        "Name": "三重商工(三民街)",
        "Lat": 25.068431,
        "Lon": 121.478826,
        "Sequence": 24,
        "StationID": "10623"
      },
      {
        "Name": "博愛新村",
        "Lat": 25.0695224403088,
        "Lon": 121.477687916123,
        "Sequence": 25,
        "StationID": "3454"
      },
      {
        "Name": "仙公廟",
        "Lat": 25.0715506158941,
        "Lon": 121.473796826188,
        "Sequence": 26,
        "StationID": "10617"
      },
      {
        "Name": "穀保家商",
        "Lat": 25.07213746,
        "Lon": 121.47112,
        "Sequence": 27,
        "StationID": "10614"
      },
      {
        "Name": "褒仔寮",
        "Lat": 25.0725757837781,
        "Lon": 121.468381204695,
        "Sequence": 28,
        "StationID": "15056"
      },
      {
        "Name": "大同新村",
        "Lat": 25.0742021514958,
        "Lon": 121.467750089647,
        "Sequence": 29,
        "StationID": "3643"
      },
      {
        "Name": "民生街口",
        "Lat": 25.079466,
        "Lon": 121.471915,
        "Sequence": 30,
        "StationID": "50417"
      },
      {
        "Name": "中山一路",
        "Lat": 25.080632,
        "Lon": 121.473612,
        "Sequence": 31,
        "StationID": "3646"
      },
      {
        "Name": "鷺江國小(三民路)",
        "Lat": 25.08281724,
        "Lon": 121.4757728,
        "Sequence": 32,
        "StationID": "15076"
      },
      {
        "Name": "捷運三民高中站",
        "Lat": 25.085397,
        "Lon": 121.473682,
        "Sequence": 33,
        "StationID": "5011"
      },
      {
        "Name": "三民高中",
        "Lat": 25.08630081,
        "Lon": 121.4725592,
        "Sequence": 34,
        "StationID": "15061"
      },
      {
        "Name": "空中大學(三民路)",
        "Lat": 25.087643,
        "Lon": 121.47086,
        "Sequence": 35,
        "StationID": "15074"
      },
      {
        "Name": "民族路口",
        "Lat": 25.089033,
        "Lon": 121.469135,
        "Sequence": 36,
        "StationID": "74371"
      },
      {
        "Name": "捷運蘆洲站",
        "Lat": 25.09124688,
        "Lon": 121.4647878,
        "Sequence": 37,
        "StationID": "3676"
      },
      {
        "Name": "中正光榮路口",
        "Lat": 25.090179,
        "Lon": 121.464929,
        "Sequence": 38,
        "StationID": "1165609175"
      }
    ]
  }
]