[
  {
    "Route": "內科通勤專車2",
    "SubRoute": "內科2往內科",
    "Direction": 0,
    "Stops": [
      {
        "Name": "駕訓中心",
        "Lat": 24.992043,
        "Lon": 121.477332,
        "Sequence": 1,
        "StationID": "3250"
      },
      {
        "Name": "中和高中",
        "Lat": 24.99430779,
        "Lon": 121.4789782,
        "Sequence": 2,
        "StationID": "3071"
      },
      {
        "Name": "連城路",
        "Lat": 24.995553,
        "Lon": 121.482957,
        "Sequence": 3,
        "StationID": "3135"
      },
      {
        "Name": "連城中正路口",
        "Lat": 24.996128,
        "Lon": 121.484429,
        "Sequence": 4,
        "StationID": "3124"
      },
      {
        "Name": "連城錦和路口(暫時裁撤)",
        "Lat": 24.99626066,
        "Lon": 121.4903845,
        "Sequence": 5,
        "StationID": "3052"
      },
      {
        "Name": "台貿一村",
        "Lat": 24.9965568353221,
        "Lon": 121.492320399314,
        "Sequence": 6,
        "StationID": "10005"
      },
      {
        "Name": "中和國稅局",
        "Lat": 24.9981696630183,
        "Lon": 121.495123116568,
        "Sequence": 7,
        "StationID": "3080"
      },
      {
        "Name": "連城景平路(暫時裁撤)",
        "Lat": 24.9996352583255,
        "Lon": 121.496428401096,
        "Sequence": 8,
        "StationID": "3134"
      },
      {
        "Name": "連城中和路口",
        "Lat": 25.001978,
        "Lon": 121.498554,
        "Sequence": 9,
        "StationID": "10001"
      },
      {
        "Name": "廟美里",
        "Lat": 25.00264981,
        "Lon": 121.5003993,
        "Sequence": 10,
        "StationID": "3158"
      },
      {
        "Name": "南山高中(中山路)",
        "Lat": 25.003345,
        "Lon": 121.502662,
        "Sequence": 11,
        "StationID": "3109"
      },
      {
        "Name": "佳和公園",
        "Lat": 25.004905,
        "Lon": 121.504545,
        "Sequence": 12,
        "StationID": "3103"
      },
      {
        "Name": "保生路口",
        "Lat": 25.006803,
        "Lon": 121.506749,
        "Sequence": 13,
        "StationID": "3113"
      },
      {
        "Name": "永平高中",
        "Lat": 25.00919,
        "Lon": 121.50974,
        "Sequence": 14,
        "StationID": "3087"
      },
      {
        "Name": "中山路口",
        "Lat": 25.01056,
        "Lon": 121.51308,
        "Sequence": 15,
        "StationID": "3059"
      },
      {
        "Name": "捷運頂溪站",
        "Lat": 25.01258,
        "Lon": 121.515273,
        "Sequence": 16,
        "StationID": "9621"
      },
      {
        "Name": "中正橋頭",
        "Lat": 25.01604284,
        "Lon": 121.5162239,
        "Sequence": 17,
        "StationID": "50809"
      },
      {
        "Name": "重慶南路三段(中正橋)",
        "Lat": 25.0242546637841,
        "Lon": 121.516898839078,
        "Sequence": 18,
        "StationID": "1000325"
      },
      {
        "Name": "和平西路一段",
        "Lat": 25.026752,
        "Lon": 121.51751,
        "Sequence": 19,
        "StationID": "3906"
      },
      {
        "Name": "南福板溪(南昌公園)",
        "Lat": 25.0265749351805,
        "Lon": 121.520278734081,
        "Sequence": 20,
        "StationID": "1907"
      },
      {
        "Name": "捷運古亭站(和平)",
        "Lat": 25.026842,
        "Lon": 121.523591,
        "Sequence": 21,
        "StationID": "1165603341"
      },
      {
        "Name": "金山潮州街口",
        "Lat": 25.028663,
        "Lon": 121.526353,
        "Sequence": 22,
        "StationID": "6621"
      },
      {
        "Name": "公企中心",
        "Lat": 25.03066,
        "Lon": 121.52673,
        "Sequence": 23,
        "StationID": "6676"
      },
      {
        "Name": "捷運東門站(金山)",
        "Lat": 25.03321177,
        "Lon": 121.5272129,
        "Sequence": 24,
        "StationID": "6678"
      },
      {
        "Name": "仁愛路二段",
        "Lat": 25.03778986,
        "Lon": 121.5281994,
        "Sequence": 25,
        "StationID": "1871"
      },
      {
        "Name": "金山泰安街口",
        "Lat": 25.04049366,
        "Lon": 121.5292018,
        "Sequence": 26,
        "StationID": "6677"
      },
      {
        "Name": "圓山大飯店",
        "Lat": 25.0772703676354,
        "Lon": 121.528167347349,
        "Sequence": 27,
        "StationID": "1356"
      },
      {
        "Name": "中央電台",
        "Lat": 25.0779258290758,
        "Lon": 121.53000062511,
        "Sequence": 28,
        "StationID": "1195"
      },
      {
        "Name": "忠烈祠",
        "Lat": 25.07800478,
        "Lon": 121.5319142,
        "Sequence": 29,
        "StationID": "1260"
      },
      {
        "Name": "經國七海文化園區",
        "Lat": 25.07778224,
        "Lon": 121.535397,
        "Sequence": 30,
        "StationID": "4740"
      },
      {
        "Name": "基湖站",
        "Lat": 25.0801,
        "Lon": 121.56489,
        "Sequence": 31,
        "StationID": "8405"
      },
      {
        "Name": "基湖路口",
        "Lat": 25.08025003,
        "Lon": 121.5662362,
        "Sequence": 32,
        "StationID": "8404"
      },
      {
        "Name": "仁寶大樓",
        "Lat": 25.07921316,
        "Lon": 121.5684974,
        "Sequence": 33,
        "StationID": "1007"
      },
      {
        "Name": "瑞光港墘路口",
        "Lat": 25.077753,
        "Lon": 121.571868,
        "Sequence": 34,
        "StationID": "1013"
      },
      {
        "Name": "瑞光路",
        "Lat": 25.074821,
        "Lon": 121.577343,
        "Sequence": 35,
        "StationID": "1132"
      },
      {
        "Name": "公館山",
        "Lat": 25.07198833,
        "Lon": 121.5809507,
        "Sequence": 36,
        "StationID": "1006"
      },
      {
        "Name": "麗寶大樓",
        "Lat": 25.070960172287336,
        "Lon": 121.5820136022182,
        "Sequence": 37,
        "StationID": "1165610352"
      }
    ]
  },
  {
    "Route": "內科通勤專車2",
    "SubRoute": "內科2往中和",
    "Direction": 1,
    "Stops": [
      {
        "Name": "麗寶大樓",
        "Lat": 25.070517,
        "Lon": 121.582711,
        "Sequence": 1,
        "StationID": "8603"
      },
      {
        "Name": "公館山",
        "Lat": 25.071952,
        "Lon": 121.581177,
        "Sequence": 2,
        "StationID": "8621"
      },
      {
        "Name": "瑞光路",
        "Lat": 25.07478024553194,
        "Lon": 121.57766690657958,
        "Sequence": 3,
        "StationID": "1000897"
      },
      {
        "Name": "瑞光港墘路口",
        "Lat": 25.07729684,
        "Lon": 121.5731066,
        "Sequence": 4,
        "StationID": "1000895"
      },
      {
        "Name": "仁寶大樓",
        "Lat": 25.079478,
        "Lon": 121.568256,
        "Sequence": 5,
        "StationID": "1000896"
      },
      {
        "Name": "基湖路口",
        "Lat": 25.0805158061818,
        "Lon": 121.565903409458,
        "Sequence": 6,
        "StationID": "8403"
      },
      {
        "Name": "基湖站",
        "Lat": 25.07973077,
        "Lon": 121.5646071,
        "Sequence": 7,
        "StationID": "1083"
      },
      {
        "Name": "忠烈祠",
        "Lat": 25.0780024350627,
        "Lon": 121.535552182321,
        "Sequence": 8,
        "StationID": "9436"
      },
      {
        "Name": "中央電台",
        "Lat": 25.0781282212443,
        "Lon": 121.530144788528,
        "Sequence": 9,
        "StationID": "9434"
      },
      {
        "Name": "圓山大飯店",
        "Lat": 25.077322358349,
        "Lon": 121.527964269875,
        "Sequence": 10,
        "StationID": "1357"
      },
      {
        "Name": "金山泰安街口",
        "Lat": 25.04,
        "Lon": 121.528803,
        "Sequence": 11,
        "StationID": "2339"
      },
      {
        "Name": "仁愛路二段",
        "Lat": 25.03742288,
        "Lon": 121.5279594,
        "Sequence": 12,
        "StationID": "2215"
      },
      {
        "Name": "捷運東門站(金山)",
        "Lat": 25.033164,
        "Lon": 121.526979,
        "Sequence": 13,
        "StationID": "2280"
      },
      {
        "Name": "公企中心",
        "Lat": 25.03119392732057,
        "Lon": 121.52661106566782,
        "Sequence": 14,
        "StationID": "2196"
      },
      {
        "Name": "金山潮州街口",
        "Lat": 25.028247,
        "Lon": 121.526085,
        "Sequence": 15,
        "StationID": "2269"
      },
      {
        "Name": "捷運古亭站(和平)",
        "Lat": 25.027036,
        "Lon": 121.524516,
        "Sequence": 16,
        "StationID": "3943"
      },
      {
        "Name": "南福板溪(南昌公園)",
        "Lat": 25.02681,
        "Lon": 121.52053,
        "Sequence": 17,
        "StationID": "3905"
      },
      {
        "Name": "和平西路一段",
        "Lat": 25.026994,
        "Lon": 121.517263,
        "Sequence": 18,
        "StationID": "1925"
      },
      {
        "Name": "重慶南路三段(中正橋)",
        "Lat": 25.024804,
        "Lon": 121.516528,
        "Sequence": 19,
        "StationID": "1920"
      },
      {
        "Name": "捷運頂溪站",
        "Lat": 25.014430464101867,
        "Lon": 121.5155769771344,
        "Sequence": 20,
        "StationID": "1165606035"
      },
      {
        "Name": "中興街口",
        "Lat": 25.0115956,
        "Lon": 121.5147464,
        "Sequence": 21,
        "StationID": "3002"
      },
      {
        "Name": "中山路口",
        "Lat": 25.01075535,
        "Lon": 121.5126727,
        "Sequence": 22,
        "StationID": "10043"
      },
      {
        "Name": "永平高中",
        "Lat": 25.009358,
        "Lon": 121.50956,
        "Sequence": 23,
        "StationID": "3086"
      },
      {
        "Name": "保生路口",
        "Lat": 25.006740270571,
        "Lon": 121.50639288518,
        "Sequence": 24,
        "StationID": "10044"
      },
      {
        "Name": "佳和公園",
        "Lat": 25.004997,
        "Lon": 121.504269,
        "Sequence": 25,
        "StationID": "10045"
      },
      {
        "Name": "南山高中(中山路)",
        "Lat": 25.003436,
        "Lon": 121.502363,
        "Sequence": 26,
        "StationID": "10046"
      },
      {
        "Name": "廟美里",
        "Lat": 25.0028038820612,
        "Lon": 121.500513343799,
        "Sequence": 27,
        "StationID": "10047"
      },
      {
        "Name": "連城中和路口",
        "Lat": 25.002187,
        "Lon": 121.498749,
        "Sequence": 28,
        "StationID": "10002"
      },
      {
        "Name": "連城景平路(暫時裁撤)",
        "Lat": 24.9995896339066,
        "Lon": 121.496156410982,
        "Sequence": 29,
        "StationID": "10003"
      },
      {
        "Name": "中和國稅局",
        "Lat": 24.998274,
        "Lon": 121.494913,
        "Sequence": 30,
        "StationID": "10004"
      },
      {
        "Name": "台貿一村",
        "Lat": 24.99673,
        "Lon": 121.492254369312,
        "Sequence": 31,
        "StationID": "3084"
      },
      {
        "Name": "連城錦和路口(暫時裁撤)",
        "Lat": 24.99645348,
        "Lon": 121.4902015,
        "Sequence": 32,
        "StationID": "10006"
      },
      {
        "Name": "連城中正路口",
        "Lat": 24.996296,
        "Lon": 121.484217,
        "Sequence": 33,
        "StationID": "10007"
      },
      {
        "Name": "連城路",
        "Lat": 24.996019,
        "Lon": 121.483264,
        "Sequence": 34,
        "StationID": "10008"
      },
      {
        "Name": "中和高中",
        "Lat": 24.9941775057553,
        "Lon": 121.478575833983,
        "Sequence": 35,
        "StationID": "3072"
      }
    ]
  }
]