[
  {
    "Route": "253",
    "SubRoute": "253路",
    "Direction": 0,
    "Stops": [
      {
        "Name": "遠東世紀",
        "Lat": 24.983425,
        "Lon": 121.551066,
        "Sequence": 1,
        "StationID": "1000557"
      },
      {
        "Name": "全球工業總部",
        "Lat": 24.980281,
        "Lon": 121.551537,
        "Sequence": 2,
        "StationID": "1000558"
      },
      {
        "Name": "景美女中",
        "Lat": 24.980335,
        "Lon": 121.55568,
        "Sequence": 3,
        "StationID": "2461"
      },
      {
        "Name": "木新市場",
        "Lat": 24.98100977,
        "Lon": 121.5583622,
        "Sequence": 4,
        "StationID": "1000553"
      },
      {
        "Name": "力行國小",
        "Lat": 24.9813802657801,
        "Lon": 121.559783932422,
        "Sequence": 5,
        "StationID": "1000554"
      },
      {
        "Name": "國泰新村(木新)",
        "Lat": 24.981856,
        "Lon": 121.561802,
        "Sequence": 6,
        "StationID": "3993"
      },
      {
        "Name": "國泰新村(興隆)",
        "Lat": 24.98292781,
        "Lon": 121.562389,
        "Sequence": 7,
        "StationID": "3992"
      },
      {
        "Name": "忠順街口",
        "Lat": 24.9843077885823,
        "Lon": 121.561829231052,
        "Sequence": 8,
        "StationID": "1000441"
      },
      {
        "Name": "木柵公園",
        "Lat": 24.987245753153893,
        "Lon": 121.56078735305545,
        "Sequence": 9,
        "StationID": "2405"
      },
      {
        "Name": "馬明潭(再興中學)",
        "Lat": 24.989363359859,
        "Lon": 121.559942504895,
        "Sequence": 10,
        "StationID": "1000443"
      },
      {
        "Name": "興隆山莊",
        "Lat": 24.990768,
        "Lon": 121.55919,
        "Sequence": 11,
        "StationID": "1000444"
      },
      {
        "Name": "海巡署一",
        "Lat": 24.99243758851507,
        "Lon": 121.55883687781873,
        "Sequence": 12,
        "StationID": "392"
      },
      {
        "Name": "海巡署",
        "Lat": 24.99385696,
        "Lon": 121.5594086,
        "Sequence": 13,
        "StationID": "2452"
      },
      {
        "Name": "文山運動中心(興隆)",
        "Lat": 24.996452582031367,
        "Lon": 121.56012261539274,
        "Sequence": 14,
        "StationID": "4712"
      },
      {
        "Name": "臺灣警察專科學校",
        "Lat": 24.9977449509898,
        "Lon": 121.55947313859588,
        "Sequence": 15,
        "StationID": "1000764"
      },
      {
        "Name": "捷運萬芳醫院站",
        "Lat": 24.999259,
        "Lon": 121.557829,
        "Sequence": 16,
        "StationID": "2449"
      },
      {
        "Name": "中國科技大學(興隆)",
        "Lat": 25.0004051038435,
        "Lon": 121.555797991874,
        "Sequence": 17,
        "StationID": "2375"
      },
      {
        "Name": "興隆國小",
        "Lat": 25.001459963615,
        "Lon": 121.553039816886,
        "Sequence": 18,
        "StationID": "1000035"
      },
      {
        "Name": "興德國小",
        "Lat": 25.0009828977016,
        "Lon": 121.550073640107,
        "Sequence": 19,
        "StationID": "1000858"
      },
      {
        "Name": "興隆市場",
        "Lat": 24.9995842974218,
        "Lon": 121.547448469573,
        "Sequence": 20,
        "StationID": "1000037"
      },
      {
        "Name": "靜心高中",
        "Lat": 24.998953,
        "Lon": 121.545835,
        "Sequence": 21,
        "StationID": "20244"
      },
      {
        "Name": "憲光公寓",
        "Lat": 24.999719170953,
        "Lon": 121.54393655953,
        "Sequence": 22,
        "StationID": "2533"
      },
      {
        "Name": "景明街口",
        "Lat": 25.0015098013863,
        "Lon": 121.542530095186,
        "Sequence": 23,
        "StationID": "2457"
      },
      {
        "Name": "武功國小(興隆)",
        "Lat": 25.0042661031504,
        "Lon": 121.539995594657,
        "Sequence": 24,
        "StationID": "3980"
      },
      {
        "Name": "師大分部",
        "Lat": 25.0076706783786,
        "Lon": 121.538470307254,
        "Sequence": 25,
        "StationID": "1000036"
      },
      {
        "Name": "捷運公館站",
        "Lat": 25.013993,
        "Lon": 121.535185,
        "Sequence": 26,
        "StationID": "1990"
      },
      {
        "Name": "臺大",
        "Lat": 25.01800299,
        "Lon": 121.5337036,
        "Sequence": 27,
        "StationID": "6667"
      },
      {
        "Name": "臺大綜合體育館",
        "Lat": 25.0214053337175,
        "Lon": 121.534388191196,
        "Sequence": 28,
        "StationID": "2197"
      },
      {
        "Name": "龍安國小(公務人力發展學院)",
        "Lat": 25.02527096,
        "Lon": 121.5349231,
        "Sequence": 29,
        "StationID": "2255"
      },
      {
        "Name": "金華國中",
        "Lat": 25.03020674,
        "Lon": 121.531764,
        "Sequence": 30,
        "StationID": "6671"
      },
      {
        "Name": "金華大廈",
        "Lat": 25.02982,
        "Lon": 121.52907,
        "Sequence": 31,
        "StationID": "6672"
      },
      {
        "Name": "公企中心",
        "Lat": 25.03003,
        "Lon": 121.52776,
        "Sequence": 32,
        "StationID": "6673"
      },
      {
        "Name": "愛國金山路口",
        "Lat": 25.0319083503876,
        "Lon": 121.526147474931,
        "Sequence": 33,
        "StationID": "1000515"
      },
      {
        "Name": "愛國東路口",
        "Lat": 25.03276,
        "Lon": 121.522887,
        "Sequence": 34,
        "StationID": "2331"
      },
      {
        "Name": "金甌女中",
        "Lat": 25.0349344108172,
        "Lon": 121.524185846428,
        "Sequence": 35,
        "StationID": "2278"
      },
      {
        "Name": "仁愛杭州路口",
        "Lat": 25.03676,
        "Lon": 121.52487,
        "Sequence": 36,
        "StationID": "1935"
      },
      {
        "Name": "仁愛路二段",
        "Lat": 25.03951,
        "Lon": 121.52567,
        "Sequence": 37,
        "StationID": "1001466"
      },
      {
        "Name": "臺北商大(杭州)",
        "Lat": 25.04197,
        "Lon": 121.526368,
        "Sequence": 38,
        "StationID": "1909"
      },
      {
        "Name": "捷運善導寺站",
        "Lat": 25.045112057683003,
        "Lon": 121.52277975890082,
        "Sequence": 39,
        "StationID": "1998"
      },
      {
        "Name": "臺北車站(忠孝)",
        "Lat": 25.0465408,
        "Lon": 121.5167218,
        "Sequence": 40,
        "StationID": "1000082"
      }
    ]
  },
  {
    "Route": "253",
    "SubRoute": "253路",
    "Direction": 1,
    "Stops": [
      {
        "Name": "中華路北站",
        "Lat": 25.0455115050969,
        "Lon": 121.509144127644,
        "Sequence": 1,
        "StationID": "1000078"
      },
      {
        "Name": "捷運西門站",
        "Lat": 25.0425165606871,
        "Lon": 121.508266771006,
        "Sequence": 2,
        "StationID": "1000079"
      },
      {
        "Name": "小南門",
        "Lat": 25.0378687908132,
        "Lon": 121.506903709074,
        "Sequence": 3,
        "StationID": "1000080"
      },
      {
        "Name": "聯合醫院和平院區",
        "Lat": 25.0364933609706,
        "Lon": 121.506507520259,
        "Sequence": 4,
        "StationID": "1926"
      },
      {
        "Name": "大埔街",
        "Lat": 25.03205520434067,
        "Lon": 121.50448356536738,
        "Sequence": 5,
        "StationID": "4606"
      },
      {
        "Name": "廈安里",
        "Lat": 25.0305627556618,
        "Lon": 121.50408568455,
        "Sequence": 6,
        "StationID": "4145"
      },
      {
        "Name": "南機場公寓",
        "Lat": 25.028384629531,
        "Lon": 121.505465333891,
        "Sequence": 7,
        "StationID": "1777"
      },
      {
        "Name": "中華南海路口",
        "Lat": 25.0273435686053,
        "Lon": 121.506437964545,
        "Sequence": 8,
        "StationID": "1743"
      },
      {
        "Name": "國盛國宅",
        "Lat": 25.02761832,
        "Lon": 121.5077926,
        "Sequence": 9,
        "StationID": "1165606696"
      },
      {
        "Name": "龍口市場",
        "Lat": 25.02815,
        "Lon": 121.509145,
        "Sequence": 10,
        "StationID": "2024"
      },
      {
        "Name": "汀州路",
        "Lat": 25.02673,
        "Lon": 121.51101,
        "Sequence": 11,
        "StationID": "1913"
      },
      {
        "Name": "泉州街口",
        "Lat": 25.02628,
        "Lon": 121.51324,
        "Sequence": 12,
        "StationID": "1165604837"
      },
      {
        "Name": "螢橋國小",
        "Lat": 25.02600956,
        "Lon": 121.5148181,
        "Sequence": 13,
        "StationID": "2018"
      },
      {
        "Name": "廈門街口",
        "Lat": 25.0253827252609,
        "Lon": 121.517223396453,
        "Sequence": 14,
        "StationID": "2007"
      },
      {
        "Name": "新民高中",
        "Lat": 25.024784,
        "Lon": 121.519994,
        "Sequence": 15,
        "StationID": "1974"
      },
      {
        "Name": "河堤國小",
        "Lat": 25.02256,
        "Lon": 121.52355,
        "Sequence": 16,
        "StationID": "1938"
      },
      {
        "Name": "水源路口",
        "Lat": 25.0214243649503,
        "Lon": 121.524829613285,
        "Sequence": 17,
        "StationID": "1000559"
      },
      {
        "Name": "客家文化主題公園",
        "Lat": 25.01996,
        "Lon": 121.52587,
        "Sequence": 18,
        "StationID": "1923"
      },
      {
        "Name": "耕莘文教院",
        "Lat": 25.018986,
        "Lon": 121.528858,
        "Sequence": 19,
        "StationID": "1966"
      },
      {
        "Name": "台電大樓",
        "Lat": 25.017546,
        "Lon": 121.531379,
        "Sequence": 20,
        "StationID": "2231"
      },
      {
        "Name": "捷運公館站",
        "Lat": 25.014321,
        "Lon": 121.534722,
        "Sequence": 21,
        "StationID": "1991"
      },
      {
        "Name": "師大分部",
        "Lat": 25.0081406778406,
        "Lon": 121.538064047069,
        "Sequence": 22,
        "StationID": "2430"
      },
      {
        "Name": "武功國小(羅斯福)",
        "Lat": 25.00341174,
        "Lon": 121.5384705,
        "Sequence": 23,
        "StationID": "2412"
      },
      {
        "Name": "捷運萬隆站",
        "Lat": 25.00178299384715,
        "Lon": 121.53891974229319,
        "Sequence": 24,
        "StationID": "2450"
      },
      {
        "Name": "萬隆",
        "Lat": 24.99939586,
        "Lon": 121.5398039,
        "Sequence": 25,
        "StationID": "2503"
      },
      {
        "Name": "財政園區",
        "Lat": 24.995644300082535,
        "Lon": 121.54100316430888,
        "Sequence": 26,
        "StationID": "1000807"
      },
      {
        "Name": "景美國中",
        "Lat": 24.992776404618,
        "Lon": 121.542708979168,
        "Sequence": 27,
        "StationID": "2464"
      },
      {
        "Name": "景美國小(景興)",
        "Lat": 24.9897079824046,
        "Lon": 121.542536892973,
        "Sequence": 28,
        "StationID": "2463"
      },
      {
        "Name": "世新大學",
        "Lat": 24.988478,
        "Lon": 121.54381,
        "Sequence": 29,
        "StationID": "2394"
      },
      {
        "Name": "復興派出所",
        "Lat": 24.9867882,
        "Lon": 121.5465259,
        "Sequence": 30,
        "StationID": "2455"
      },
      {
        "Name": "考試院",
        "Lat": 24.9873383747906,
        "Lon": 121.549735378275,
        "Sequence": 31,
        "StationID": "2406"
      },
      {
        "Name": "永建國小",
        "Lat": 24.98809,
        "Lon": 121.554868,
        "Sequence": 32,
        "StationID": "2402"
      },
      {
        "Name": "中興公寓",
        "Lat": 24.9884116429436,
        "Lon": 121.556482491508,
        "Sequence": 33,
        "StationID": "2377"
      },
      {
        "Name": "再興中學",
        "Lat": 24.9886499986778,
        "Lon": 121.559246461721,
        "Sequence": 34,
        "StationID": "2403"
      },
      {
        "Name": "木柵公園",
        "Lat": 24.98693,
        "Lon": 121.56074,
        "Sequence": 35,
        "StationID": "2404"
      },
      {
        "Name": "忠順街口",
        "Lat": 24.98477018,
        "Lon": 121.5614966,
        "Sequence": 36,
        "StationID": "2410"
      },
      {
        "Name": "國泰新村(興隆)",
        "Lat": 24.98254356,
        "Lon": 121.5622646,
        "Sequence": 37,
        "StationID": "2437"
      },
      {
        "Name": "國泰新村(木新)",
        "Lat": 24.9820534481377,
        "Lon": 121.561849824052,
        "Sequence": 38,
        "StationID": "3994"
      },
      {
        "Name": "力行國小",
        "Lat": 24.981733915823476,
        "Lon": 121.56033392387744,
        "Sequence": 39,
        "StationID": "2362"
      },
      {
        "Name": "木新市場",
        "Lat": 24.9811534735698,
        "Lon": 121.558272457788,
        "Sequence": 40,
        "StationID": "2391"
      },
      {
        "Name": "景美女中",
        "Lat": 24.980465,
        "Lon": 121.555554,
        "Sequence": 41,
        "StationID": "2462"
      }
    ]
  },
  {
    "Route": "253",
    "SubRoute": "253(景美女中發車)",
    "Direction": 0,
    "Stops": [
      {
        "Name": "景美女中",
        "Lat": 24.980335,
        "Lon": 121.55568,
        "Sequence": 1,
        "StationID": "2461"
      },
      {
        "Name": "木新市場",
        "Lat": 24.98100977,
        "Lon": 121.5583622,
        "Sequence": 2,
        "StationID": "1000553"
      },
      {
        "Name": "力行國小",
        "Lat": 24.9813802657801,
        "Lon": 121.559783932422,
        "Sequence": 3,
        "StationID": "1000554"
      },
      {
        "Name": "國泰新村(木新)",
        "Lat": 24.981856,
        "Lon": 121.561802,
        "Sequence": 4,
        "StationID": "3993"
      },
      {
        "Name": "國泰新村(興隆)",
        "Lat": 24.98292781,
        "Lon": 121.562389,
        "Sequence": 5,
        "StationID": "3992"
      },
      {
        "Name": "忠順街口",
        "Lat": 24.9843077885823,
        "Lon": 121.561829231052,
        "Sequence": 6,
        "StationID": "1000441"
      },
      {
        "Name": "木柵公園",
        "Lat": 24.987245753153893,
        "Lon": 121.56078735305545,
        "Sequence": 7,
        "StationID": "2405"
      },
      {
        "Name": "馬明潭(再興中學)",
        "Lat": 24.989363359859,
        "Lon": 121.559942504895,
        "Sequence": 8,
        "StationID": "1000443"
      },
      {
        "Name": "興隆山莊",
        "Lat": 24.990768,
        "Lon": 121.55919,
        "Sequence": 9,
        "StationID": "1000444"
      },
      {
        "Name": "海巡署一",
        "Lat": 24.99243758851507,
        "Lon": 121.55883687781873,
        "Sequence": 10,
        "StationID": "392"
      },
      {
        "Name": "海巡署",
        "Lat": 24.99385696,
        "Lon": 121.5594086,
        "Sequence": 11,
        "StationID": "2452"
      },
      {
        "Name": "文山運動中心(興隆)",
        "Lat": 24.996452582031367,
        "Lon": 121.56012261539274,
        "Sequence": 12,
        "StationID": "4712"
      },
      {
        "Name": "臺灣警察專科學校",
        "Lat": 24.9977449509898,
        "Lon": 121.55947313859588,
        "Sequence": 13,
        "StationID": "1000764"
      },
      {
        "Name": "捷運萬芳醫院站",
        "Lat": 24.999259,
        "Lon": 121.557829,
        "Sequence": 14,
        "StationID": "2449"
      },
      {
        "Name": "中國科技大學(興隆)",
        "Lat": 25.0004051038435,
        "Lon": 121.555797991874,
        "Sequence": 15,
        "StationID": "2375"
      },
      {
        "Name": "興隆國小",
        "Lat": 25.001459963615,
        "Lon": 121.553039816886,
        "Sequence": 16,
        "StationID": "1000035"
      },
      {
        "Name": "興德國小",
        "Lat": 25.0009828977016,
        "Lon": 121.550073640107,
        "Sequence": 17,
        "StationID": "1000858"
      },
      {
        "Name": "興隆市場",
        "Lat": 24.9995842974218,
        "Lon": 121.547448469573,
        "Sequence": 18,
        "StationID": "1000037"
      },
      {
        "Name": "靜心高中",
        "Lat": 24.998953,
        "Lon": 121.545835,
        "Sequence": 19,
        "StationID": "20244"
      },
      {
        "Name": "憲光公寓",
        "Lat": 24.999719170953,
        "Lon": 121.54393655953,
        "Sequence": 20,
        "StationID": "2533"
      },
      {
        "Name": "景明街口",
        "Lat": 25.0015098013863,
        "Lon": 121.542530095186,
        "Sequence": 21,
        "StationID": "2457"
      },
      {
        "Name": "武功國小(興隆)",
        "Lat": 25.0042661031504,
        "Lon": 121.539995594657,
        "Sequence": 22,
        "StationID": "3980"
      },
      {
        "Name": "師大分部",
        "Lat": 25.0076706783786,
        "Lon": 121.538470307254,
        "Sequence": 23,
        "StationID": "1000036"
      },
      {
        "Name": "捷運公館站",
        "Lat": 25.013993,
        "Lon": 121.535185,
        "Sequence": 24,
        "StationID": "1990"
      },
      {
        "Name": "臺大",
        "Lat": 25.01800299,
        "Lon": 121.5337036,
        "Sequence": 25,
        "StationID": "6667"
      },
      {
        "Name": "臺大綜合體育館",
        "Lat": 25.0214053337175,
        "Lon": 121.534388191196,
        "Sequence": 26,
        "StationID": "2197"
      },
      {
        "Name": "龍安國小(公務人力發展學院)",
        "Lat": 25.02527096,
        "Lon": 121.5349231,
        "Sequence": 27,
        "StationID": "2255"
      },
      {
        "Name": "金華國中",
        "Lat": 25.03020674,
        "Lon": 121.531764,
        "Sequence": 28,
        "StationID": "6671"
      },
      {
        "Name": "金華大廈",
        "Lat": 25.02982,
        "Lon": 121.52907,
        "Sequence": 29,
        "StationID": "6672"
      },
      {
        "Name": "公企中心",
        "Lat": 25.03003,
        "Lon": 121.52776,
        "Sequence": 30,
        "StationID": "6673"
      },
      {
        "Name": "愛國金山路口",
        "Lat": 25.0319083503876,
        "Lon": 121.526147474931,
        "Sequence": 31,
        "StationID": "1000515"
      },
      {
        "Name": "愛國東路口",
        "Lat": 25.03276,
        "Lon": 121.522887,
        "Sequence": 32,
        "StationID": "2331"
      },
      {
        "Name": "金甌女中",
        "Lat": 25.0349344108172,
        "Lon": 121.524185846428,
        "Sequence": 33,
        "StationID": "2278"
      },
      {
        "Name": "仁愛杭州路口",
        "Lat": 25.03676,
        "Lon": 121.52487,
        "Sequence": 34,
        "StationID": "1935"
      },
      {
        "Name": "仁愛路二段",
        "Lat": 25.03951,
        "Lon": 121.52567,
        "Sequence": 35,
        "StationID": "1001466"
      },
      {
        "Name": "臺北商大(杭州)",
        "Lat": 25.04197,
        "Lon": 121.526368,
        "Sequence": 36,
        "StationID": "1909"
      },
      {
        "Name": "捷運善導寺站",
        "Lat": 25.045112057683003,
        "Lon": 121.52277975890082,
        "Sequence": 37,
        "StationID": "1998"
      },
      {
        "Name": "臺北車站(忠孝)",
        "Lat": 25.0465408,
        "Lon": 121.5167218,
        "Sequence": 38,
        "StationID": "1000082"
      }
    ]
  },
  {
    "Route": "253",
    "SubRoute": "253(景美女中發車)",
    "Direction": 1,
    "Stops": [
      {
        "Name": "中華路北站",
        "Lat": 25.0455115050969,
        "Lon": 121.509144127644,
        "Sequence": 1,
        "StationID": "1000078"
      },
      {
        "Name": "捷運西門站",
        "Lat": 25.0425165606871,
        "Lon": 121.508266771006,
        "Sequence": 2,
        "StationID": "1000079"
      },
      {
        "Name": "小南門",
        "Lat": 25.0378687908132,
        "Lon": 121.506903709074,
        "Sequence": 3,
        "StationID": "1000080"
      },
      {
        "Name": "聯合醫院和平院區",
        "Lat": 25.0364933609706,
        "Lon": 121.506507520259,
        "Sequence": 4,
        "StationID": "1926"
      },
      {
        "Name": "大埔街",
        "Lat": 25.03205520434067,
        "Lon": 121.50448356536738,
        "Sequence": 5,
        "StationID": "4606"
      },
      {
        "Name": "廈安里",
        "Lat": 25.0305627556618,
        "Lon": 121.50408568455,
        "Sequence": 6,
        "StationID": "4145"
      },
      {
        "Name": "南機場公寓",
        "Lat": 25.028384629531,
        "Lon": 121.505465333891,
        "Sequence": 7,
        "StationID": "1777"
      },
      {
        "Name": "中華南海路口",
        "Lat": 25.0273435686053,
        "Lon": 121.506437964545,
        "Sequence": 8,
        "StationID": "1743"
      },
      {
        "Name": "國盛國宅",
        "Lat": 25.02761832,
        "Lon": 121.5077926,
        "Sequence": 9,
        "StationID": "1165606696"
      },
      {
        "Name": "龍口市場",
        "Lat": 25.02815,
        "Lon": 121.509145,
        "Sequence": 10,
        "StationID": "2024"
      },
      {
        "Name": "汀州路",
        "Lat": 25.02673,
        "Lon": 121.51101,
        "Sequence": 11,
        "StationID": "1913"
      },
      {
        "Name": "泉州街口",
        "Lat": 25.02628,
        "Lon": 121.51324,
        "Sequence": 12,
        "StationID": "1165604837"
      },
      {
        "Name": "螢橋國小",
        "Lat": 25.02600956,
        "Lon": 121.5148181,
        "Sequence": 13,
        "StationID": "2018"
      },
      {
        "Name": "廈門街口",
        "Lat": 25.0253827252609,
        "Lon": 121.517223396453,
        "Sequence": 14,
        "StationID": "2007"
      },
      {
        "Name": "新民高中",
        "Lat": 25.024784,
        "Lon": 121.519994,
        "Sequence": 15,
        "StationID": "1974"
      },
      {
        "Name": "河堤國小",
        "Lat": 25.02256,
        "Lon": 121.52355,
        "Sequence": 16,
        "StationID": "1938"
      },
      {
        "Name": "水源路口",
        "Lat": 25.0214243649503,
        "Lon": 121.524829613285,
        "Sequence": 17,
        "StationID": "1000559"
      },
      {
        "Name": "客家文化主題公園",
        "Lat": 25.01996,
        "Lon": 121.52587,
        "Sequence": 18,
        "StationID": "1923"
      },
      {
        "Name": "耕莘文教院",
        "Lat": 25.018986,
        "Lon": 121.528858,
        "Sequence": 19,
        "StationID": "1966"
      },
      {
        "Name": "台電大樓",
        "Lat": 25.017546,
        "Lon": 121.531379,
        "Sequence": 20,
        "StationID": "2231"
      },
      {
        "Name": "捷運公館站",
        "Lat": 25.014321,
        "Lon": 121.534722,
        "Sequence": 21,
        "StationID": "1991"
      },
      {
        "Name": "師大分部",
        "Lat": 25.0081406778406,
        "Lon": 121.538064047069,
        "Sequence": 22,
        "StationID": "2430"
      },
      {
        "Name": "武功國小(羅斯福)",
        "Lat": 25.00341174,
        "Lon": 121.5384705,
        "Sequence": 23,
        "StationID": "2412"
      },
      {
        "Name": "捷運萬隆站",
        "Lat": 25.00178299384715,
        "Lon": 121.53891974229319,
        "Sequence": 24,
        "StationID": "2450"
      },
      {
        "Name": "萬隆",
        "Lat": 24.99939586,
        "Lon": 121.5398039,
        "Sequence": 25,
        "StationID": "2503"
      },
      {
        "Name": "財政園區",
        "Lat": 24.995644300082535,
        "Lon": 121.54100316430888,
        "Sequence": 26,
        "StationID": "1000807"
      },
      {
        "Name": "景美國中",
        "Lat": 24.992776404618,
        "Lon": 121.542708979168,
        "Sequence": 27,
        "StationID": "2464"
      },
      {
        "Name": "景美國小(景興)",
        "Lat": 24.9897079824046,
        "Lon": 121.542536892973,
        "Sequence": 28,
        "StationID": "2463"
      },
      {
        "Name": "世新大學",
        "Lat": 24.988478,
        "Lon": 121.54381,
        "Sequence": 29,
        "StationID": "2394"
      },
      {
        "Name": "復興派出所",
        "Lat": 24.9867882,
        "Lon": 121.5465259,
        "Sequence": 30,
        "StationID": "2455"
      },
      {
        "Name": "考試院",
        "Lat": 24.9873383747906,
        "Lon": 121.549735378275,
        "Sequence": 31,
        "StationID": "2406"
      },
      {
        "Name": "永建國小",
        "Lat": 24.98809,
        "Lon": 121.554868,
        "Sequence": 32,
        "StationID": "2402"
      },
      {
        "Name": "中興公寓",
        "Lat": 24.9884116429436,
        "Lon": 121.556482491508,
        "Sequence": 33,
        "StationID": "2377"
      },
      {
        "Name": "再興中學",
        "Lat": 24.9886499986778,
        "Lon": 121.559246461721,
        "Sequence": 34,
        "StationID": "2403"
      },
      {
        "Name": "木柵公園",
        "Lat": 24.98693,
        "Lon": 121.56074,
        "Sequence": 35,
        "StationID": "2404"
      },
      {
        "Name": "忠順街口",
        "Lat": 24.98477018,
        "Lon": 121.5614966,
        "Sequence": 36,
        "StationID": "2410"
      },
      {
        "Name": "國泰新村(興隆)",
        "Lat": 24.98254356,
        "Lon": 121.5622646,
        "Sequence": 37,
        "StationID": "2437"
      },
      {
        "Name": "國泰新村(木新)",
        "Lat": 24.9820534481377,
        "Lon": 121.561849824052,
        "Sequence": 38,
        "StationID": "3994"
      },
      {
        "Name": "力行國小",
        "Lat": 24.981733915823476,
        "Lon": 121.56033392387744,
        "Sequence": 39,
        "StationID": "2362"
      },
      {
        "Name": "木新市場",
        "Lat": 24.9811534735698,
        "Lon": 121.558272457788,
        "Sequence": 40,
        "StationID": "2391"
      },
      {
        "Name": "景美女中",
        "Lat": 24.980465,
        "Lon": 121.555554,
        "Sequence": 41,
        "StationID": "2462"
      }
    ]
  }
]