[
  {
    "Route": "226",
    "SubRoute": "226",
    "Direction": 0,
    "Stops": [
      {
        "Name": "家樂福",
        "Lat": 25.088196,
        "Lon": 121.486786,
        "Sequence": 1,
        "StationID": "4670"
      },
      {
        "Name": "分子尾",
        "Lat": 25.086181,
        "Lon": 121.488934,
        "Sequence": 2,
        "StationID": "73509"
      },
      {
        "Name": "碧華國小",
        "Lat": 25.08492608,
        "Lon": 121.4902989,
        "Sequence": 3,
        "StationID": "10495"
      },
      {
        "Name": "五華街",
        "Lat": 25.08308,
        "Lon": 121.492,
        "Sequence": 4,
        "StationID": "3412"
      },
      {
        "Name": "自強五華街口",
        "Lat": 25.081862,
        "Lon": 121.49488,
        "Sequence": 5,
        "StationID": "3480"
      },
      {
        "Name": "五常郵局",
        "Lat": 25.08149815,
        "Lon": 121.4967495,
        "Sequence": 6,
        "StationID": "3411"
      },
      {
        "Name": "仁義街",
        "Lat": 25.079686,
        "Lon": 121.497746,
        "Sequence": 7,
        "StationID": "3415"
      },
      {
        "Name": "順德里",
        "Lat": 25.07606209,
        "Lon": 121.5017335,
        "Sequence": 8,
        "StationID": "60115"
      },
      {
        "Name": "龍門路底",
        "Lat": 25.07417605,
        "Lon": 121.5019297,
        "Sequence": 9,
        "StationID": "10610"
      },
      {
        "Name": "仁興街口",
        "Lat": 25.07346266,
        "Lon": 121.4997654,
        "Sequence": 10,
        "StationID": "10609"
      },
      {
        "Name": "仁愛街口",
        "Lat": 25.07284956,
        "Lon": 121.4974685,
        "Sequence": 11,
        "StationID": "3414"
      },
      {
        "Name": "德林寺(龍門路)",
        "Lat": 25.07236056,
        "Lon": 121.4957788,
        "Sequence": 12,
        "StationID": "3485"
      },
      {
        "Name": "捷運三重國小站",
        "Lat": 25.07022903,
        "Lon": 121.496763,
        "Sequence": 13,
        "StationID": "3402"
      },
      {
        "Name": "三重國小",
        "Lat": 25.06934,
        "Lon": 121.49806,
        "Sequence": 14,
        "StationID": "4803"
      },
      {
        "Name": "三和長榮路口",
        "Lat": 25.0683597687088,
        "Lon": 121.499510882057,
        "Sequence": 15,
        "StationID": "3434"
      },
      {
        "Name": "長生街口",
        "Lat": 25.0671811216025,
        "Lon": 121.500788879211,
        "Sequence": 16,
        "StationID": "3433"
      },
      {
        "Name": "三重派出所(福德北路)",
        "Lat": 25.064639,
        "Lon": 121.502278,
        "Sequence": 17,
        "StationID": "3398"
      },
      {
        "Name": "成淵高中",
        "Lat": 25.062226,
        "Lon": 121.518152,
        "Sequence": 18,
        "StationID": "165"
      },
      {
        "Name": "捷運雙連站",
        "Lat": 25.057346,
        "Lon": 121.518782,
        "Sequence": 19,
        "StationID": "1463"
      },
      {
        "Name": "馬偕醫院",
        "Lat": 25.05773178,
        "Lon": 121.5215461,
        "Sequence": 20,
        "StationID": "1458"
      },
      {
        "Name": "華泰飯店",
        "Lat": 25.05785405,
        "Lon": 121.5243951,
        "Sequence": 21,
        "StationID": "10414"
      },
      {
        "Name": "中山里(民生)",
        "Lat": 25.05795,
        "Lon": 121.52693,
        "Sequence": 22,
        "StationID": "10410"
      },
      {
        "Name": "中原街口(老人住宅)",
        "Lat": 25.05791,
        "Lon": 121.52919,
        "Sequence": 23,
        "StationID": "1346"
      },
      {
        "Name": "捷運行天宮站(民生東路)",
        "Lat": 25.05776804,
        "Lon": 121.5325543,
        "Sequence": 24,
        "StationID": "1570"
      },
      {
        "Name": "長春松江路口",
        "Lat": 25.05500621,
        "Lon": 121.533011,
        "Sequence": 25,
        "StationID": "1294"
      },
      {
        "Name": "捷運松江南京站",
        "Lat": 25.05228153,
        "Lon": 121.5329812,
        "Sequence": 26,
        "StationID": "1000806"
      },
      {
        "Name": "長安松江路口",
        "Lat": 25.04864879,
        "Lon": 121.5329145,
        "Sequence": 27,
        "StationID": "1280"
      },
      {
        "Name": "光華商場",
        "Lat": 25.04460839,
        "Lon": 121.5328606,
        "Sequence": 28,
        "StationID": "6684"
      },
      {
        "Name": "捷運忠孝新生站",
        "Lat": 25.040288,
        "Lon": 121.532693,
        "Sequence": 29,
        "StationID": "1000396"
      },
      {
        "Name": "仁愛新生路口",
        "Lat": 25.03851244,
        "Lon": 121.5326821,
        "Sequence": 30,
        "StationID": "6681"
      },
      {
        "Name": "捷運大安森林公園站",
        "Lat": 25.03352937220551,
        "Lon": 121.53542376322785,
        "Sequence": 31,
        "StationID": "1000057"
      },
      {
        "Name": "信義建國路口",
        "Lat": 25.033444679044305,
        "Lon": 121.53906320415818,
        "Sequence": 32,
        "StationID": "2127"
      },
      {
        "Name": "捷運大安站(信義)",
        "Lat": 25.033375050631893,
        "Lon": 121.54326844618258,
        "Sequence": 33,
        "StationID": "1000109"
      },
      {
        "Name": "信義大安路口",
        "Lat": 25.03331117343357,
        "Lon": 121.54563534893852,
        "Sequence": 34,
        "StationID": "2112"
      },
      {
        "Name": "信義敦化路口",
        "Lat": 25.033281131508218,
        "Lon": 121.54820957149374,
        "Sequence": 35,
        "StationID": "2286"
      },
      {
        "Name": "捷運信義安和站(信義)",
        "Lat": 25.033180975171472,
        "Lon": 121.55122687477919,
        "Sequence": 36,
        "StationID": "2119"
      },
      {
        "Name": "信義通化街口",
        "Lat": 25.0330873803964,
        "Lon": 121.553994124674,
        "Sequence": 37,
        "StationID": "2131"
      },
      {
        "Name": "信義光復路口",
        "Lat": 25.03311,
        "Lon": 121.55687,
        "Sequence": 38,
        "StationID": "2118"
      },
      {
        "Name": "世貿中心(莊敬)",
        "Lat": 25.031446,
        "Lon": 121.56127,
        "Sequence": 39,
        "StationID": "4645"
      },
      {
        "Name": "景新里",
        "Lat": 25.02923056,
        "Lon": 121.5624103,
        "Sequence": 40,
        "StationID": "2161"
      },
      {
        "Name": "臺北醫學大學",
        "Lat": 25.02827334,
        "Lon": 121.5632643,
        "Sequence": 41,
        "StationID": "2051"
      },
      {
        "Name": "信義國中(莊敬)",
        "Lat": 25.027402,
        "Lon": 121.565724,
        "Sequence": 42,
        "StationID": "1000142"
      },
      {
        "Name": "吳興國小(莊敬)",
        "Lat": 25.026725,
        "Lon": 121.568122,
        "Sequence": 43,
        "StationID": "20251"
      },
      {
        "Name": "松仁路",
        "Lat": 25.024432,
        "Lon": 121.569585,
        "Sequence": 44,
        "StationID": "4798"
      }
    ]
  },
  {
    "Route": "226",
    "SubRoute": "226",
    "Direction": 1,
    "Stops": [
      {
        "Name": "松仁路",
        "Lat": 25.02453056,
        "Lon": 121.5695997,
        "Sequence": 1,
        "StationID": "2082"
      },
      {
        "Name": "吳興國小(松仁)",
        "Lat": 25.026234,
        "Lon": 121.568628,
        "Sequence": 2,
        "StationID": "4797"
      },
      {
        "Name": "信義國中(莊敬)",
        "Lat": 25.027607,
        "Lon": 121.56521,
        "Sequence": 3,
        "StationID": "1000143"
      },
      {
        "Name": "臺北醫學大學",
        "Lat": 25.0282411640192,
        "Lon": 121.563488827932,
        "Sequence": 4,
        "StationID": "7004"
      },
      {
        "Name": "景新里",
        "Lat": 25.02952622,
        "Lon": 121.5623852,
        "Sequence": 5,
        "StationID": "2162"
      },
      {
        "Name": "世貿中心(莊敬)",
        "Lat": 25.031399,
        "Lon": 121.561326,
        "Sequence": 6,
        "StationID": "4646"
      },
      {
        "Name": "信義光復路口",
        "Lat": 25.0331,
        "Lon": 121.55813,
        "Sequence": 7,
        "StationID": "2117"
      },
      {
        "Name": "信義通化街口",
        "Lat": 25.03319343,
        "Lon": 121.5546221,
        "Sequence": 8,
        "StationID": "2132"
      },
      {
        "Name": "捷運信義安和站(信義)",
        "Lat": 25.033223,
        "Lon": 121.552849,
        "Sequence": 9,
        "StationID": "1000107"
      },
      {
        "Name": "信義敦化路口",
        "Lat": 25.03337757,
        "Lon": 121.549449,
        "Sequence": 10,
        "StationID": "2329"
      },
      {
        "Name": "信義大安路口",
        "Lat": 25.0333837,
        "Lon": 121.5461666,
        "Sequence": 11,
        "StationID": "2113"
      },
      {
        "Name": "捷運大安站(信義)",
        "Lat": 25.03340442,
        "Lon": 121.5438266,
        "Sequence": 12,
        "StationID": "2282"
      },
      {
        "Name": "捷運大安站(復興)",
        "Lat": 25.0341,
        "Lon": 121.54387,
        "Sequence": 13,
        "StationID": "6995"
      },
      {
        "Name": "東豐復興路口",
        "Lat": 25.035508,
        "Lon": 121.543866,
        "Sequence": 14,
        "StationID": "6994"
      },
      {
        "Name": "仁愛建國路口一",
        "Lat": 25.038167764865,
        "Lon": 121.53942763922,
        "Sequence": 15,
        "StationID": "2204"
      },
      {
        "Name": "新生南路口",
        "Lat": 25.03844798,
        "Lon": 121.5338761,
        "Sequence": 16,
        "StationID": "6917"
      },
      {
        "Name": "捷運忠孝新生站",
        "Lat": 25.04198981,
        "Lon": 121.5328758,
        "Sequence": 17,
        "StationID": "2264"
      },
      {
        "Name": "光華商場",
        "Lat": 25.045,
        "Lon": 121.53299,
        "Sequence": 18,
        "StationID": "6683"
      },
      {
        "Name": "長安松江路口",
        "Lat": 25.0482736559236,
        "Lon": 121.532997019655,
        "Sequence": 19,
        "StationID": "1281"
      },
      {
        "Name": "捷運松江南京站",
        "Lat": 25.0517997,
        "Lon": 121.533087,
        "Sequence": 20,
        "StationID": "6702"
      },
      {
        "Name": "長春松江路口",
        "Lat": 25.05453652,
        "Lon": 121.5331386,
        "Sequence": 21,
        "StationID": "1270"
      },
      {
        "Name": "捷運行天宮站(松江路)",
        "Lat": 25.057613818954,
        "Lon": 121.533176617617,
        "Sequence": 22,
        "StationID": "6704"
      },
      {
        "Name": "民權松江路口",
        "Lat": 25.062118989233,
        "Lon": 121.53321393502,
        "Sequence": 23,
        "StationID": "6705"
      },
      {
        "Name": "民權吉林路口",
        "Lat": 25.062636,
        "Lon": 121.529148,
        "Sequence": 24,
        "StationID": "1000162"
      },
      {
        "Name": "捷運中山國小站",
        "Lat": 25.0627519578754,
        "Lon": 121.5259472364,
        "Sequence": 25,
        "StationID": "1165603308"
      },
      {
        "Name": "民權中山路口",
        "Lat": 25.06285356,
        "Lon": 121.5230024,
        "Sequence": 26,
        "StationID": "1236"
      },
      {
        "Name": "捷運民權西路站",
        "Lat": 25.062948670718,
        "Lon": 121.518977516403,
        "Sequence": 27,
        "StationID": "1000393"
      },
      {
        "Name": "民權大龍街口",
        "Lat": 25.062976,
        "Lon": 121.516467,
        "Sequence": 28,
        "StationID": "1427"
      },
      {
        "Name": "三重派出所(福德北路)",
        "Lat": 25.0654421476294,
        "Lon": 121.502140176662,
        "Sequence": 29,
        "StationID": "10433"
      },
      {
        "Name": "長生街口",
        "Lat": 25.0669346622284,
        "Lon": 121.50123787463,
        "Sequence": 30,
        "StationID": "58041"
      },
      {
        "Name": "三和長榮路口",
        "Lat": 25.0685145593238,
        "Lon": 121.49949705522,
        "Sequence": 31,
        "StationID": "10426"
      },
      {
        "Name": "三重國小",
        "Lat": 25.06949,
        "Lon": 121.49817,
        "Sequence": 32,
        "StationID": "4804"
      },
      {
        "Name": "捷運三重國小站",
        "Lat": 25.070556,
        "Lon": 121.496767,
        "Sequence": 33,
        "StationID": "10434"
      },
      {
        "Name": "德林寺(龍門路)",
        "Lat": 25.07213708,
        "Lon": 121.4957652,
        "Sequence": 34,
        "StationID": "3486"
      },
      {
        "Name": "仁愛街口",
        "Lat": 25.072835,
        "Lon": 121.497903,
        "Sequence": 35,
        "StationID": "10602"
      },
      {
        "Name": "仁興街口",
        "Lat": 25.07336577,
        "Lon": 121.4999776,
        "Sequence": 36,
        "StationID": "3419"
      },
      {
        "Name": "龍門路底",
        "Lat": 25.07415508,
        "Lon": 121.5023487,
        "Sequence": 37,
        "StationID": "3489"
      },
      {
        "Name": "河邊北街(慈武宮)",
        "Lat": 25.07583056,
        "Lon": 121.5020419,
        "Sequence": 38,
        "StationID": "3465"
      },
      {
        "Name": "仁義街",
        "Lat": 25.07973,
        "Lon": 121.497877,
        "Sequence": 39,
        "StationID": "13223"
      },
      {
        "Name": "五常郵局",
        "Lat": 25.081917,
        "Lon": 121.496702,
        "Sequence": 40,
        "StationID": "13224"
      },
      {
        "Name": "自強五華街口",
        "Lat": 25.081759,
        "Lon": 121.494458,
        "Sequence": 41,
        "StationID": "10449"
      },
      {
        "Name": "五華街",
        "Lat": 25.083191,
        "Lon": 121.492158,
        "Sequence": 42,
        "StationID": "10499"
      },
      {
        "Name": "碧華國小",
        "Lat": 25.08485455,
        "Lon": 121.490605,
        "Sequence": 43,
        "StationID": "3479"
      },
      {
        "Name": "分子尾",
        "Lat": 25.08727296,
        "Lon": 121.4879548,
        "Sequence": 44,
        "StationID": "10493"
      }
    ]
  }
]