[
  {
    "Route": "小21",
    "SubRoute": "小21",
    "Direction": 0,
    "Stops": [
      {
        "Name": "致遠新村",
        "Lat": 25.1430158716225,
        "Lon": 121.490788784285,
        "Sequence": 1,
        "StationID": "7242"
      },
      {
        "Name": "集應廟",
        "Lat": 25.1425428196683,
        "Lon": 121.489850026829,
        "Sequence": 2,
        "StationID": "50061"
      },
      {
        "Name": "大華柏園",
        "Lat": 25.143659,
        "Lon": 121.488841,
        "Sequence": 3,
        "StationID": "4778"
      },
      {
        "Name": "大華柏園",
        "Lat": 25.14363,
        "Lon": 121.48868,
        "Sequence": 4,
        "StationID": "70053"
      },
      {
        "Name": "集應廟",
        "Lat": 25.1423265533076,
        "Lon": 121.489860552554,
        "Sequence": 5,
        "StationID": "450"
      },
      {
        "Name": "稻香圖書館",
        "Lat": 25.13974,
        "Lon": 121.48958,
        "Sequence": 6,
        "StationID": "50059"
      },
      {
        "Name": "復興崗",
        "Lat": 25.13807076,
        "Lon": 121.4923517,
        "Sequence": 7,
        "StationID": "416"
      },
      {
        "Name": "文化國小",
        "Lat": 25.1366901,
        "Lon": 121.4957248,
        "Sequence": 8,
        "StationID": "90"
      },
      {
        "Name": "大業中央北路口",
        "Lat": 25.135605,
        "Lon": 121.498029,
        "Sequence": 9,
        "StationID": "50062"
      },
      {
        "Name": "北投國小",
        "Lat": 25.13384543,
        "Lon": 121.5007209,
        "Sequence": 10,
        "StationID": "120"
      },
      {
        "Name": "北投市場(磺港)",
        "Lat": 25.13244,
        "Lon": 121.50318,
        "Sequence": 11,
        "StationID": "116"
      },
      {
        "Name": "福安宮",
        "Lat": 25.13064857,
        "Lon": 121.5046188,
        "Sequence": 12,
        "StationID": "492"
      },
      {
        "Name": "石門",
        "Lat": 25.12933,
        "Lon": 121.50566,
        "Sequence": 13,
        "StationID": "7227"
      },
      {
        "Name": "清江國小",
        "Lat": 25.12728,
        "Lon": 121.50766,
        "Sequence": 14,
        "StationID": "396"
      },
      {
        "Name": "奇岩新村",
        "Lat": 25.125899152288,
        "Lon": 121.50815979629,
        "Sequence": 15,
        "StationID": "213"
      },
      {
        "Name": "公館華廈",
        "Lat": 25.12460199,
        "Lon": 121.506468,
        "Sequence": 16,
        "StationID": "84"
      },
      {
        "Name": "奇岩一站",
        "Lat": 25.1231,
        "Lon": 121.50461,
        "Sequence": 17,
        "StationID": "212"
      },
      {
        "Name": "崇仁路口",
        "Lat": 25.12247,
        "Lon": 121.50284,
        "Sequence": 18,
        "StationID": "7234"
      },
      {
        "Name": "捷運唭哩岸站二(西安)",
        "Lat": 25.12098,
        "Lon": 121.50419,
        "Sequence": 19,
        "StationID": "382"
      },
      {
        "Name": "捷運唭哩岸站一(西安)",
        "Lat": 25.120365436068,
        "Lon": 121.507204221793,
        "Sequence": 20,
        "StationID": "384"
      },
      {
        "Name": "捷運唭哩岸站一(東華)",
        "Lat": 25.120913,
        "Lon": 121.50736,
        "Sequence": 21,
        "StationID": "385"
      },
      {
        "Name": "捷運唭哩岸站二(東華)",
        "Lat": 25.1213471298747,
        "Lon": 121.505229693995,
        "Sequence": 22,
        "StationID": "387"
      },
      {
        "Name": "立農國小一",
        "Lat": 25.120242,
        "Lon": 121.503642,
        "Sequence": 23,
        "StationID": "1165603380"
      },
      {
        "Name": "八仙里",
        "Lat": 25.120282,
        "Lon": 121.502062,
        "Sequence": 24,
        "StationID": "1165603332"
      },
      {
        "Name": "下八仙土地公廟",
        "Lat": 25.115812,
        "Lon": 121.482799,
        "Sequence": 26,
        "StationID": "1001293"
      }
    ]
  },
  {
    "Route": "小21",
    "SubRoute": "小21",
    "Direction": 1,
    "Stops": [
      {
        "Name": "八仙里",
        "Lat": 25.120327,
        "Lon": 121.502215,
        "Sequence": 1,
        "StationID": "1165604771"
      },
      {
        "Name": "捷運唭哩岸站一(西安)",
        "Lat": 25.120365436068,
        "Lon": 121.507204221793,
        "Sequence": 2,
        "StationID": "384"
      },
      {
        "Name": "捷運唭哩岸站一(東華)",
        "Lat": 25.120913,
        "Lon": 121.50736,
        "Sequence": 3,
        "StationID": "385"
      },
      {
        "Name": "捷運唭哩岸站二(東華)",
        "Lat": 25.1213471298747,
        "Lon": 121.505229693995,
        "Sequence": 4,
        "StationID": "387"
      },
      {
        "Name": "崇仁路口",
        "Lat": 25.1223766584811,
        "Lon": 121.502948188139,
        "Sequence": 5,
        "StationID": "345"
      },
      {
        "Name": "奇岩一站",
        "Lat": 25.12314,
        "Lon": 121.50476,
        "Sequence": 6,
        "StationID": "7233"
      },
      {
        "Name": "公館華廈",
        "Lat": 25.124355020579,
        "Lon": 121.506346272697,
        "Sequence": 7,
        "StationID": "7232"
      },
      {
        "Name": "奇岩新村",
        "Lat": 25.12566,
        "Lon": 121.50829,
        "Sequence": 8,
        "StationID": "7231"
      },
      {
        "Name": "清江國小",
        "Lat": 25.12764,
        "Lon": 121.5076,
        "Sequence": 9,
        "StationID": "7230"
      },
      {
        "Name": "石門",
        "Lat": 25.12939742,
        "Lon": 121.5056715,
        "Sequence": 10,
        "StationID": "7229"
      },
      {
        "Name": "福安宮",
        "Lat": 25.13111,
        "Lon": 121.504679,
        "Sequence": 11,
        "StationID": "7244"
      },
      {
        "Name": "北投市場(公館路)",
        "Lat": 25.13267,
        "Lon": 121.50369,
        "Sequence": 12,
        "StationID": "7243"
      },
      {
        "Name": "北投國小",
        "Lat": 25.13361526,
        "Lon": 121.50136,
        "Sequence": 13,
        "StationID": "50057"
      },
      {
        "Name": "大業中央北路口",
        "Lat": 25.13580742,
        "Lon": 121.4978915,
        "Sequence": 14,
        "StationID": "36"
      },
      {
        "Name": "文化國小",
        "Lat": 25.13690086,
        "Lon": 121.4955289,
        "Sequence": 15,
        "StationID": "3962"
      },
      {
        "Name": "復興崗",
        "Lat": 25.13812,
        "Lon": 121.4926,
        "Sequence": 16,
        "StationID": "3963"
      },
      {
        "Name": "稻香圖書館",
        "Lat": 25.14056,
        "Lon": 121.48966,
        "Sequence": 17,
        "StationID": "511"
      },
      {
        "Name": "集應廟",
        "Lat": 25.1425428196683,
        "Lon": 121.489850026829,
        "Sequence": 18,
        "StationID": "50061"
      },
      {
        "Name": "大華柏園",
        "Lat": 25.143659,
        "Lon": 121.488841,
        "Sequence": 19,
        "StationID": "4778"
      },
      {
        "Name": "大華柏園",
        "Lat": 25.14363,
        "Lon": 121.48868,
        "Sequence": 20,
        "StationID": "70053"
      },
      {
        "Name": "集應廟",
        "Lat": 25.1423265533076,
        "Lon": 121.489860552554,
        "Sequence": 21,
        "StationID": "450"
      },
      {
        "Name": "致遠新村",
        "Lat": 25.1430048049067,
        "Lon": 121.490879066621,
        "Sequence": 22,
        "StationID": "302"
      }
    ]
  },
  {
    "Route": "小21",
    "SubRoute": "小21經立農國小一",
    "Direction": 0,
    "Stops": [
      {
        "Name": "致遠新村",
        "Lat": 25.1430158716225,
        "Lon": 121.490788784285,
        "Sequence": 1,
        "StationID": "7242"
      },
      {
        "Name": "集應廟",
        "Lat": 25.1425428196683,
        "Lon": 121.489850026829,
        "Sequence": 2,
        "StationID": "50061"
      },
      {
        "Name": "大華柏園",
        "Lat": 25.143659,
        "Lon": 121.488841,
        "Sequence": 3,
        "StationID": "4778"
      },
      {
        "Name": "大華柏園",
        "Lat": 25.14363,
        "Lon": 121.48868,
        "Sequence": 4,
        "StationID": "70053"
      },
      {
        "Name": "集應廟",
        "Lat": 25.1423265533076,
        "Lon": 121.489860552554,
        "Sequence": 5,
        "StationID": "450"
      },
      {
        "Name": "稻香圖書館",
        "Lat": 25.13974,
        "Lon": 121.48958,
        "Sequence": 6,
        "StationID": "50059"
      },
      {
        "Name": "復興崗",
        "Lat": 25.13807076,
        "Lon": 121.4923517,
        "Sequence": 7,
        "StationID": "416"
      },
      {
        "Name": "文化國小",
        "Lat": 25.1366901,
        "Lon": 121.4957248,
        "Sequence": 8,
        "StationID": "90"
      },
      {
        "Name": "大業中央北路口",
        "Lat": 25.135605,
        "Lon": 121.498029,
        "Sequence": 9,
        "StationID": "50062"
      },
      {
        "Name": "北投國小",
        "Lat": 25.13384543,
        "Lon": 121.5007209,
        "Sequence": 10,
        "StationID": "120"
      },
      {
        "Name": "北投市場(磺港)",
        "Lat": 25.13244,
        "Lon": 121.50318,
        "Sequence": 11,
        "StationID": "116"
      },
      {
        "Name": "福安宮",
        "Lat": 25.13064857,
        "Lon": 121.5046188,
        "Sequence": 12,
        "StationID": "492"
      },
      {
        "Name": "石門",
        "Lat": 25.12933,
        "Lon": 121.50566,
        "Sequence": 13,
        "StationID": "7227"
      },
      {
        "Name": "清江國小",
        "Lat": 25.12728,
        "Lon": 121.50766,
        "Sequence": 14,
        "StationID": "396"
      },
      {
        "Name": "奇岩新村",
        "Lat": 25.125899152288,
        "Lon": 121.50815979629,
        "Sequence": 15,
        "StationID": "213"
      },
      {
        "Name": "公館華廈",
        "Lat": 25.12460199,
        "Lon": 121.506468,
        "Sequence": 16,
        "StationID": "84"
      },
      {
        "Name": "奇岩一站",
        "Lat": 25.1231,
        "Lon": 121.50461,
        "Sequence": 17,
        "StationID": "212"
      },
      {
        "Name": "崇仁路口",
        "Lat": 25.12247,
        "Lon": 121.50284,
        "Sequence": 18,
        "StationID": "7234"
      },
      {
        "Name": "捷運唭哩岸站二(西安)",
        "Lat": 25.12098,
        "Lon": 121.50419,
        "Sequence": 19,
        "StationID": "382"
      },
      {
        "Name": "捷運唭哩岸站一(西安)",
        "Lat": 25.120365436068,
        "Lon": 121.507204221793,
        "Sequence": 20,
        "StationID": "384"
      },
      {
        "Name": "捷運唭哩岸站一(東華)",
        "Lat": 25.120913,
        "Lon": 121.50736,
        "Sequence": 21,
        "StationID": "385"
      },
      {
        "Name": "捷運唭哩岸站二(東華)",
        "Lat": 25.1213471298747,
        "Lon": 121.505229693995,
        "Sequence": 22,
        "StationID": "387"
      },
      {
        "Name": "立農國小一",
        "Lat": 25.120242,
        "Lon": 121.503642,
        "Sequence": 23,
        "StationID": "1165603380"
      },
      {
        "Name": "八仙里",
        "Lat": 25.120282,
        "Lon": 121.502062,
        "Sequence": 24,
        "StationID": "1165603332"
      },
      {
        "Name": "下八仙土地公廟",
        "Lat": 25.115812,
        "Lon": 121.482799,
        "Sequence": 26,
        "StationID": "1001293"
      }
    ]
  },
  {
    "Route": "小21",
    "SubRoute": "小21經立農國小一",
    "Direction": 1,
    "Stops": [
      {
        "Name": "立農國小一",
        "Lat": 25.119973,
        "Lon": 121.503783,
        "Sequence": 1,
        "StationID": "1165608715"
      },
      {
        "Name": "捷運唭哩岸站一(西安)",
        "Lat": 25.120365436068,
        "Lon": 121.507204221793,
        "Sequence": 2,
        "StationID": "384"
      },
      {
        "Name": "捷運唭哩岸站一(東華)",
        "Lat": 25.120913,
        "Lon": 121.50736,
        "Sequence": 3,
        "StationID": "385"
      },
      {
        "Name": "捷運唭哩岸站二(東華)",
        "Lat": 25.1213471298747,
        "Lon": 121.505229693995,
        "Sequence": 4,
        "StationID": "387"
      },
      {
        "Name": "崇仁路口",
        "Lat": 25.1223766584811,
        "Lon": 121.502948188139,
        "Sequence": 5,
        "StationID": "345"
      },
      {
        "Name": "奇岩一站",
        "Lat": 25.12314,
        "Lon": 121.50476,
        "Sequence": 6,
        "StationID": "7233"
      },
      {
        "Name": "公館華廈",
        "Lat": 25.124355020579,
        "Lon": 121.506346272697,
        "Sequence": 7,
        "StationID": "7232"
      },
      {
        "Name": "奇岩新村",
        "Lat": 25.12566,
        "Lon": 121.50829,
        "Sequence": 8,
        "StationID": "7231"
      },
      {
        "Name": "清江國小",
        "Lat": 25.12764,
        "Lon": 121.5076,
        "Sequence": 9,
        "StationID": "7230"
      },
      {
        "Name": "石門",
        "Lat": 25.12939742,
        "Lon": 121.5056715,
        "Sequence": 10,
        "StationID": "7229"
      },
      {
        "Name": "福安宮",
        "Lat": 25.13111,
        "Lon": 121.504679,
        "Sequence": 11,
        "StationID": "7244"
      },
      {
        "Name": "北投市場(公館路)",
        "Lat": 25.13267,
        "Lon": 121.50369,
        "Sequence": 12,
        "StationID": "7243"
      },
      {
        "Name": "北投國小",
        "Lat": 25.13361526,
        "Lon": 121.50136,
        "Sequence": 13,
        "StationID": "50057"
      },
      {
        "Name": "大業中央北路口",
        "Lat": 25.13580742,
        "Lon": 121.4978915,
        "Sequence": 14,
        "StationID": "36"
      },
      {
        "Name": "文化國小",
        "Lat": 25.13690086,
        "Lon": 121.4955289,
        "Sequence": 15,
        "StationID": "3962"
      },
      {
        "Name": "復興崗",
        "Lat": 25.13812,
        "Lon": 121.4926,
        "Sequence": 16,
        "StationID": "3963"
      },
      {
        "Name": "稻香圖書館",
        "Lat": 25.14056,
        "Lon": 121.48966,
        "Sequence": 17,
        "StationID": "511"
      },
      {
        "Name": "集應廟",
        "Lat": 25.1425428196683,
        "Lon": 121.489850026829,
        "Sequence": 18,
        "StationID": "50061"
      },
      {
        "Name": "大華柏園",
        "Lat": 25.143659,
        "Lon": 121.488841,
        "Sequence": 19,
        "StationID": "4778"
      },
      {
        "Name": "大華柏園",
        "Lat": 25.14363,
        "Lon": 121.48868,
        "Sequence": 20,
        "StationID": "70053"
      },
      {
        "Name": "集應廟",
        "Lat": 25.1423265533076,
        "Lon": 121.489860552554,
        "Sequence": 21,
        "StationID": "450"
      },
      {
        "Name": "致遠新村",
        "Lat": 25.1430048049067,
        "Lon": 121.490879066621,
        "Sequence": 22,
        "StationID": "302"
      }
    ]
  }
]