[
  {
    "Route": "270",
    "SubRoute": "270",
    "Direction": 0,
    "Stops": [
      {
        "Name": "中華科技大學(正門)",
        "Lat": 25.03382827,
        "Lon": 121.6097652,
        "Sequence": 1,
        "StationID": "4085"
      },
      {
        "Name": "中華科技大學",
        "Lat": 25.033428,
        "Lon": 121.611345,
        "Sequence": 2,
        "StationID": "1613"
      },
      {
        "Name": "軍人公墓",
        "Lat": 25.0332955,
        "Lon": 121.6121944,
        "Sequence": 3,
        "StationID": "1000965"
      },
      {
        "Name": "凌雲站",
        "Lat": 25.0346121838879,
        "Lon": 121.61448946069,
        "Sequence": 4,
        "StationID": "3870"
      },
      {
        "Name": "九如里二",
        "Lat": 25.034863,
        "Lon": 121.61612,
        "Sequence": 5,
        "StationID": "1618"
      },
      {
        "Name": "凌雲五村",
        "Lat": 25.035872068306,
        "Lon": 121.61695169081,
        "Sequence": 6,
        "StationID": "50024"
      },
      {
        "Name": "九如里一",
        "Lat": 25.03770122,
        "Lon": 121.6170236,
        "Sequence": 7,
        "StationID": "1616"
      },
      {
        "Name": "胡適公園",
        "Lat": 25.040597,
        "Lon": 121.617633,
        "Sequence": 8,
        "StationID": "50023"
      },
      {
        "Name": "中研院",
        "Lat": 25.043422,
        "Lon": 121.616561,
        "Sequence": 9,
        "StationID": "50026"
      },
      {
        "Name": "中研新村",
        "Lat": 25.045074,
        "Lon": 121.615639,
        "Sequence": 10,
        "StationID": "1000313"
      },
      {
        "Name": "圓拱橋",
        "Lat": 25.047462,
        "Lon": 121.615728,
        "Sequence": 11,
        "StationID": "50022"
      },
      {
        "Name": "南港水廠",
        "Lat": 25.048610235261958,
        "Lon": 121.61601678871844,
        "Sequence": 12,
        "StationID": "50021"
      },
      {
        "Name": "誠正國中",
        "Lat": 25.0515460114719,
        "Lon": 121.61603141641,
        "Sequence": 13,
        "StationID": "50020"
      },
      {
        "Name": "國家文官學院",
        "Lat": 25.05311326,
        "Lon": 121.6145567,
        "Sequence": 14,
        "StationID": "1693"
      },
      {
        "Name": "台北生技園區",
        "Lat": 25.05265346,
        "Lon": 121.610465,
        "Sequence": 15,
        "StationID": "3922"
      },
      {
        "Name": "捷運南港站",
        "Lat": 25.05226,
        "Lon": 121.607245,
        "Sequence": 16,
        "StationID": "1699"
      },
      {
        "Name": "南港機廠",
        "Lat": 25.051558036997456,
        "Lon": 121.60111276224704,
        "Sequence": 17,
        "StationID": "4650"
      },
      {
        "Name": "捷運昆陽站",
        "Lat": 25.050346,
        "Lon": 121.593165,
        "Sequence": 18,
        "StationID": "1697"
      },
      {
        "Name": "陸軍後勤指揮部",
        "Lat": 25.04983,
        "Lon": 121.59077,
        "Sequence": 19,
        "StationID": "3923"
      },
      {
        "Name": "國華新村",
        "Lat": 25.04908468,
        "Lon": 121.5878431,
        "Sequence": 20,
        "StationID": "3924"
      },
      {
        "Name": "聯合醫院忠孝院區",
        "Lat": 25.0475212158758,
        "Lon": 121.584229738588,
        "Sequence": 21,
        "StationID": "4086"
      },
      {
        "Name": "捷運後山埤站(忠孝)",
        "Lat": 25.04457266,
        "Lon": 121.582072,
        "Sequence": 22,
        "StationID": "1701"
      },
      {
        "Name": "春光公園",
        "Lat": 25.042632,
        "Lon": 121.580447,
        "Sequence": 23,
        "StationID": "4087"
      },
      {
        "Name": "永春里(忠孝)",
        "Lat": 25.041555,
        "Lon": 121.578931,
        "Sequence": 24,
        "StationID": "3926"
      },
      {
        "Name": "捷運永春站(忠孝)",
        "Lat": 25.040967,
        "Lon": 121.575743,
        "Sequence": 25,
        "StationID": "3927"
      },
      {
        "Name": "市立工農",
        "Lat": 25.04110667625752,
        "Lon": 121.57227674964417,
        "Sequence": 26,
        "StationID": "3928"
      },
      {
        "Name": "消防局(忠孝)",
        "Lat": 25.04115,
        "Lon": 121.56996,
        "Sequence": 27,
        "StationID": "2138"
      },
      {
        "Name": "捷運市政府站",
        "Lat": 25.04124,
        "Lon": 121.56629,
        "Sequence": 28,
        "StationID": "2149"
      },
      {
        "Name": "聯合報",
        "Lat": 25.04132664,
        "Lon": 121.5630899,
        "Sequence": 29,
        "StationID": "3929"
      },
      {
        "Name": "國父紀念館",
        "Lat": 25.03768543,
        "Lon": 121.5609264,
        "Sequence": 30,
        "StationID": "6922"
      },
      {
        "Name": "仁愛光復路口",
        "Lat": 25.0377,
        "Lon": 121.55781,
        "Sequence": 31,
        "StationID": "6923"
      },
      {
        "Name": "仁愛延吉街口",
        "Lat": 25.0377743210687,
        "Lon": 121.555779394717,
        "Sequence": 32,
        "StationID": "6926"
      },
      {
        "Name": "仁愛國泰醫院",
        "Lat": 25.0378288007837,
        "Lon": 121.553215911831,
        "Sequence": 33,
        "StationID": "6925"
      },
      {
        "Name": "仁愛安和路口",
        "Lat": 25.03796,
        "Lon": 121.55181,
        "Sequence": 34,
        "StationID": "6924"
      },
      {
        "Name": "仁愛敦化路口(圓環)",
        "Lat": 25.03801348,
        "Lon": 121.5472892,
        "Sequence": 35,
        "StationID": "6919"
      },
      {
        "Name": "仁愛復興路口(福華飯店)",
        "Lat": 25.03806,
        "Lon": 121.544071,
        "Sequence": 36,
        "StationID": "1869"
      },
      {
        "Name": "仁愛建國路口一",
        "Lat": 25.038167764865,
        "Lon": 121.53942763922,
        "Sequence": 37,
        "StationID": "2204"
      },
      {
        "Name": "幸安國小",
        "Lat": 25.0382385066713,
        "Lon": 121.534337688959,
        "Sequence": 38,
        "StationID": "1202"
      },
      {
        "Name": "仁愛新生路口",
        "Lat": 25.03824508,
        "Lon": 121.5331329,
        "Sequence": 39,
        "StationID": "1165603230"
      },
      {
        "Name": "仁愛臨沂街口",
        "Lat": 25.03834,
        "Lon": 121.52952,
        "Sequence": 40,
        "StationID": "1872"
      },
      {
        "Name": "仁愛杭州路口",
        "Lat": 25.03835233,
        "Lon": 121.5254546,
        "Sequence": 41,
        "StationID": "1865"
      },
      {
        "Name": "仁愛林森路口",
        "Lat": 25.03891262,
        "Lon": 121.5211551,
        "Sequence": 42,
        "StationID": "6943"
      },
      {
        "Name": "仁愛中山路口",
        "Lat": 25.03926197,
        "Lon": 121.5183669,
        "Sequence": 43,
        "StationID": "1861"
      },
      {
        "Name": "一女中(貴陽)",
        "Lat": 25.0386560843846,
        "Lon": 121.514498656168,
        "Sequence": 44,
        "StationID": "4611"
      },
      {
        "Name": "東吳大學城中校區",
        "Lat": 25.03918,
        "Lon": 121.50941,
        "Sequence": 45,
        "StationID": "4610"
      },
      {
        "Name": "小南門(和平院區)",
        "Lat": 25.0372303563017,
        "Lon": 121.507744829313,
        "Sequence": 46,
        "StationID": "4088"
      },
      {
        "Name": "捷運西門站",
        "Lat": 25.0409460489424,
        "Lon": 121.508219187662,
        "Sequence": 47,
        "StationID": "50040"
      }
    ]
  },
  {
    "Route": "270",
    "SubRoute": "270",
    "Direction": 1,
    "Stops": [
      {
        "Name": "臺北市憲兵隊",
        "Lat": 25.04072737,
        "Lon": 121.5091239,
        "Sequence": 1,
        "StationID": "1000435"
      },
      {
        "Name": "東吳大學城中校區",
        "Lat": 25.0390539,
        "Lon": 121.5091008,
        "Sequence": 2,
        "StationID": "1936"
      },
      {
        "Name": "一女中(貴陽)",
        "Lat": 25.0385833202908,
        "Lon": 121.514486272409,
        "Sequence": 3,
        "StationID": "4612"
      },
      {
        "Name": "仁愛中山路口",
        "Lat": 25.03912915,
        "Lon": 121.5184523,
        "Sequence": 4,
        "StationID": "1860"
      },
      {
        "Name": "仁愛林森路口",
        "Lat": 25.03876925,
        "Lon": 121.5213453,
        "Sequence": 5,
        "StationID": "6942"
      },
      {
        "Name": "仁愛紹興街口",
        "Lat": 25.0384529,
        "Lon": 121.5235878,
        "Sequence": 6,
        "StationID": "1868"
      },
      {
        "Name": "仁愛臨沂街口",
        "Lat": 25.03821895,
        "Lon": 121.5280453,
        "Sequence": 7,
        "StationID": "2216"
      },
      {
        "Name": "仁愛新生路口",
        "Lat": 25.038163002655,
        "Lon": 121.532402806246,
        "Sequence": 8,
        "StationID": "2214"
      },
      {
        "Name": "幸安國小",
        "Lat": 25.03804468,
        "Lon": 121.5343357,
        "Sequence": 9,
        "StationID": "75"
      },
      {
        "Name": "仁愛建國路口一",
        "Lat": 25.0380314055468,
        "Lon": 121.537072110796,
        "Sequence": 10,
        "StationID": "1867"
      },
      {
        "Name": "仁愛建國路口二",
        "Lat": 25.03796159361127,
        "Lon": 121.54077520473633,
        "Sequence": 11,
        "StationID": "2205"
      },
      {
        "Name": "仁愛復興路口(福華飯店)",
        "Lat": 25.037854,
        "Lon": 121.543165,
        "Sequence": 12,
        "StationID": "1165604754"
      },
      {
        "Name": "仁愛大安路口(仁愛醫院)",
        "Lat": 25.03784,
        "Lon": 121.545738,
        "Sequence": 13,
        "StationID": "1000138"
      },
      {
        "Name": "仁愛敦化路口(圓環)",
        "Lat": 25.03778353,
        "Lon": 121.5476903,
        "Sequence": 14,
        "StationID": "1201"
      },
      {
        "Name": "仁愛安和路口",
        "Lat": 25.0377212341364,
        "Lon": 121.550883391345,
        "Sequence": 15,
        "StationID": "1863"
      },
      {
        "Name": "仁愛國泰醫院",
        "Lat": 25.037669,
        "Lon": 121.552717,
        "Sequence": 16,
        "StationID": "2305"
      },
      {
        "Name": "仁愛延吉街口",
        "Lat": 25.0376217119559,
        "Lon": 121.555234376148,
        "Sequence": 17,
        "StationID": "1864"
      },
      {
        "Name": "仁愛光復路口",
        "Lat": 25.03754,
        "Lon": 121.55728,
        "Sequence": 18,
        "StationID": "1862"
      },
      {
        "Name": "國父紀念館",
        "Lat": 25.037543,
        "Lon": 121.56118,
        "Sequence": 19,
        "StationID": "6921"
      },
      {
        "Name": "市政府(市府)",
        "Lat": 25.038332,
        "Lon": 121.563754,
        "Sequence": 20,
        "StationID": "2063"
      },
      {
        "Name": "捷運市政府站",
        "Lat": 25.04100991,
        "Lon": 121.5668354,
        "Sequence": 21,
        "StationID": "3916"
      },
      {
        "Name": "市立工農",
        "Lat": 25.04085411,
        "Lon": 121.5726502,
        "Sequence": 22,
        "StationID": "2055"
      },
      {
        "Name": "捷運永春站(忠孝)",
        "Lat": 25.040733,
        "Lon": 121.575809,
        "Sequence": 23,
        "StationID": "2153"
      },
      {
        "Name": "永春里(忠孝)",
        "Lat": 25.04110183,
        "Lon": 121.5785081,
        "Sequence": 24,
        "StationID": "2059"
      },
      {
        "Name": "春光公園",
        "Lat": 25.042737,
        "Lon": 121.580888,
        "Sequence": 25,
        "StationID": "2086"
      },
      {
        "Name": "捷運後山埤站(忠孝)",
        "Lat": 25.04445242,
        "Lon": 121.5822223,
        "Sequence": 26,
        "StationID": "3917"
      },
      {
        "Name": "聯合醫院忠孝院區",
        "Lat": 25.048227,
        "Lon": 121.585736,
        "Sequence": 27,
        "StationID": "1716"
      },
      {
        "Name": "國華新村",
        "Lat": 25.0488726204446,
        "Lon": 121.587873523899,
        "Sequence": 28,
        "StationID": "1696"
      },
      {
        "Name": "陸軍後勤指揮部",
        "Lat": 25.04964,
        "Lon": 121.59096,
        "Sequence": 29,
        "StationID": "1719"
      },
      {
        "Name": "捷運昆陽站",
        "Lat": 25.05036,
        "Lon": 121.594275,
        "Sequence": 30,
        "StationID": "1165604761"
      },
      {
        "Name": "衛生福利部",
        "Lat": 25.050768,
        "Lon": 121.596331,
        "Sequence": 31,
        "StationID": "1165604495"
      },
      {
        "Name": "南港機廠",
        "Lat": 25.051694,
        "Lon": 121.604333,
        "Sequence": 32,
        "StationID": "4651"
      },
      {
        "Name": "捷運南港站",
        "Lat": 25.051922100664566,
        "Lon": 121.60671395938819,
        "Sequence": 33,
        "StationID": "50124"
      },
      {
        "Name": "台北生技園區",
        "Lat": 25.052446715063496,
        "Lon": 121.61111038525819,
        "Sequence": 34,
        "StationID": "1607"
      },
      {
        "Name": "國家文官學院",
        "Lat": 25.05281991,
        "Lon": 121.6139003,
        "Sequence": 35,
        "StationID": "1694"
      },
      {
        "Name": "誠正國中",
        "Lat": 25.0518036904539,
        "Lon": 121.615865875754,
        "Sequence": 36,
        "StationID": "1711"
      },
      {
        "Name": "南港水廠",
        "Lat": 25.049543,
        "Lon": 121.615625,
        "Sequence": 37,
        "StationID": "1650"
      },
      {
        "Name": "圓拱橋",
        "Lat": 25.047199,
        "Lon": 121.615363,
        "Sequence": 38,
        "StationID": "1707"
      },
      {
        "Name": "中研新村",
        "Lat": 25.044722099556466,
        "Lon": 121.61558513647303,
        "Sequence": 39,
        "StationID": "1611"
      },
      {
        "Name": "中研院",
        "Lat": 25.04313,
        "Lon": 121.61648,
        "Sequence": 40,
        "StationID": "1610"
      },
      {
        "Name": "胡適公園",
        "Lat": 25.039528,
        "Lon": 121.617338,
        "Sequence": 41,
        "StationID": "1687"
      },
      {
        "Name": "九如里一",
        "Lat": 25.03813813,
        "Lon": 121.6169015,
        "Sequence": 42,
        "StationID": "1620"
      },
      {
        "Name": "凌雲五村",
        "Lat": 25.036259,
        "Lon": 121.616893,
        "Sequence": 43,
        "StationID": "1690"
      },
      {
        "Name": "九如里二",
        "Lat": 25.03500483,
        "Lon": 121.6161708,
        "Sequence": 44,
        "StationID": "1621"
      },
      {
        "Name": "凌雲站",
        "Lat": 25.03474253,
        "Lon": 121.6147203,
        "Sequence": 45,
        "StationID": "1686"
      },
      {
        "Name": "中華科技大學(正門)",
        "Lat": 25.03382827,
        "Lon": 121.6097652,
        "Sequence": 46,
        "StationID": "4085"
      },
      {
        "Name": "中華科技大學",
        "Lat": 25.033428,
        "Lon": 121.611345,
        "Sequence": 47,
        "StationID": "1613"
      }
    ]
  },
  {
    "Route": "270",
    "SubRoute": "270假日",
    "Direction": 0,
    "Stops": [
      {
        "Name": "中華科技大學(正門)",
        "Lat": 25.03382827,
        "Lon": 121.6097652,
        "Sequence": 1,
        "StationID": "4085"
      },
      {
        "Name": "中華科技大學",
        "Lat": 25.033428,
        "Lon": 121.611345,
        "Sequence": 2,
        "StationID": "1613"
      },
      {
        "Name": "軍人公墓",
        "Lat": 25.0332955,
        "Lon": 121.6121944,
        "Sequence": 3,
        "StationID": "1000965"
      },
      {
        "Name": "凌雲站",
        "Lat": 25.0346121838879,
        "Lon": 121.61448946069,
        "Sequence": 4,
        "StationID": "3870"
      },
      {
        "Name": "九如里二",
        "Lat": 25.034863,
        "Lon": 121.61612,
        "Sequence": 5,
        "StationID": "1618"
      },
      {
        "Name": "凌雲五村",
        "Lat": 25.035872068306,
        "Lon": 121.61695169081,
        "Sequence": 6,
        "StationID": "50024"
      },
      {
        "Name": "九如里一",
        "Lat": 25.03770122,
        "Lon": 121.6170236,
        "Sequence": 7,
        "StationID": "1616"
      },
      {
        "Name": "胡適公園",
        "Lat": 25.040597,
        "Lon": 121.617633,
        "Sequence": 8,
        "StationID": "50023"
      },
      {
        "Name": "中研院",
        "Lat": 25.043422,
        "Lon": 121.616561,
        "Sequence": 9,
        "StationID": "50026"
      },
      {
        "Name": "中研新村",
        "Lat": 25.045074,
        "Lon": 121.615639,
        "Sequence": 10,
        "StationID": "1000313"
      },
      {
        "Name": "圓拱橋",
        "Lat": 25.047462,
        "Lon": 121.615728,
        "Sequence": 11,
        "StationID": "50022"
      },
      {
        "Name": "南港水廠",
        "Lat": 25.048610235261958,
        "Lon": 121.61601678871844,
        "Sequence": 12,
        "StationID": "50021"
      },
      {
        "Name": "誠正國中",
        "Lat": 25.0515460114719,
        "Lon": 121.61603141641,
        "Sequence": 13,
        "StationID": "50020"
      },
      {
        "Name": "國家文官學院",
        "Lat": 25.05311326,
        "Lon": 121.6145567,
        "Sequence": 14,
        "StationID": "1693"
      },
      {
        "Name": "台北生技園區",
        "Lat": 25.05265346,
        "Lon": 121.610465,
        "Sequence": 15,
        "StationID": "3922"
      },
      {
        "Name": "捷運南港站",
        "Lat": 25.05226,
        "Lon": 121.607245,
        "Sequence": 16,
        "StationID": "1699"
      },
      {
        "Name": "南港機廠",
        "Lat": 25.051558036997456,
        "Lon": 121.60111276224704,
        "Sequence": 17,
        "StationID": "4650"
      },
      {
        "Name": "捷運昆陽站",
        "Lat": 25.050346,
        "Lon": 121.593165,
        "Sequence": 18,
        "StationID": "1697"
      },
      {
        "Name": "陸軍後勤指揮部",
        "Lat": 25.04983,
        "Lon": 121.59077,
        "Sequence": 19,
        "StationID": "3923"
      },
      {
        "Name": "國華新村",
        "Lat": 25.04908468,
        "Lon": 121.5878431,
        "Sequence": 20,
        "StationID": "3924"
      },
      {
        "Name": "聯合醫院忠孝院區",
        "Lat": 25.0475212158758,
        "Lon": 121.584229738588,
        "Sequence": 21,
        "StationID": "4086"
      },
      {
        "Name": "捷運後山埤站(忠孝)",
        "Lat": 25.04457266,
        "Lon": 121.582072,
        "Sequence": 22,
        "StationID": "1701"
      },
      {
        "Name": "春光公園",
        "Lat": 25.042632,
        "Lon": 121.580447,
        "Sequence": 23,
        "StationID": "4087"
      },
      {
        "Name": "永春里(忠孝)",
        "Lat": 25.041555,
        "Lon": 121.578931,
        "Sequence": 24,
        "StationID": "3926"
      },
      {
        "Name": "捷運永春站(忠孝)",
        "Lat": 25.040967,
        "Lon": 121.575743,
        "Sequence": 25,
        "StationID": "3927"
      },
      {
        "Name": "市立工農",
        "Lat": 25.04110667625752,
        "Lon": 121.57227674964417,
        "Sequence": 26,
        "StationID": "3928"
      },
      {
        "Name": "消防局(忠孝)",
        "Lat": 25.04115,
        "Lon": 121.56996,
        "Sequence": 27,
        "StationID": "2138"
      },
      {
        "Name": "捷運市政府站",
        "Lat": 25.04124,
        "Lon": 121.56629,
        "Sequence": 28,
        "StationID": "2149"
      },
      {
        "Name": "聯合報",
        "Lat": 25.04132664,
        "Lon": 121.5630899,
        "Sequence": 29,
        "StationID": "3929"
      },
      {
        "Name": "國父紀念館",
        "Lat": 25.03768543,
        "Lon": 121.5609264,
        "Sequence": 30,
        "StationID": "6922"
      },
      {
        "Name": "仁愛光復路口",
        "Lat": 25.0377,
        "Lon": 121.55781,
        "Sequence": 31,
        "StationID": "6923"
      },
      {
        "Name": "仁愛延吉街口",
        "Lat": 25.0377743210687,
        "Lon": 121.555779394717,
        "Sequence": 32,
        "StationID": "6926"
      },
      {
        "Name": "仁愛國泰醫院",
        "Lat": 25.0378288007837,
        "Lon": 121.553215911831,
        "Sequence": 33,
        "StationID": "6925"
      },
      {
        "Name": "仁愛安和路口",
        "Lat": 25.03796,
        "Lon": 121.55181,
        "Sequence": 34,
        "StationID": "6924"
      },
      {
        "Name": "仁愛敦化路口(圓環)",
        "Lat": 25.03801348,
        "Lon": 121.5472892,
        "Sequence": 35,
        "StationID": "6919"
      },
      {
        "Name": "仁愛復興路口(福華飯店)",
        "Lat": 25.03806,
        "Lon": 121.544071,
        "Sequence": 36,
        "StationID": "1869"
      },
      {
        "Name": "仁愛建國路口一",
        "Lat": 25.038167764865,
        "Lon": 121.53942763922,
        "Sequence": 37,
        "StationID": "2204"
      },
      {
        "Name": "幸安國小",
        "Lat": 25.0382385066713,
        "Lon": 121.534337688959,
        "Sequence": 38,
        "StationID": "1202"
      },
      {
        "Name": "仁愛新生路口",
        "Lat": 25.03824508,
        "Lon": 121.5331329,
        "Sequence": 39,
        "StationID": "1165603230"
      },
      {
        "Name": "仁愛臨沂街口",
        "Lat": 25.03834,
        "Lon": 121.52952,
        "Sequence": 40,
        "StationID": "1872"
      },
      {
        "Name": "仁愛杭州路口",
        "Lat": 25.03835233,
        "Lon": 121.5254546,
        "Sequence": 41,
        "StationID": "1865"
      },
      {
        "Name": "仁愛林森路口",
        "Lat": 25.03891262,
        "Lon": 121.5211551,
        "Sequence": 42,
        "StationID": "6943"
      },
      {
        "Name": "仁愛中山路口",
        "Lat": 25.03926197,
        "Lon": 121.5183669,
        "Sequence": 43,
        "StationID": "1861"
      },
      {
        "Name": "一女中(貴陽)",
        "Lat": 25.0386560843846,
        "Lon": 121.514498656168,
        "Sequence": 44,
        "StationID": "4611"
      },
      {
        "Name": "東吳大學城中校區",
        "Lat": 25.03918,
        "Lon": 121.50941,
        "Sequence": 45,
        "StationID": "4610"
      },
      {
        "Name": "小南門(和平院區)",
        "Lat": 25.0372303563017,
        "Lon": 121.507744829313,
        "Sequence": 46,
        "StationID": "4088"
      },
      {
        "Name": "捷運西門站",
        "Lat": 25.0409460489424,
        "Lon": 121.508219187662,
        "Sequence": 47,
        "StationID": "50040"
      }
    ]
  },
  {
    "Route": "270",
    "SubRoute": "270假日",
    "Direction": 1,
    "Stops": [
      {
        "Name": "臺北市憲兵隊",
        "Lat": 25.04072737,
        "Lon": 121.5091239,
        "Sequence": 1,
        "StationID": "1000435"
      },
      {
        "Name": "東吳大學城中校區",
        "Lat": 25.0390539,
        "Lon": 121.5091008,
        "Sequence": 2,
        "StationID": "1936"
      },
      {
        "Name": "一女中(貴陽)",
        "Lat": 25.0385833202908,
        "Lon": 121.514486272409,
        "Sequence": 3,
        "StationID": "4612"
      },
      {
        "Name": "仁愛中山路口",
        "Lat": 25.03912915,
        "Lon": 121.5184523,
        "Sequence": 4,
        "StationID": "1860"
      },
      {
        "Name": "仁愛林森路口",
        "Lat": 25.03876925,
        "Lon": 121.5213453,
        "Sequence": 5,
        "StationID": "6942"
      },
      {
        "Name": "仁愛紹興街口",
        "Lat": 25.0384529,
        "Lon": 121.5235878,
        "Sequence": 6,
        "StationID": "1868"
      },
      {
        "Name": "仁愛臨沂街口",
        "Lat": 25.03821895,
        "Lon": 121.5280453,
        "Sequence": 7,
        "StationID": "2216"
      },
      {
        "Name": "仁愛新生路口",
        "Lat": 25.038163002655,
        "Lon": 121.532402806246,
        "Sequence": 8,
        "StationID": "2214"
      },
      {
        "Name": "幸安國小",
        "Lat": 25.03804468,
        "Lon": 121.5343357,
        "Sequence": 9,
        "StationID": "75"
      },
      {
        "Name": "仁愛建國路口一",
        "Lat": 25.0380314055468,
        "Lon": 121.537072110796,
        "Sequence": 10,
        "StationID": "1867"
      },
      {
        "Name": "仁愛建國路口二",
        "Lat": 25.03796159361127,
        "Lon": 121.54077520473633,
        "Sequence": 11,
        "StationID": "2205"
      },
      {
        "Name": "仁愛復興路口(福華飯店)",
        "Lat": 25.037854,
        "Lon": 121.543165,
        "Sequence": 12,
        "StationID": "1165604754"
      },
      {
        "Name": "仁愛大安路口(仁愛醫院)",
        "Lat": 25.03784,
        "Lon": 121.545738,
        "Sequence": 13,
        "StationID": "1000138"
      },
      {
        "Name": "仁愛敦化路口(圓環)",
        "Lat": 25.03778353,
        "Lon": 121.5476903,
        "Sequence": 14,
        "StationID": "1201"
      },
      {
        "Name": "仁愛安和路口",
        "Lat": 25.0377212341364,
        "Lon": 121.550883391345,
        "Sequence": 15,
        "StationID": "1863"
      },
      {
        "Name": "仁愛國泰醫院",
        "Lat": 25.037669,
        "Lon": 121.552717,
        "Sequence": 16,
        "StationID": "2305"
      },
      {
        "Name": "仁愛延吉街口",
        "Lat": 25.0376217119559,
        "Lon": 121.555234376148,
        "Sequence": 17,
        "StationID": "1864"
      },
      {
        "Name": "仁愛光復路口",
        "Lat": 25.03754,
        "Lon": 121.55728,
        "Sequence": 18,
        "StationID": "1862"
      },
      {
        "Name": "國父紀念館",
        "Lat": 25.037543,
        "Lon": 121.56118,
        "Sequence": 19,
        "StationID": "6921"
      },
      {
        "Name": "聯合報",
        "Lat": 25.0411343471192,
        "Lon": 121.562106434251,
        "Sequence": 20,
        "StationID": "2348"
      },
      {
        "Name": "捷運市政府站",
        "Lat": 25.04100991,
        "Lon": 121.5668354,
        "Sequence": 21,
        "StationID": "3916"
      },
      {
        "Name": "市立工農",
        "Lat": 25.04085411,
        "Lon": 121.5726502,
        "Sequence": 22,
        "StationID": "2055"
      },
      {
        "Name": "捷運永春站(忠孝)",
        "Lat": 25.040733,
        "Lon": 121.575809,
        "Sequence": 23,
        "StationID": "2153"
      },
      {
        "Name": "永春里(忠孝)",
        "Lat": 25.04110183,
        "Lon": 121.5785081,
        "Sequence": 24,
        "StationID": "2059"
      },
      {
        "Name": "春光公園",
        "Lat": 25.042737,
        "Lon": 121.580888,
        "Sequence": 25,
        "StationID": "2086"
      },
      {
        "Name": "捷運後山埤站(忠孝)",
        "Lat": 25.04445242,
        "Lon": 121.5822223,
        "Sequence": 26,
        "StationID": "3917"
      },
      {
        "Name": "聯合醫院忠孝院區",
        "Lat": 25.048227,
        "Lon": 121.585736,
        "Sequence": 27,
        "StationID": "1716"
      },
      {
        "Name": "國華新村",
        "Lat": 25.0488726204446,
        "Lon": 121.587873523899,
        "Sequence": 28,
        "StationID": "1696"
      },
      {
        "Name": "陸軍後勤指揮部",
        "Lat": 25.04964,
        "Lon": 121.59096,
        "Sequence": 29,
        "StationID": "1719"
      },
      {
        "Name": "捷運昆陽站",
        "Lat": 25.05036,
        "Lon": 121.594275,
        "Sequence": 30,
        "StationID": "1165604761"
      },
      {
        "Name": "衛生福利部",
        "Lat": 25.050768,
        "Lon": 121.596331,
        "Sequence": 31,
        "StationID": "1165604495"
      },
      {
        "Name": "南港機廠",
        "Lat": 25.051694,
        "Lon": 121.604333,
        "Sequence": 32,
        "StationID": "4651"
      },
      {
        "Name": "捷運南港站",
        "Lat": 25.051922100664566,
        "Lon": 121.60671395938819,
        "Sequence": 33,
        "StationID": "50124"
      },
      {
        "Name": "台北生技園區",
        "Lat": 25.052446715063496,
        "Lon": 121.61111038525819,
        "Sequence": 34,
        "StationID": "1607"
      },
      {
        "Name": "國家文官學院",
        "Lat": 25.05281991,
        "Lon": 121.6139003,
        "Sequence": 35,
        "StationID": "1694"
      },
      {
        "Name": "誠正國中",
        "Lat": 25.0518036904539,
        "Lon": 121.615865875754,
        "Sequence": 36,
        "StationID": "1711"
      },
      {
        "Name": "南港水廠",
        "Lat": 25.049543,
        "Lon": 121.615625,
        "Sequence": 37,
        "StationID": "1650"
      },
      {
        "Name": "圓拱橋",
        "Lat": 25.047199,
        "Lon": 121.615363,
        "Sequence": 38,
        "StationID": "1707"
      },
      {
        "Name": "中研新村",
        "Lat": 25.044722099556466,
        "Lon": 121.61558513647303,
        "Sequence": 39,
        "StationID": "1611"
      },
      {
        "Name": "中研院",
        "Lat": 25.04313,
        "Lon": 121.61648,
        "Sequence": 40,
        "StationID": "1610"
      },
      {
        "Name": "胡適公園",
        "Lat": 25.039528,
        "Lon": 121.617338,
        "Sequence": 41,
        "StationID": "1687"
      },
      {
        "Name": "九如里一",
        "Lat": 25.03813813,
        "Lon": 121.6169015,
        "Sequence": 42,
        "StationID": "1620"
      },
      {
        "Name": "凌雲五村",
        "Lat": 25.036259,
        "Lon": 121.616893,
        "Sequence": 43,
        "StationID": "1690"
      },
      {
        "Name": "九如里二",
        "Lat": 25.03500483,
        "Lon": 121.6161708,
        "Sequence": 44,
        "StationID": "1621"
      },
      {
        "Name": "凌雲站",
        "Lat": 25.03474253,
        "Lon": 121.6147203,
        "Sequence": 45,
        "StationID": "1686"
      },
      {
        "Name": "中華科技大學(正門)",
        "Lat": 25.03382827,
        "Lon": 121.6097652,
        "Sequence": 46,
        "StationID": "4085"
      },
      {
        "Name": "中華科技大學",
        "Lat": 25.033428,
        "Lon": 121.611345,
        "Sequence": 47,
        "StationID": "1613"
      }
    ]
  }
]