[
  {
    "Route": "260",
    "SubRoute": "260往東園",
    "Direction": 0,
    "Stops": [
      {
        "Name": "陽明山總站",
        "Lat": 25.15148,
        "Lon": 121.54603,
        "Sequence": 1,
        "StationID": "852"
      },
      {
        "Name": "陽明山",
        "Lat": 25.15249728,
        "Lon": 121.5474217,
        "Sequence": 2,
        "StationID": "444"
      },
      {
        "Name": "中山樓",
        "Lat": 25.151258917059053,
        "Lon": 121.5497128929114,
        "Sequence": 3,
        "StationID": "14424"
      },
      {
        "Name": "中山樓(正門)",
        "Lat": 25.155492,
        "Lon": 121.552561,
        "Sequence": 4,
        "StationID": "20257"
      },
      {
        "Name": "教師中心",
        "Lat": 25.14972197,
        "Lon": 121.5494676,
        "Sequence": 5,
        "StationID": "792"
      },
      {
        "Name": "聯勤陽明山招待所",
        "Lat": 25.14817175082818,
        "Lon": 121.54915093472783,
        "Sequence": 6,
        "StationID": "943"
      },
      {
        "Name": "福壽橋",
        "Lat": 25.14569,
        "Lon": 121.54954,
        "Sequence": 7,
        "StationID": "902"
      },
      {
        "Name": "格致大亨路口",
        "Lat": 25.14275,
        "Lon": 121.54926,
        "Sequence": 8,
        "StationID": "849"
      },
      {
        "Name": "磺溪底",
        "Lat": 25.14086137,
        "Lon": 121.5496272,
        "Sequence": 9,
        "StationID": "1000613"
      },
      {
        "Name": "文化大學",
        "Lat": 25.13809,
        "Lon": 121.54648,
        "Sequence": 10,
        "StationID": "629"
      },
      {
        "Name": "山仔后派出所",
        "Lat": 25.13472716039782,
        "Lon": 121.54581401932357,
        "Sequence": 11,
        "StationID": "558"
      },
      {
        "Name": "格致國中",
        "Lat": 25.13082779909332,
        "Lon": 121.54690862019565,
        "Sequence": 12,
        "StationID": "776"
      },
      {
        "Name": "下竹林",
        "Lat": 25.12946964750175,
        "Lon": 121.54753736436147,
        "Sequence": 13,
        "StationID": "563"
      },
      {
        "Name": "新安",
        "Lat": 25.124924540354783,
        "Lon": 121.55004336876296,
        "Sequence": 14,
        "StationID": "865"
      },
      {
        "Name": "白雲山莊",
        "Lat": 25.12257511145472,
        "Lon": 121.55169540467806,
        "Sequence": 15,
        "StationID": "686"
      },
      {
        "Name": "明德新村",
        "Lat": 25.11993179445477,
        "Lon": 121.55293378688096,
        "Sequence": 16,
        "StationID": "734"
      },
      {
        "Name": "陽明山國小",
        "Lat": 25.11799052630939,
        "Lon": 121.55202263410142,
        "Sequence": 17,
        "StationID": "854"
      },
      {
        "Name": "福音",
        "Lat": 25.1140124257428,
        "Lon": 121.550310398218,
        "Sequence": 18,
        "StationID": "1000614"
      },
      {
        "Name": "陽明教養院",
        "Lat": 25.1104191040479,
        "Lon": 121.54836175021,
        "Sequence": 19,
        "StationID": "861"
      },
      {
        "Name": "永福(林語堂故居)",
        "Lat": 25.1095275064689,
        "Lon": 121.547154139609,
        "Sequence": 20,
        "StationID": "679"
      },
      {
        "Name": "永嶺",
        "Lat": 25.1068495776368,
        "Lon": 121.545213090496,
        "Sequence": 21,
        "StationID": "683"
      },
      {
        "Name": "拔子埔",
        "Lat": 25.104977,
        "Lon": 121.543591,
        "Sequence": 22,
        "StationID": "723"
      },
      {
        "Name": "嶺頭",
        "Lat": 25.1031851590031,
        "Lon": 121.541536360844,
        "Sequence": 23,
        "StationID": "937"
      },
      {
        "Name": "華興中學",
        "Lat": 25.104112892574,
        "Lon": 121.538359218545,
        "Sequence": 24,
        "StationID": "1000615"
      },
      {
        "Name": "芝蘭新村",
        "Lat": 25.1072897892355,
        "Lon": 121.537298719254,
        "Sequence": 25,
        "StationID": "749"
      },
      {
        "Name": "岩山里一",
        "Lat": 25.10331,
        "Lon": 121.53692,
        "Sequence": 26,
        "StationID": "712"
      },
      {
        "Name": "岩山里",
        "Lat": 25.1018780140349,
        "Lon": 121.537579799115,
        "Sequence": 27,
        "StationID": "709"
      },
      {
        "Name": "泰北中學",
        "Lat": 25.0977513146504,
        "Lon": 121.534030294965,
        "Sequence": 28,
        "StationID": "778"
      },
      {
        "Name": "士林官邸(中正)",
        "Lat": 25.0965,
        "Lon": 121.53144,
        "Sequence": 29,
        "StationID": "3953"
      },
      {
        "Name": "福林國小",
        "Lat": 25.0962,
        "Lon": 121.52976,
        "Sequence": 30,
        "StationID": "3954"
      },
      {
        "Name": "捷運士林站(中山)",
        "Lat": 25.092853732851424,
        "Lon": 121.5276799453955,
        "Sequence": 31,
        "StationID": "796"
      },
      {
        "Name": "台電台北北區營業處",
        "Lat": 25.09069989,
        "Lon": 121.5273919,
        "Sequence": 32,
        "StationID": "1000264"
      },
      {
        "Name": "銘傳大學",
        "Lat": 25.08800277,
        "Lon": 121.5269357,
        "Sequence": 33,
        "StationID": "913"
      },
      {
        "Name": "捷運劍潭站(中山)",
        "Lat": 25.085353,
        "Lon": 121.525327,
        "Sequence": 34,
        "StationID": "803"
      },
      {
        "Name": "劍潭",
        "Lat": 25.0817595131148,
        "Lon": 121.524712226022,
        "Sequence": 35,
        "StationID": "1000266"
      },
      {
        "Name": "臺北市立美術館",
        "Lat": 25.070066233009,
        "Lon": 121.523095139749,
        "Sequence": 36,
        "StationID": "4121"
      },
      {
        "Name": "大同大學",
        "Lat": 25.0673,
        "Lon": 121.52244,
        "Sequence": 37,
        "StationID": "1170"
      },
      {
        "Name": "大同公司(晴光市場)",
        "Lat": 25.06438114,
        "Lon": 121.5221621,
        "Sequence": 38,
        "StationID": "1171"
      },
      {
        "Name": "台泥大樓(馬偕醫院)",
        "Lat": 25.0608309862107,
        "Lon": 121.522776776113,
        "Sequence": 39,
        "StationID": "1000155"
      },
      {
        "Name": "國賓飯店",
        "Lat": 25.0564276089864,
        "Lon": 121.522628910085,
        "Sequence": 40,
        "StationID": "1000156"
      },
      {
        "Name": "中山市場",
        "Lat": 25.05126405386,
        "Lon": 121.52202112765,
        "Sequence": 41,
        "StationID": "1000064"
      },
      {
        "Name": "行政院",
        "Lat": 25.046484462941,
        "Lon": 121.519759690546,
        "Sequence": 42,
        "StationID": "50688"
      },
      {
        "Name": "臺北車站(忠孝)",
        "Lat": 25.0465408,
        "Lon": 121.5167218,
        "Sequence": 43,
        "StationID": "1000082"
      },
      {
        "Name": "中華路北站",
        "Lat": 25.0455115050969,
        "Lon": 121.509144127644,
        "Sequence": 44,
        "StationID": "1000078"
      },
      {
        "Name": "捷運西門站",
        "Lat": 25.0425165606871,
        "Lon": 121.508266771006,
        "Sequence": 45,
        "StationID": "1000079"
      },
      {
        "Name": "小南門",
        "Lat": 25.0378687908132,
        "Lon": 121.506903709074,
        "Sequence": 46,
        "StationID": "1000080"
      },
      {
        "Name": "聯合醫院和平院區",
        "Lat": 25.0364933609706,
        "Lon": 121.506507520259,
        "Sequence": 47,
        "StationID": "1926"
      },
      {
        "Name": "大埔街",
        "Lat": 25.03205520434067,
        "Lon": 121.50448356536738,
        "Sequence": 48,
        "StationID": "4606"
      },
      {
        "Name": "莒光派出所",
        "Lat": 25.03141,
        "Lon": 121.50298,
        "Sequence": 49,
        "StationID": "1798"
      },
      {
        "Name": "萬大路",
        "Lat": 25.030744,
        "Lon": 121.500473,
        "Sequence": 50,
        "StationID": "1811"
      },
      {
        "Name": "西藏路口",
        "Lat": 25.0289649585261,
        "Lon": 121.50037694828528,
        "Sequence": 51,
        "StationID": "1759"
      },
      {
        "Name": "德昌街口",
        "Lat": 25.025052181005517,
        "Lon": 121.50026027816166,
        "Sequence": 52,
        "StationID": "1829"
      },
      {
        "Name": "萬大國小",
        "Lat": 25.024019027640023,
        "Lon": 121.49999538902145,
        "Sequence": 53,
        "StationID": "1810"
      },
      {
        "Name": "果菜市場",
        "Lat": 25.01942,
        "Lon": 121.497234,
        "Sequence": 54,
        "StationID": "1165604854"
      },
      {
        "Name": "華中河濱公園",
        "Lat": 25.01714,
        "Lon": 121.49565,
        "Sequence": 55,
        "StationID": "1799"
      }
    ]
  },
  {
    "Route": "260",
    "SubRoute": "260往陽明山",
    "Direction": 1,
    "Stops": [
      {
        "Name": "華中河濱公園",
        "Lat": 25.0171711735736,
        "Lon": 121.496094355207,
        "Sequence": 1,
        "StationID": "1800"
      },
      {
        "Name": "果菜市場",
        "Lat": 25.01987,
        "Lon": 121.497706,
        "Sequence": 2,
        "StationID": "4622"
      },
      {
        "Name": "萬大國小",
        "Lat": 25.0232906952259,
        "Lon": 121.499894100772,
        "Sequence": 3,
        "StationID": "4640"
      },
      {
        "Name": "德昌街口",
        "Lat": 25.025045,
        "Lon": 121.500485,
        "Sequence": 4,
        "StationID": "1830"
      },
      {
        "Name": "西藏路口",
        "Lat": 25.028737,
        "Lon": 121.500599,
        "Sequence": 5,
        "StationID": "4639"
      },
      {
        "Name": "萬大路",
        "Lat": 25.0308055,
        "Lon": 121.500635,
        "Sequence": 6,
        "StationID": "4638"
      },
      {
        "Name": "莒光派出所",
        "Lat": 25.03113,
        "Lon": 121.50255,
        "Sequence": 7,
        "StationID": "1797"
      },
      {
        "Name": "大埔街",
        "Lat": 25.03268103989999,
        "Lon": 121.50499126498305,
        "Sequence": 8,
        "StationID": "1737"
      },
      {
        "Name": "聯合醫院和平院區",
        "Lat": 25.03501116,
        "Lon": 121.5062837,
        "Sequence": 9,
        "StationID": "1165610495"
      },
      {
        "Name": "捷運西門站",
        "Lat": 25.041730058378,
        "Lon": 121.508285900629,
        "Sequence": 10,
        "StationID": "1793"
      },
      {
        "Name": "中華路北站",
        "Lat": 25.0456964941835,
        "Lon": 121.509380726049,
        "Sequence": 11,
        "StationID": "1744"
      },
      {
        "Name": "捷運北門站",
        "Lat": 25.0492507169836,
        "Lon": 121.510332531364,
        "Sequence": 12,
        "StationID": "50044"
      },
      {
        "Name": "臺北車站(鄭州)",
        "Lat": 25.0484971857801,
        "Lon": 121.51719764702355,
        "Sequence": 13,
        "StationID": "1895"
      },
      {
        "Name": "中山市場",
        "Lat": 25.050519,
        "Lon": 121.522081,
        "Sequence": 14,
        "StationID": "1000712"
      },
      {
        "Name": "國賓飯店",
        "Lat": 25.0562422589842,
        "Lon": 121.522969858739,
        "Sequence": 15,
        "StationID": "1000157"
      },
      {
        "Name": "台泥大樓(馬偕醫院)",
        "Lat": 25.06158152,
        "Lon": 121.5230341,
        "Sequence": 16,
        "StationID": "1000158"
      },
      {
        "Name": "大同公司(晴光市場)",
        "Lat": 25.0642887,
        "Lon": 121.5224722,
        "Sequence": 17,
        "StationID": "16264"
      },
      {
        "Name": "大同大學",
        "Lat": 25.06770081,
        "Lon": 121.5228199,
        "Sequence": 18,
        "StationID": "1169"
      },
      {
        "Name": "臺北市立美術館",
        "Lat": 25.0721395085303,
        "Lon": 121.523964286473,
        "Sequence": 19,
        "StationID": "101"
      },
      {
        "Name": "劍潭",
        "Lat": 25.0805889011559,
        "Lon": 121.524381872313,
        "Sequence": 20,
        "StationID": "50629"
      },
      {
        "Name": "銘傳大學",
        "Lat": 25.08697,
        "Lon": 121.52663,
        "Sequence": 21,
        "StationID": "50630"
      },
      {
        "Name": "台電台北北區營業處",
        "Lat": 25.091209,
        "Lon": 121.527703,
        "Sequence": 22,
        "StationID": "1218"
      },
      {
        "Name": "士林官邸(中山)",
        "Lat": 25.0947774592454,
        "Lon": 121.528319753964,
        "Sequence": 23,
        "StationID": "576"
      },
      {
        "Name": "福林國小",
        "Lat": 25.09583325,
        "Lon": 121.5290055,
        "Sequence": 24,
        "StationID": "896"
      },
      {
        "Name": "士林官邸(中正)",
        "Lat": 25.096324,
        "Lon": 121.531395,
        "Sequence": 25,
        "StationID": "1000618"
      },
      {
        "Name": "泰北中學",
        "Lat": 25.0972847950979,
        "Lon": 121.533481875716,
        "Sequence": 26,
        "StationID": "777"
      },
      {
        "Name": "岩山里",
        "Lat": 25.101779204864,
        "Lon": 121.537708683954,
        "Sequence": 27,
        "StationID": "1000619"
      },
      {
        "Name": "岩山里一",
        "Lat": 25.1035131480372,
        "Lon": 121.53702433513,
        "Sequence": 28,
        "StationID": "55009"
      },
      {
        "Name": "芝蘭新村",
        "Lat": 25.1069424036663,
        "Lon": 121.536903542185,
        "Sequence": 29,
        "StationID": "1000616"
      },
      {
        "Name": "華興中學",
        "Lat": 25.10410142,
        "Lon": 121.5381247,
        "Sequence": 30,
        "StationID": "843"
      },
      {
        "Name": "嶺頭",
        "Lat": 25.1020154099508,
        "Lon": 121.540318712854,
        "Sequence": 31,
        "StationID": "30040"
      },
      {
        "Name": "拔子埔",
        "Lat": 25.1050667160996,
        "Lon": 121.543899657612,
        "Sequence": 32,
        "StationID": "724"
      },
      {
        "Name": "永嶺",
        "Lat": 25.10696523,
        "Lon": 121.5453823,
        "Sequence": 33,
        "StationID": "1000608"
      },
      {
        "Name": "永福(林語堂故居)",
        "Lat": 25.1092441758524,
        "Lon": 121.547020026043,
        "Sequence": 34,
        "StationID": "1000609"
      },
      {
        "Name": "陽明教養院",
        "Lat": 25.110508,
        "Lon": 121.548654,
        "Sequence": 35,
        "StationID": "1000620"
      },
      {
        "Name": "福音",
        "Lat": 25.1143365915433,
        "Lon": 121.55056001317,
        "Sequence": 36,
        "StationID": "899"
      },
      {
        "Name": "陽明山國小",
        "Lat": 25.11785,
        "Lon": 121.5521,
        "Sequence": 37,
        "StationID": "14417"
      },
      {
        "Name": "明德新村",
        "Lat": 25.120427697654744,
        "Lon": 121.55309076524317,
        "Sequence": 38,
        "StationID": "1000621"
      },
      {
        "Name": "白雲山莊",
        "Lat": 25.1230700246186,
        "Lon": 121.55146530005,
        "Sequence": 39,
        "StationID": "1000622"
      },
      {
        "Name": "新安",
        "Lat": 25.124902973723618,
        "Lon": 121.55027648092783,
        "Sequence": 40,
        "StationID": "1000611"
      },
      {
        "Name": "下竹林",
        "Lat": 25.1297799480943,
        "Lon": 121.547624545151,
        "Sequence": 41,
        "StationID": "1000612"
      },
      {
        "Name": "格致國中",
        "Lat": 25.13135,
        "Lon": 121.54684,
        "Sequence": 42,
        "StationID": "651"
      },
      {
        "Name": "山仔后派出所",
        "Lat": 25.1361057782174,
        "Lon": 121.546296671701,
        "Sequence": 43,
        "StationID": "559"
      },
      {
        "Name": "文化大學",
        "Lat": 25.13875593,
        "Lon": 121.5465825,
        "Sequence": 44,
        "StationID": "14422"
      },
      {
        "Name": "磺溪底",
        "Lat": 25.14067928068319,
        "Lon": 121.54965081795456,
        "Sequence": 45,
        "StationID": "940"
      },
      {
        "Name": "格致大亨路口",
        "Lat": 25.14305029076675,
        "Lon": 121.54926514715302,
        "Sequence": 46,
        "StationID": "14423"
      },
      {
        "Name": "福壽橋",
        "Lat": 25.1459354022478,
        "Lon": 121.549608408559,
        "Sequence": 47,
        "StationID": "903"
      },
      {
        "Name": "聯勤陽明山招待所",
        "Lat": 25.1480738467069,
        "Lon": 121.549325751061,
        "Sequence": 48,
        "StationID": "944"
      },
      {
        "Name": "錫安堂",
        "Lat": 25.149638967548405,
        "Lon": 121.54960015536507,
        "Sequence": 49,
        "StationID": "935"
      },
      {
        "Name": "教師中心",
        "Lat": 25.1507481,
        "Lon": 121.5500578,
        "Sequence": 50,
        "StationID": "793"
      },
      {
        "Name": "中山樓(正門)",
        "Lat": 25.155492,
        "Lon": 121.552561,
        "Sequence": 51,
        "StationID": "20257"
      },
      {
        "Name": "中山樓",
        "Lat": 25.15151625,
        "Lon": 121.5496419,
        "Sequence": 52,
        "StationID": "611"
      },
      {
        "Name": "陽明山",
        "Lat": 25.15249728,
        "Lon": 121.5474217,
        "Sequence": 53,
        "StationID": "14426"
      },
      {
        "Name": "陽明山總站",
        "Lat": 25.15148,
        "Lon": 121.54603,
        "Sequence": 54,
        "StationID": "852"
      }
    ]
  }
]