[
  {
    "Route": "38",
    "SubRoute": "38",
    "Direction": 0,
    "Stops": [
      {
        "Name": "榮德里",
        "Lat": 25.018859,
        "Lon": 121.493379,
        "Sequence": 1,
        "StationID": "1165606700"
      },
      {
        "Name": "東隆宮",
        "Lat": 25.02288,
        "Lon": 121.49163,
        "Sequence": 2,
        "StationID": "1767"
      },
      {
        "Name": "和德里",
        "Lat": 25.02489835,
        "Lon": 121.4906879,
        "Sequence": 3,
        "StationID": "1760"
      },
      {
        "Name": "環南市場",
        "Lat": 25.02767161,
        "Lon": 121.4894532,
        "Sequence": 4,
        "StationID": "1781"
      },
      {
        "Name": "綜合市場",
        "Lat": 25.03062,
        "Lon": 121.49029,
        "Sequence": 5,
        "StationID": "4833"
      },
      {
        "Name": "大理高中",
        "Lat": 25.031919,
        "Lon": 121.491328,
        "Sequence": 6,
        "StationID": "1165610157"
      },
      {
        "Name": "華江派出所",
        "Lat": 25.0341141458286,
        "Lon": 121.493340521386,
        "Sequence": 7,
        "StationID": "1001358"
      },
      {
        "Name": "中國時報",
        "Lat": 25.035221,
        "Lon": 121.496276,
        "Sequence": 8,
        "StationID": "3940"
      },
      {
        "Name": "捷運龍山寺站",
        "Lat": 25.035143,
        "Lon": 121.500164,
        "Sequence": 9,
        "StationID": "1794"
      },
      {
        "Name": "龍山國中",
        "Lat": 25.03563,
        "Lon": 121.50409,
        "Sequence": 10,
        "StationID": "1165606056"
      },
      {
        "Name": "小南門(和平院區)",
        "Lat": 25.03630737,
        "Lon": 121.5085509,
        "Sequence": 11,
        "StationID": "1853"
      },
      {
        "Name": "捷運小南門站",
        "Lat": 25.035233,
        "Lon": 121.51163,
        "Sequence": 12,
        "StationID": "1165603392"
      },
      {
        "Name": "南門",
        "Lat": 25.033381,
        "Lon": 121.51568,
        "Sequence": 13,
        "StationID": "1873"
      },
      {
        "Name": "自來水西分處(寧波)",
        "Lat": 25.029828,
        "Lon": 121.5157,
        "Sequence": 14,
        "StationID": "1916"
      },
      {
        "Name": "聯合醫院婦幼院區一",
        "Lat": 25.0299878580087,
        "Lon": 121.518037534882,
        "Sequence": 15,
        "StationID": "50685"
      },
      {
        "Name": "潮州街口",
        "Lat": 25.030573897088548,
        "Lon": 121.52231632616744,
        "Sequence": 16,
        "StationID": "2341"
      },
      {
        "Name": "愛國東路口",
        "Lat": 25.03276,
        "Lon": 121.522887,
        "Sequence": 17,
        "StationID": "2331"
      },
      {
        "Name": "金甌女中",
        "Lat": 25.0349344108172,
        "Lon": 121.524185846428,
        "Sequence": 18,
        "StationID": "2278"
      },
      {
        "Name": "捷運東門站",
        "Lat": 25.034191768178662,
        "Lon": 121.5268262109198,
        "Sequence": 19,
        "StationID": "6940"
      },
      {
        "Name": "信義永康街口(捷運東門站)",
        "Lat": 25.03372668176573,
        "Lon": 121.52972531757206,
        "Sequence": 20,
        "StationID": "2116"
      },
      {
        "Name": "信義新生路口",
        "Lat": 25.033583332926412,
        "Lon": 121.5321735300744,
        "Sequence": 21,
        "StationID": "2133"
      },
      {
        "Name": "捷運大安森林公園站",
        "Lat": 25.03352937220551,
        "Lon": 121.53542376322785,
        "Sequence": 22,
        "StationID": "1000057"
      },
      {
        "Name": "大安國宅",
        "Lat": 25.029775296009,
        "Lon": 121.53800596197,
        "Sequence": 23,
        "StationID": "2188"
      }
    ]
  },
  {
    "Route": "38",
    "SubRoute": "38",
    "Direction": 1,
    "Stops": [
      {
        "Name": "捷運大安森林公園站",
        "Lat": 25.0335848362393,
        "Lon": 121.536053834429,
        "Sequence": 1,
        "StationID": "1000056"
      },
      {
        "Name": "信義新生路口",
        "Lat": 25.033641163337222,
        "Lon": 121.53336986167852,
        "Sequence": 2,
        "StationID": "2134"
      },
      {
        "Name": "信義永康街口",
        "Lat": 25.033725370699948,
        "Lon": 121.53039498137659,
        "Sequence": 3,
        "StationID": "2115"
      },
      {
        "Name": "捷運東門站",
        "Lat": 25.034084364885075,
        "Lon": 121.52775567033312,
        "Sequence": 4,
        "StationID": "6939"
      },
      {
        "Name": "信義杭州路口",
        "Lat": 25.035289619677716,
        "Lon": 121.5247830381989,
        "Sequence": 5,
        "StationID": "2126"
      },
      {
        "Name": "中正紀念堂",
        "Lat": 25.03734153832383,
        "Lon": 121.52065828149863,
        "Sequence": 6,
        "StationID": "1947"
      },
      {
        "Name": "一女中(貴陽)",
        "Lat": 25.0386560843846,
        "Lon": 121.514498656168,
        "Sequence": 7,
        "StationID": "4611"
      },
      {
        "Name": "東吳大學城中校區",
        "Lat": 25.03918,
        "Lon": 121.50941,
        "Sequence": 8,
        "StationID": "4610"
      },
      {
        "Name": "小南門(和平院區)",
        "Lat": 25.0372303563017,
        "Lon": 121.507744829313,
        "Sequence": 9,
        "StationID": "4088"
      },
      {
        "Name": "桂林昆明街口",
        "Lat": 25.0381,
        "Lon": 121.5043,
        "Sequence": 10,
        "StationID": "1761"
      },
      {
        "Name": "桂林路",
        "Lat": 25.0384724642396,
        "Lon": 121.500815164828,
        "Sequence": 11,
        "StationID": "4615"
      },
      {
        "Name": "龍山寺(西園)",
        "Lat": 25.036339844420194,
        "Lon": 121.49923722375564,
        "Sequence": 12,
        "StationID": "1165606057"
      },
      {
        "Name": "中國時報",
        "Lat": 25.03545414,
        "Lon": 121.4969752,
        "Sequence": 13,
        "StationID": "3913"
      },
      {
        "Name": "華江派出所",
        "Lat": 25.034006,
        "Lon": 121.493016,
        "Sequence": 14,
        "StationID": "1000096"
      },
      {
        "Name": "大理高中",
        "Lat": 25.03162,
        "Lon": 121.490827,
        "Sequence": 15,
        "StationID": "1739"
      },
      {
        "Name": "綜合市場",
        "Lat": 25.03054,
        "Lon": 121.4898,
        "Sequence": 16,
        "StationID": "4834"
      }
    ]
  }
]