[
  {
    "Route": "218區",
    "SubRoute": "218區",
    "Direction": 0,
    "Stops": [
      {
        "Name": "貴子坑水土保持園區",
        "Lat": 25.14506,
        "Lon": 121.49262,
        "Sequence": 1,
        "StationID": "437"
      },
      {
        "Name": "秀山里",
        "Lat": 25.1452880512553,
        "Lon": 121.493826634438,
        "Sequence": 2,
        "StationID": "1000928"
      },
      {
        "Name": "慈航寺",
        "Lat": 25.144571,
        "Lon": 121.497011,
        "Sequence": 3,
        "StationID": "454"
      },
      {
        "Name": "國泰新村",
        "Lat": 25.1435377973513,
        "Lon": 121.498005120919,
        "Sequence": 4,
        "StationID": "343"
      },
      {
        "Name": "中和里",
        "Lat": 25.1420654536477,
        "Lon": 121.49875524785,
        "Sequence": 5,
        "StationID": "63"
      },
      {
        "Name": "復興中學",
        "Lat": 25.1404257952951,
        "Lon": 121.500142024239,
        "Sequence": 6,
        "StationID": "414"
      },
      {
        "Name": "中和街",
        "Lat": 25.1391571863191,
        "Lon": 121.501520744986,
        "Sequence": 7,
        "StationID": "64"
      },
      {
        "Name": "新北投",
        "Lat": 25.137791,
        "Lon": 121.502937,
        "Sequence": 8,
        "StationID": "456"
      },
      {
        "Name": "北投公園",
        "Lat": 25.1363484992167,
        "Lon": 121.504124469582,
        "Sequence": 9,
        "StationID": "112"
      },
      {
        "Name": "第一銀行",
        "Lat": 25.1345133895389,
        "Lon": 121.50235879653,
        "Sequence": 10,
        "StationID": "399"
      },
      {
        "Name": "中央南路",
        "Lat": 25.1321537676007,
        "Lon": 121.50131769692,
        "Sequence": 11,
        "StationID": "7241"
      },
      {
        "Name": "中央南大興街口",
        "Lat": 25.130163,
        "Lon": 121.501062,
        "Sequence": 12,
        "StationID": "357"
      },
      {
        "Name": "慈后宮",
        "Lat": 25.1278841376109,
        "Lon": 121.501189626271,
        "Sequence": 13,
        "StationID": "50086"
      },
      {
        "Name": "捷運奇岩站",
        "Lat": 25.126424,
        "Lon": 121.500767,
        "Sequence": 14,
        "StationID": "367"
      }
    ]
  },
  {
    "Route": "218區",
    "SubRoute": "218區",
    "Direction": 1,
    "Stops": [
      {
        "Name": "大興街口",
        "Lat": 25.130578,
        "Lon": 121.499403,
        "Sequence": 1,
        "StationID": "45"
      },
      {
        "Name": "捷運北投站(北投)",
        "Lat": 25.132300275375297,
        "Lon": 121.49796757939285,
        "Sequence": 2,
        "StationID": "358"
      },
      {
        "Name": "幼華高中(北投)",
        "Lat": 25.13423,
        "Lon": 121.49683,
        "Sequence": 3,
        "StationID": "5"
      },
      {
        "Name": "大業中央北路口",
        "Lat": 25.135605,
        "Lon": 121.498029,
        "Sequence": 4,
        "StationID": "50062"
      },
      {
        "Name": "北投國小",
        "Lat": 25.13384543,
        "Lon": 121.5007209,
        "Sequence": 5,
        "StationID": "120"
      },
      {
        "Name": "第一銀行",
        "Lat": 25.13489933134952,
        "Lon": 121.50256846263959,
        "Sequence": 6,
        "StationID": "7239"
      },
      {
        "Name": "北投公園",
        "Lat": 25.13658039419034,
        "Lon": 121.50444128215462,
        "Sequence": 7,
        "StationID": "113"
      },
      {
        "Name": "新北投",
        "Lat": 25.1377878885811,
        "Lon": 121.503116860832,
        "Sequence": 8,
        "StationID": "4113"
      },
      {
        "Name": "中和街",
        "Lat": 25.1392080991718,
        "Lon": 121.501688456724,
        "Sequence": 9,
        "StationID": "7238"
      },
      {
        "Name": "復興中學",
        "Lat": 25.140779616914,
        "Lon": 121.50003982457,
        "Sequence": 10,
        "StationID": "3990"
      },
      {
        "Name": "中和里",
        "Lat": 25.1422718056895,
        "Lon": 121.498822886077,
        "Sequence": 11,
        "StationID": "7237"
      },
      {
        "Name": "國泰新村",
        "Lat": 25.1434882184522,
        "Lon": 121.498191201655,
        "Sequence": 12,
        "StationID": "3991"
      },
      {
        "Name": "慈航寺",
        "Lat": 25.144813,
        "Lon": 121.496498,
        "Sequence": 13,
        "StationID": "3995"
      },
      {
        "Name": "秀山里",
        "Lat": 25.1454283711567,
        "Lon": 121.494135327259,
        "Sequence": 14,
        "StationID": "7236"
      },
      {
        "Name": "貴子坑水土保持園區",
        "Lat": 25.1452633730156,
        "Lon": 121.492633753399,
        "Sequence": 15,
        "StationID": "1000350"
      },
      {
        "Name": "北投站",
        "Lat": 25.144595,
        "Lon": 121.492071,
        "Sequence": 16,
        "StationID": "1000351"
      }
    ]
  }
]