[
  {
    "Route": "紅25區",
    "SubRoute": "紅25區",
    "Direction": 0,
    "Stops": [
      {
        "Name": "三重里",
        "Lat": 25.05937408357435,
        "Lon": 121.61005754124962,
        "Sequence": 1,
        "StationID": "50107"
      },
      {
        "Name": "育成高中",
        "Lat": 25.05887707963565,
        "Lon": 121.60895745708942,
        "Sequence": 2,
        "StationID": "60102"
      },
      {
        "Name": "南港高工(重陽)",
        "Lat": 25.058039,
        "Lon": 121.605866,
        "Sequence": 3,
        "StationID": "1001375"
      },
      {
        "Name": "東新國小",
        "Lat": 25.05778835407,
        "Lon": 121.602725808672,
        "Sequence": 4,
        "StationID": "1000899"
      },
      {
        "Name": "中國電視公司",
        "Lat": 25.05684,
        "Lon": 121.59951,
        "Sequence": 5,
        "StationID": "1165603314"
      },
      {
        "Name": "南港分局(重陽)",
        "Lat": 25.05548009,
        "Lon": 121.5960871,
        "Sequence": 6,
        "StationID": "1698"
      },
      {
        "Name": "南港分局(向陽)",
        "Lat": 25.0553345135907,
        "Lon": 121.594415258716,
        "Sequence": 7,
        "StationID": "1646"
      },
      {
        "Name": "新明成功路口",
        "Lat": 25.060167,
        "Lon": 121.590455,
        "Sequence": 8,
        "StationID": "50432"
      },
      {
        "Name": "台北企業總部園區",
        "Lat": 25.058162,
        "Lon": 121.587344,
        "Sequence": 9,
        "StationID": "50431"
      },
      {
        "Name": "新明路",
        "Lat": 25.05733619,
        "Lon": 121.5852542,
        "Sequence": 10,
        "StationID": "1121"
      },
      {
        "Name": "週美里",
        "Lat": 25.05620879,
        "Lon": 121.5827604,
        "Sequence": 11,
        "StationID": "50429"
      },
      {
        "Name": "南京舊宗路口",
        "Lat": 25.056369580641974,
        "Lon": 121.57950353609606,
        "Sequence": 12,
        "StationID": "1001141"
      },
      {
        "Name": "麥帥一橋",
        "Lat": 25.0554380798046,
        "Lon": 121.577715906746,
        "Sequence": 13,
        "StationID": "1165604718"
      },
      {
        "Name": "南京公寓(捷運南京三民)",
        "Lat": 25.051513187536237,
        "Lon": 121.56665364964157,
        "Sequence": 14,
        "StationID": "1165603388"
      },
      {
        "Name": "南京三民路口",
        "Lat": 25.05158012283465,
        "Lon": 121.56111056329053,
        "Sequence": 15,
        "StationID": "16005"
      },
      {
        "Name": "南京寧安街口",
        "Lat": 25.0516596699759,
        "Lon": 121.555516323112,
        "Sequence": 16,
        "StationID": "16006"
      },
      {
        "Name": "南京敦化路口(小巨蛋)",
        "Lat": 25.0517934820293,
        "Lon": 121.549520919642,
        "Sequence": 17,
        "StationID": "1548"
      },
      {
        "Name": "捷運南京復興站",
        "Lat": 25.05191518176843,
        "Lon": 121.5444563164689,
        "Sequence": 18,
        "StationID": "1547"
      }
    ]
  },
  {
    "Route": "紅25區",
    "SubRoute": "紅25區",
    "Direction": 1,
    "Stops": [
      {
        "Name": "龍江路口",
        "Lat": 25.053452,
        "Lon": 121.540453,
        "Sequence": 1,
        "StationID": "1001380"
      },
      {
        "Name": "長春市場",
        "Lat": 25.05456174,
        "Lon": 121.5414952,
        "Sequence": 2,
        "StationID": "7613"
      },
      {
        "Name": "遼寧街口",
        "Lat": 25.052587,
        "Lon": 121.541976,
        "Sequence": 3,
        "StationID": "1165603244"
      },
      {
        "Name": "捷運南京復興站",
        "Lat": 25.0518040049938,
        "Lon": 121.543561439976,
        "Sequence": 4,
        "StationID": "50004"
      },
      {
        "Name": "南京敦化路口(小巨蛋)",
        "Lat": 25.0517035084006,
        "Lon": 121.548353475095,
        "Sequence": 5,
        "StationID": "50001"
      },
      {
        "Name": "南京寧安街口",
        "Lat": 25.051594154729063,
        "Lon": 121.55469770362868,
        "Sequence": 6,
        "StationID": "16029"
      },
      {
        "Name": "南京三民路口",
        "Lat": 25.05148353485096,
        "Lon": 121.5602663380149,
        "Sequence": 7,
        "StationID": "16030"
      },
      {
        "Name": "南京公寓(捷運南京三民)",
        "Lat": 25.0512559293088,
        "Lon": 121.566535683299,
        "Sequence": 8,
        "StationID": "1165603387"
      },
      {
        "Name": "麥帥一橋",
        "Lat": 25.054593,
        "Lon": 121.577219,
        "Sequence": 9,
        "StationID": "1165608465"
      },
      {
        "Name": "南京舊宗路口",
        "Lat": 25.0560262183777,
        "Lon": 121.579810502461,
        "Sequence": 10,
        "StationID": "1001142"
      },
      {
        "Name": "週美里",
        "Lat": 25.05609093,
        "Lon": 121.5828479,
        "Sequence": 11,
        "StationID": "50428"
      },
      {
        "Name": "新明路",
        "Lat": 25.05722486,
        "Lon": 121.5854194,
        "Sequence": 12,
        "StationID": "50430"
      },
      {
        "Name": "台北企業總部園區",
        "Lat": 25.057943,
        "Lon": 121.587031,
        "Sequence": 13,
        "StationID": "975"
      },
      {
        "Name": "新明成功路口",
        "Lat": 25.06008,
        "Lon": 121.590623,
        "Sequence": 14,
        "StationID": "1146"
      },
      {
        "Name": "南港分局(重陽)",
        "Lat": 25.055561,
        "Lon": 121.596717,
        "Sequence": 15,
        "StationID": "8627"
      },
      {
        "Name": "中國電視公司",
        "Lat": 25.05646,
        "Lon": 121.59918,
        "Sequence": 16,
        "StationID": "1612"
      },
      {
        "Name": "東新國小",
        "Lat": 25.0576,
        "Lon": 121.60365,
        "Sequence": 17,
        "StationID": "1640"
      },
      {
        "Name": "南港高工(重陽)",
        "Lat": 25.058155,
        "Lon": 121.60707,
        "Sequence": 18,
        "StationID": "1000755"
      },
      {
        "Name": "育成高中",
        "Lat": 25.05884,
        "Lon": 121.60939,
        "Sequence": 19,
        "StationID": "1629"
      },
      {
        "Name": "三重里",
        "Lat": 25.05927148642987,
        "Lon": 121.61043408707262,
        "Sequence": 20,
        "StationID": "1606"
      }
    ]
  }
]