[
  {
    "Route": "紅3區",
    "SubRoute": "紅3區",
    "Direction": 0,
    "Stops": [
      {
        "Name": "社子國小二",
        "Lat": 25.09005299,
        "Lon": 121.5020582,
        "Sequence": 1,
        "StationID": "670"
      },
      {
        "Name": "社子國小",
        "Lat": 25.0896460928075,
        "Lon": 121.502875912769,
        "Sequence": 2,
        "StationID": "741"
      },
      {
        "Name": "永倫里(南)",
        "Lat": 25.089298,
        "Lon": 121.504244,
        "Sequence": 3,
        "StationID": "1165606325"
      },
      {
        "Name": "社子派出所",
        "Lat": 25.08933251,
        "Lon": 121.5056145,
        "Sequence": 4,
        "StationID": "739"
      },
      {
        "Name": "社子市場二",
        "Lat": 25.0887967,
        "Lon": 121.5081045,
        "Sequence": 5,
        "StationID": "5034"
      },
      {
        "Name": "社子市場",
        "Lat": 25.0880464,
        "Lon": 121.5087166,
        "Sequence": 6,
        "StationID": "738"
      },
      {
        "Name": "葫蘆寺(葫蘆里)",
        "Lat": 25.085288548110366,
        "Lon": 121.50958853792531,
        "Sequence": 7,
        "StationID": "888"
      },
      {
        "Name": "葫東重慶路口",
        "Lat": 25.08435,
        "Lon": 121.51196,
        "Sequence": 8,
        "StationID": "50640"
      },
      {
        "Name": "陽明高中",
        "Lat": 25.09192,
        "Lon": 121.51817,
        "Sequence": 9,
        "StationID": "860"
      },
      {
        "Name": "士林區行政中心(中正)",
        "Lat": 25.092636,
        "Lon": 121.519189,
        "Sequence": 10,
        "StationID": "581"
      },
      {
        "Name": "士林國中",
        "Lat": 25.0946048451863,
        "Lon": 121.52330153373,
        "Sequence": 11,
        "StationID": "586"
      },
      {
        "Name": "捷運士林站(中正)",
        "Lat": 25.09550407,
        "Lon": 121.5270438,
        "Sequence": 12,
        "StationID": "795"
      },
      {
        "Name": "捷運士林站(中山)",
        "Lat": 25.092853732851424,
        "Lon": 121.5276799453955,
        "Sequence": 13,
        "StationID": "796"
      },
      {
        "Name": "台電台北北區營業處",
        "Lat": 25.09069989,
        "Lon": 121.5273919,
        "Sequence": 14,
        "StationID": "1000264"
      },
      {
        "Name": "銘傳大學",
        "Lat": 25.08800277,
        "Lon": 121.5269357,
        "Sequence": 15,
        "StationID": "913"
      },
      {
        "Name": "捷運劍潭站(中山)",
        "Lat": 25.085353,
        "Lon": 121.525327,
        "Sequence": 16,
        "StationID": "803"
      },
      {
        "Name": "劍潭",
        "Lat": 25.0817595131148,
        "Lon": 121.524712226022,
        "Sequence": 17,
        "StationID": "1000266"
      },
      {
        "Name": "圓山大飯店",
        "Lat": 25.0772703676354,
        "Lon": 121.528167347349,
        "Sequence": 18,
        "StationID": "1356"
      },
      {
        "Name": "中央電台",
        "Lat": 25.0779258290758,
        "Lon": 121.53000062511,
        "Sequence": 19,
        "StationID": "1195"
      },
      {
        "Name": "忠烈祠",
        "Lat": 25.07800478,
        "Lon": 121.5319142,
        "Sequence": 20,
        "StationID": "1260"
      },
      {
        "Name": "經國七海文化園區",
        "Lat": 25.07778224,
        "Lon": 121.535397,
        "Sequence": 21,
        "StationID": "4740"
      },
      {
        "Name": "空軍司令部",
        "Lat": 25.0793999240419,
        "Lon": 121.540311649212,
        "Sequence": 22,
        "StationID": "1382"
      },
      {
        "Name": "大直高中",
        "Lat": 25.07949,
        "Lon": 121.54255,
        "Sequence": 23,
        "StationID": "1179"
      },
      {
        "Name": "大直國小",
        "Lat": 25.07971159,
        "Lon": 121.5453154,
        "Sequence": 24,
        "StationID": "1180"
      },
      {
        "Name": "捷運大直站",
        "Lat": 25.0802161011772,
        "Lon": 121.5479855392,
        "Sequence": 25,
        "StationID": "4187"
      },
      {
        "Name": "植福宮",
        "Lat": 25.08160965,
        "Lon": 121.5488002,
        "Sequence": 26,
        "StationID": "1212"
      },
      {
        "Name": "自強隧道(大直教會)",
        "Lat": 25.0837373733406,
        "Lon": 121.549307259251,
        "Sequence": 27,
        "StationID": "1255"
      },
      {
        "Name": "自強隧道",
        "Lat": 25.0858624708036,
        "Lon": 121.551895985064,
        "Sequence": 28,
        "StationID": "1254"
      },
      {
        "Name": "捷運劍南路站",
        "Lat": 25.08484,
        "Lon": 121.555253,
        "Sequence": 29,
        "StationID": "1000117"
      },
      {
        "Name": "敬業三路一",
        "Lat": 25.083024,
        "Lon": 121.556223,
        "Sequence": 30,
        "StationID": "1371"
      },
      {
        "Name": "敬業三路二",
        "Lat": 25.0812466844798,
        "Lon": 121.556223237814,
        "Sequence": 31,
        "StationID": "1000502"
      },
      {
        "Name": "大直美堤花園三",
        "Lat": 25.079873,
        "Lon": 121.556649286559,
        "Sequence": 32,
        "StationID": "8653"
      },
      {
        "Name": "大直美堤花園一",
        "Lat": 25.07983259,
        "Lon": 121.5588327,
        "Sequence": 33,
        "StationID": "9402"
      },
      {
        "Name": "濱江國中",
        "Lat": 25.07980065897969,
        "Lon": 121.55999587437228,
        "Sequence": 34,
        "StationID": "9403"
      },
      {
        "Name": "治磐新村",
        "Lat": 25.0829452709661,
        "Lon": 121.56384168984,
        "Sequence": 35,
        "StationID": "8521"
      },
      {
        "Name": "內湖基湖路口",
        "Lat": 25.08198997,
        "Lon": 121.5652273,
        "Sequence": 36,
        "StationID": "1001"
      },
      {
        "Name": "基湖路口",
        "Lat": 25.08025003,
        "Lon": 121.5662362,
        "Sequence": 37,
        "StationID": "8404"
      },
      {
        "Name": "仁寶大樓",
        "Lat": 25.07921316,
        "Lon": 121.5684974,
        "Sequence": 38,
        "StationID": "1007"
      },
      {
        "Name": "瑞光港墘路口",
        "Lat": 25.078319,
        "Lon": 121.570459,
        "Sequence": 39,
        "StationID": "1165608385"
      },
      {
        "Name": "瑞光路",
        "Lat": 25.074821,
        "Lon": 121.577343,
        "Sequence": 40,
        "StationID": "1132"
      },
      {
        "Name": "瑞陽三號公園",
        "Lat": 25.074897,
        "Lon": 121.582212,
        "Sequence": 41,
        "StationID": "1011"
      },
      {
        "Name": "文德二號公園",
        "Lat": 25.077078,
        "Lon": 121.583667,
        "Sequence": 42,
        "StationID": "1001287"
      },
      {
        "Name": "湖光國宅",
        "Lat": 25.07859,
        "Lon": 121.58078,
        "Sequence": 43,
        "StationID": "8415"
      },
      {
        "Name": "西湖圖書館(湖光教會)",
        "Lat": 25.07889,
        "Lon": 121.578499,
        "Sequence": 44,
        "StationID": "1165604812"
      },
      {
        "Name": "港墘派出所",
        "Lat": 25.078636,
        "Lon": 121.57619,
        "Sequence": 45,
        "StationID": "4657"
      }
    ]
  },
  {
    "Route": "紅3區",
    "SubRoute": "紅3區",
    "Direction": 1,
    "Stops": [
      {
        "Name": "瑞光港墘路口",
        "Lat": 25.077297,
        "Lon": 121.573107,
        "Sequence": 1,
        "StationID": "1000895"
      },
      {
        "Name": "仁寶大樓",
        "Lat": 25.079478,
        "Lon": 121.568256,
        "Sequence": 2,
        "StationID": "1000896"
      },
      {
        "Name": "基湖路口",
        "Lat": 25.0805158061818,
        "Lon": 121.565903409458,
        "Sequence": 3,
        "StationID": "8403"
      },
      {
        "Name": "基湖站",
        "Lat": 25.07973077,
        "Lon": 121.5646071,
        "Sequence": 4,
        "StationID": "1083"
      },
      {
        "Name": "濱江國中",
        "Lat": 25.07999076,
        "Lon": 121.5612469,
        "Sequence": 5,
        "StationID": "9406"
      },
      {
        "Name": "大直美堤花園一",
        "Lat": 25.08004249,
        "Lon": 121.5590841,
        "Sequence": 6,
        "StationID": "8652"
      },
      {
        "Name": "大直美堤花園二",
        "Lat": 25.08002077,
        "Lon": 121.5574829,
        "Sequence": 7,
        "StationID": "9407"
      },
      {
        "Name": "敬業三路二",
        "Lat": 25.0813388630833,
        "Lon": 121.556408099291,
        "Sequence": 8,
        "StationID": "1000500"
      },
      {
        "Name": "敬業三路一",
        "Lat": 25.08317715,
        "Lon": 121.5564621,
        "Sequence": 9,
        "StationID": "1000501"
      },
      {
        "Name": "捷運劍南路站",
        "Lat": 25.085303158353604,
        "Lon": 121.55468793143969,
        "Sequence": 10,
        "StationID": "1000695"
      },
      {
        "Name": "自強隧道",
        "Lat": 25.08377483,
        "Lon": 121.5490281,
        "Sequence": 11,
        "StationID": "4182"
      },
      {
        "Name": "植福宮",
        "Lat": 25.0808482,
        "Lon": 121.5482394,
        "Sequence": 12,
        "StationID": "9435"
      },
      {
        "Name": "捷運大直站",
        "Lat": 25.0799238282333,
        "Lon": 121.546139731473,
        "Sequence": 13,
        "StationID": "1000126"
      },
      {
        "Name": "大直高中",
        "Lat": 25.07978102,
        "Lon": 121.5436838,
        "Sequence": 14,
        "StationID": "9433"
      },
      {
        "Name": "空軍司令部",
        "Lat": 25.07961,
        "Lon": 121.54169,
        "Sequence": 15,
        "StationID": "9437"
      },
      {
        "Name": "忠烈祠",
        "Lat": 25.0780024350627,
        "Lon": 121.535552182321,
        "Sequence": 16,
        "StationID": "9436"
      },
      {
        "Name": "中央電台",
        "Lat": 25.0781282212443,
        "Lon": 121.530144788528,
        "Sequence": 17,
        "StationID": "9434"
      },
      {
        "Name": "圓山大飯店",
        "Lat": 25.077322358349,
        "Lon": 121.527964269875,
        "Sequence": 18,
        "StationID": "1357"
      },
      {
        "Name": "劍潭",
        "Lat": 25.0805889011559,
        "Lon": 121.524381872313,
        "Sequence": 19,
        "StationID": "50629"
      },
      {
        "Name": "捷運劍潭站(北藝中心)",
        "Lat": 25.084952,
        "Lon": 121.525031,
        "Sequence": 20,
        "StationID": "1000256"
      },
      {
        "Name": "小北街",
        "Lat": 25.0907094764658,
        "Lon": 121.526963489882,
        "Sequence": 21,
        "StationID": "10208"
      },
      {
        "Name": "士林區農會",
        "Lat": 25.0928638299869,
        "Lon": 121.525671636781,
        "Sequence": 22,
        "StationID": "583"
      },
      {
        "Name": "士林國中",
        "Lat": 25.094772,
        "Lon": 121.522929,
        "Sequence": 23,
        "StationID": "1165604814"
      },
      {
        "Name": "士林區行政中心(中正)",
        "Lat": 25.093132,
        "Lon": 121.519396,
        "Sequence": 24,
        "StationID": "575"
      },
      {
        "Name": "陽明高中",
        "Lat": 25.092141,
        "Lon": 121.517889,
        "Sequence": 25,
        "StationID": "1000115"
      },
      {
        "Name": "社子市場",
        "Lat": 25.08750559,
        "Lon": 121.5090743,
        "Sequence": 26,
        "StationID": "5987"
      },
      {
        "Name": "社園里",
        "Lat": 25.08905628,
        "Lon": 121.5079873,
        "Sequence": 27,
        "StationID": "5986"
      },
      {
        "Name": "社子派出所",
        "Lat": 25.08959947,
        "Lon": 121.5064251,
        "Sequence": 28,
        "StationID": "5985"
      },
      {
        "Name": "永倫里(南)",
        "Lat": 25.089467,
        "Lon": 121.503968,
        "Sequence": 29,
        "StationID": "1165606326"
      },
      {
        "Name": "社子國小",
        "Lat": 25.08990453695691,
        "Lon": 121.50257764702363,
        "Sequence": 30,
        "StationID": "5983"
      },
      {
        "Name": "永倫里(延平)",
        "Lat": 25.091148,
        "Lon": 121.500682,
        "Sequence": 31,
        "StationID": "5981"
      }
    ]
  }
]