[
  {
    "Route": "641",
    "SubRoute": "641",
    "Direction": 0,
    "Stops": [
      {
        "Name": "三重客運五股站",
        "Lat": 25.090746,
        "Lon": 121.428434,
        "Sequence": 1,
        "StationID": "1165604674"
      },
      {
        "Name": "冷水坑",
        "Lat": 25.092849,
        "Lon": 121.425727,
        "Sequence": 2,
        "StationID": "36044"
      },
      {
        "Name": "隆德橋",
        "Lat": 25.0964931822772,
        "Lon": 121.420928365948,
        "Sequence": 3,
        "StationID": "36045"
      },
      {
        "Name": "張厝",
        "Lat": 25.098116,
        "Lon": 121.41831,
        "Sequence": 4,
        "StationID": "3740"
      },
      {
        "Name": "集會所",
        "Lat": 25.101445,
        "Lon": 121.413926,
        "Sequence": 5,
        "StationID": "1001007"
      },
      {
        "Name": "茶場",
        "Lat": 25.104889,
        "Lon": 121.409933,
        "Sequence": 6,
        "StationID": "36047"
      },
      {
        "Name": "活動中心",
        "Lat": 25.1072,
        "Lon": 121.40665,
        "Sequence": 7,
        "StationID": "36048"
      },
      {
        "Name": "五龍里",
        "Lat": 25.10959669518,
        "Lon": 121.404978279529,
        "Sequence": 8,
        "StationID": "3712"
      },
      {
        "Name": "五林路口",
        "Lat": 25.11412,
        "Lon": 121.40292,
        "Sequence": 9,
        "StationID": "36049"
      },
      {
        "Name": "五林路口",
        "Lat": 25.11413,
        "Lon": 121.40271,
        "Sequence": 10,
        "StationID": "3704"
      },
      {
        "Name": "五龍里",
        "Lat": 25.10943251,
        "Lon": 121.4048108,
        "Sequence": 11,
        "StationID": "1001003"
      },
      {
        "Name": "活動中心",
        "Lat": 25.10706,
        "Lon": 121.406502,
        "Sequence": 12,
        "StationID": "2914"
      },
      {
        "Name": "茶場",
        "Lat": 25.10475657,
        "Lon": 121.4099056,
        "Sequence": 13,
        "StationID": "3738"
      },
      {
        "Name": "集會所",
        "Lat": 25.101096,
        "Lon": 121.414063,
        "Sequence": 14,
        "StationID": "36050"
      },
      {
        "Name": "張厝",
        "Lat": 25.098328,
        "Lon": 121.417745,
        "Sequence": 15,
        "StationID": "1165603256"
      },
      {
        "Name": "隆德橋",
        "Lat": 25.0964,
        "Lon": 121.42103,
        "Sequence": 16,
        "StationID": "3757"
      },
      {
        "Name": "冷水坑",
        "Lat": 25.09276,
        "Lon": 121.42567,
        "Sequence": 17,
        "StationID": "1001456"
      },
      {
        "Name": "五股站",
        "Lat": 25.089897,
        "Lon": 121.429602,
        "Sequence": 18,
        "StationID": "36042"
      },
      {
        "Name": "陸光國宅一",
        "Lat": 25.08875,
        "Lon": 121.43068,
        "Sequence": 19,
        "StationID": "3749"
      },
      {
        "Name": "陸光國宅",
        "Lat": 25.08828581,
        "Lon": 121.432152,
        "Sequence": 20,
        "StationID": "3750"
      },
      {
        "Name": "五福社區",
        "Lat": 25.087079,
        "Lon": 121.433545,
        "Sequence": 21,
        "StationID": "36037"
      },
      {
        "Name": "社區活動中心",
        "Lat": 25.086058,
        "Lon": 121.435723,
        "Sequence": 22,
        "StationID": "36038"
      },
      {
        "Name": "永豐商業銀行",
        "Lat": 25.08499,
        "Lon": 121.43786,
        "Sequence": 23,
        "StationID": "36039"
      },
      {
        "Name": "立體停車場(五股公有市場)",
        "Lat": 25.082891,
        "Lon": 121.439703,
        "Sequence": 24,
        "StationID": "3716"
      },
      {
        "Name": "中興路三段",
        "Lat": 25.08137,
        "Lon": 121.44217,
        "Sequence": 25,
        "StationID": "20407"
      },
      {
        "Name": "親水公園",
        "Lat": 25.077981,
        "Lon": 121.455171,
        "Sequence": 26,
        "StationID": "36051"
      },
      {
        "Name": "更寮",
        "Lat": 25.07816,
        "Lon": 121.45911,
        "Sequence": 27,
        "StationID": "36052"
      },
      {
        "Name": "敏雄商行",
        "Lat": 25.077292,
        "Lon": 121.460632,
        "Sequence": 28,
        "StationID": "1165604658"
      },
      {
        "Name": "中興路二段",
        "Lat": 25.076451,
        "Lon": 121.461794,
        "Sequence": 29,
        "StationID": "36054"
      },
      {
        "Name": "鴨母港",
        "Lat": 25.07419,
        "Lon": 121.46368,
        "Sequence": 30,
        "StationID": "3769"
      },
      {
        "Name": "和泰新村",
        "Lat": 25.073636,
        "Lon": 121.464835,
        "Sequence": 31,
        "StationID": "1001001"
      },
      {
        "Name": "褒仔寮",
        "Lat": 25.07235,
        "Lon": 121.468721,
        "Sequence": 32,
        "StationID": "3687"
      },
      {
        "Name": "穀保家商",
        "Lat": 25.0720737220282,
        "Lon": 121.470692510068,
        "Sequence": 33,
        "StationID": "10615"
      },
      {
        "Name": "仙公廟",
        "Lat": 25.071403,
        "Lon": 121.473752,
        "Sequence": 34,
        "StationID": "3421"
      },
      {
        "Name": "博愛新村(三民街)",
        "Lat": 25.069312,
        "Lon": 121.476744,
        "Sequence": 35,
        "StationID": "3453"
      },
      {
        "Name": "三重商工(三民街)",
        "Lat": 25.067757,
        "Lon": 121.479518,
        "Sequence": 36,
        "StationID": "3400"
      },
      {
        "Name": "東海中學",
        "Lat": 25.065398,
        "Lon": 121.482301,
        "Sequence": 37,
        "StationID": "10625"
      },
      {
        "Name": "三民街",
        "Lat": 25.06332591,
        "Lon": 121.485128,
        "Sequence": 38,
        "StationID": "3386"
      },
      {
        "Name": "三重區公所(新北大道)",
        "Lat": 25.061249,
        "Lon": 121.48857,
        "Sequence": 39,
        "StationID": "13210"
      },
      {
        "Name": "聯合醫院(三重院區)",
        "Lat": 25.0612882442498,
        "Lon": 121.490767288608,
        "Sequence": 40,
        "StationID": "13209"
      },
      {
        "Name": "大同路口",
        "Lat": 25.061403,
        "Lon": 121.49493,
        "Sequence": 41,
        "StationID": "3387"
      },
      {
        "Name": "天台廣場",
        "Lat": 25.062277,
        "Lon": 121.498323,
        "Sequence": 42,
        "StationID": "1000843"
      },
      {
        "Name": "捷運台北橋站",
        "Lat": 25.063054,
        "Lon": 121.50044,
        "Sequence": 43,
        "StationID": "60059"
      },
      {
        "Name": "三重派出所(重新路)",
        "Lat": 25.0636037876107,
        "Lon": 121.501898428168,
        "Sequence": 44,
        "StationID": "20263"
      },
      {
        "Name": "涼州重慶路口",
        "Lat": 25.060980060423,
        "Lon": 121.513509342762,
        "Sequence": 45,
        "StationID": "8624"
      },
      {
        "Name": "民生重慶路口",
        "Lat": 25.0571504842388,
        "Lon": 121.51369271164,
        "Sequence": 46,
        "StationID": "1421"
      },
      {
        "Name": "朝陽公園(鈕釦街)",
        "Lat": 25.055504,
        "Lon": 121.514022,
        "Sequence": 47,
        "StationID": "1165605935"
      },
      {
        "Name": "圓環(重慶)",
        "Lat": 25.0530178614119,
        "Lon": 121.514023920514,
        "Sequence": 48,
        "StationID": "16018"
      },
      {
        "Name": "後車站",
        "Lat": 25.050402129064192,
        "Lon": 121.51344796988172,
        "Sequence": 49,
        "StationID": "1000683"
      },
      {
        "Name": "臺北車站(鄭州)",
        "Lat": 25.0484971857801,
        "Lon": 121.51719764702355,
        "Sequence": 50,
        "StationID": "1895"
      }
    ]
  },
  {
    "Route": "641",
    "SubRoute": "641",
    "Direction": 1,
    "Stops": [
      {
        "Name": "延平鄭州路口",
        "Lat": 25.05089,
        "Lon": 121.512006,
        "Sequence": 1,
        "StationID": "1928"
      },
      {
        "Name": "延平長安路口",
        "Lat": 25.053232,
        "Lon": 121.511847,
        "Sequence": 2,
        "StationID": "6000"
      },
      {
        "Name": "南京西路口(鈕釦街)",
        "Lat": 25.0544278399852,
        "Lon": 121.511797370504,
        "Sequence": 3,
        "StationID": "5999"
      },
      {
        "Name": "民生西路口(大稻埕碼頭)",
        "Lat": 25.05744181,
        "Lon": 121.5116168,
        "Sequence": 4,
        "StationID": "1419"
      },
      {
        "Name": "保安街口",
        "Lat": 25.0598403602302,
        "Lon": 121.511472403359,
        "Sequence": 5,
        "StationID": "1444"
      },
      {
        "Name": "臺北橋",
        "Lat": 25.06155982,
        "Lon": 121.5113712,
        "Sequence": 6,
        "StationID": "5995"
      },
      {
        "Name": "延三觀光夜市",
        "Lat": 25.0636257,
        "Lon": 121.5112212,
        "Sequence": 7,
        "StationID": "1479"
      },
      {
        "Name": "延平國小",
        "Lat": 25.06641831,
        "Lon": 121.5110617,
        "Sequence": 8,
        "StationID": "5994"
      },
      {
        "Name": "天師宮",
        "Lat": 25.068027,
        "Lon": 121.510919,
        "Sequence": 9,
        "StationID": "5993"
      },
      {
        "Name": "民族西路",
        "Lat": 25.06858641,
        "Lon": 121.5127488,
        "Sequence": 10,
        "StationID": "1423"
      },
      {
        "Name": "昌吉重慶路口(延平國小)",
        "Lat": 25.06685,
        "Lon": 121.513547,
        "Sequence": 11,
        "StationID": "1165603307"
      },
      {
        "Name": "捷運大橋頭站",
        "Lat": 25.064294,
        "Lon": 121.5134996,
        "Sequence": 12,
        "StationID": "70013"
      },
      {
        "Name": "三重派出所(重新路)",
        "Lat": 25.063667,
        "Lon": 121.501606,
        "Sequence": 13,
        "StationID": "3488"
      },
      {
        "Name": "捷運台北橋站",
        "Lat": 25.06321,
        "Lon": 121.500403,
        "Sequence": 14,
        "StationID": "13200"
      },
      {
        "Name": "天台廣場",
        "Lat": 25.061930885,
        "Lon": 121.496784994,
        "Sequence": 15,
        "StationID": "3452"
      },
      {
        "Name": "大同路口",
        "Lat": 25.0614913406773,
        "Lon": 121.494254721567,
        "Sequence": 16,
        "StationID": "1000149"
      },
      {
        "Name": "聯合醫院(三重院區)",
        "Lat": 25.06145,
        "Lon": 121.49077,
        "Sequence": 17,
        "StationID": "13212"
      },
      {
        "Name": "三重區公所(新北大道)",
        "Lat": 25.061474,
        "Lon": 121.488152,
        "Sequence": 18,
        "StationID": "3394"
      },
      {
        "Name": "三民街",
        "Lat": 25.06343,
        "Lon": 121.485248,
        "Sequence": 19,
        "StationID": "10624"
      },
      {
        "Name": "東海中學",
        "Lat": 25.065509,
        "Lon": 121.482592,
        "Sequence": 20,
        "StationID": "3432"
      },
      {
        "Name": "三重商工(三民街)",
        "Lat": 25.068431,
        "Lon": 121.478826,
        "Sequence": 21,
        "StationID": "10623"
      },
      {
        "Name": "博愛新村",
        "Lat": 25.0695224403088,
        "Lon": 121.477687916123,
        "Sequence": 22,
        "StationID": "3454"
      },
      {
        "Name": "仙公廟",
        "Lat": 25.0715506158941,
        "Lon": 121.473796826188,
        "Sequence": 23,
        "StationID": "10617"
      },
      {
        "Name": "穀保家商",
        "Lat": 25.07213746,
        "Lon": 121.47112,
        "Sequence": 24,
        "StationID": "10614"
      },
      {
        "Name": "褒仔寮",
        "Lat": 25.0725757837781,
        "Lon": 121.468381204695,
        "Sequence": 25,
        "StationID": "15056"
      },
      {
        "Name": "和泰新村",
        "Lat": 25.07344,
        "Lon": 121.46574,
        "Sequence": 26,
        "StationID": "3729"
      },
      {
        "Name": "鴨母港",
        "Lat": 25.07425,
        "Lon": 121.4637,
        "Sequence": 27,
        "StationID": "36055"
      },
      {
        "Name": "中興路二段",
        "Lat": 25.0766,
        "Lon": 121.461831,
        "Sequence": 28,
        "StationID": "36053"
      },
      {
        "Name": "敏雄商行",
        "Lat": 25.077422,
        "Lon": 121.460568,
        "Sequence": 29,
        "StationID": "1165604659"
      },
      {
        "Name": "更寮",
        "Lat": 25.07815,
        "Lon": 121.45928,
        "Sequence": 30,
        "StationID": "3728"
      },
      {
        "Name": "親水公園",
        "Lat": 25.07816,
        "Lon": 121.45537,
        "Sequence": 31,
        "StationID": "3768"
      },
      {
        "Name": "中興路三段",
        "Lat": 25.08207123,
        "Lon": 121.4415022,
        "Sequence": 32,
        "StationID": "1001000"
      },
      {
        "Name": "立體停車場(五股公有市場)",
        "Lat": 25.084073,
        "Lon": 121.439172,
        "Sequence": 33,
        "StationID": "36040"
      },
      {
        "Name": "永豐商業銀行",
        "Lat": 25.08537405,
        "Lon": 121.4376824,
        "Sequence": 34,
        "StationID": "3715"
      },
      {
        "Name": "社區活動中心",
        "Lat": 25.08630203,
        "Lon": 121.4356073,
        "Sequence": 35,
        "StationID": "3732"
      },
      {
        "Name": "五福社區",
        "Lat": 25.08729976,
        "Lon": 121.4334512,
        "Sequence": 36,
        "StationID": "3711"
      },
      {
        "Name": "陸光國宅",
        "Lat": 25.088405,
        "Lon": 121.432239,
        "Sequence": 37,
        "StationID": "3743"
      },
      {
        "Name": "陸光國宅一",
        "Lat": 25.08887,
        "Lon": 121.43072,
        "Sequence": 38,
        "StationID": "3751"
      },
      {
        "Name": "五股站",
        "Lat": 25.089987,
        "Lon": 121.429737,
        "Sequence": 39,
        "StationID": "3706"
      },
      {
        "Name": "三重客運五股站",
        "Lat": 25.090746,
        "Lon": 121.428434,
        "Sequence": 40,
        "StationID": "1165604674"
      }
    ]
  }
]