[
  {
    "Route": "18",
    "SubRoute": "18",
    "Direction": 0,
    "Stops": [
      {
        "Name": "華江站",
        "Lat": 25.03228397,
        "Lon": 121.4889513,
        "Sequence": 1,
        "StationID": "429"
      },
      {
        "Name": "人壽一村",
        "Lat": 25.0315232668912,
        "Lon": 121.490275889545,
        "Sequence": 2,
        "StationID": "1733"
      },
      {
        "Name": "大理高中",
        "Lat": 25.031919,
        "Lon": 121.491328,
        "Sequence": 3,
        "StationID": "1165610157"
      },
      {
        "Name": "華江派出所",
        "Lat": 25.0341141458286,
        "Lon": 121.493340521386,
        "Sequence": 4,
        "StationID": "1001358"
      },
      {
        "Name": "龍山國小",
        "Lat": 25.0362,
        "Lon": 121.4953,
        "Sequence": 5,
        "StationID": "3945"
      },
      {
        "Name": "萬華分局",
        "Lat": 25.03842129,
        "Lon": 121.4979101,
        "Sequence": 6,
        "StationID": "1812"
      },
      {
        "Name": "桂林路",
        "Lat": 25.0383544871594,
        "Lon": 121.501102766364,
        "Sequence": 7,
        "StationID": "1783"
      },
      {
        "Name": "昆明活動中心",
        "Lat": 25.03871131,
        "Lon": 121.5040228,
        "Sequence": 8,
        "StationID": "1808"
      },
      {
        "Name": "內江街",
        "Lat": 25.04153818,
        "Lon": 121.5051324,
        "Sequence": 9,
        "StationID": "1741"
      },
      {
        "Name": "西門市場(漢中)",
        "Lat": 25.04202065,
        "Lon": 121.507436,
        "Sequence": 10,
        "StationID": "1753"
      },
      {
        "Name": "寶慶路",
        "Lat": 25.0414915346214,
        "Lon": 121.509834083745,
        "Sequence": 11,
        "StationID": "2027"
      },
      {
        "Name": "博愛路",
        "Lat": 25.043262,
        "Lon": 121.511555,
        "Sequence": 12,
        "StationID": "2002"
      },
      {
        "Name": "臺北郵局",
        "Lat": 25.04676506,
        "Lon": 121.5112936,
        "Sequence": 13,
        "StationID": "1000108"
      },
      {
        "Name": "臺北車站(忠孝)",
        "Lat": 25.0468151658683,
        "Lon": 121.514521527226,
        "Sequence": 14,
        "StationID": "1888"
      },
      {
        "Name": "臺大醫院",
        "Lat": 25.042525923467416,
        "Lon": 121.51846488093777,
        "Sequence": 15,
        "StationID": "50687"
      },
      {
        "Name": "捷運中正紀念堂站(中山)",
        "Lat": 25.03643,
        "Lon": 121.51673,
        "Sequence": 16,
        "StationID": "1977"
      },
      {
        "Name": "捷運中正紀念堂站(勞保局)",
        "Lat": 25.03371811,
        "Lon": 121.5173064,
        "Sequence": 17,
        "StationID": "1978"
      },
      {
        "Name": "自來水西分處(寧波)",
        "Lat": 25.029828,
        "Lon": 121.5157,
        "Sequence": 18,
        "StationID": "1916"
      },
      {
        "Name": "聯合醫院婦幼院區一",
        "Lat": 25.0299878580087,
        "Lon": 121.518037534882,
        "Sequence": 19,
        "StationID": "50685"
      },
      {
        "Name": "南昌家具街",
        "Lat": 25.0273649962157,
        "Lon": 121.520315080867,
        "Sequence": 20,
        "StationID": "1944"
      },
      {
        "Name": "捷運古亭站(和平)",
        "Lat": 25.02678744,
        "Lon": 121.5246159,
        "Sequence": 21,
        "StationID": "2311"
      },
      {
        "Name": "師大",
        "Lat": 25.02650071684031,
        "Lon": 121.5278634988405,
        "Sequence": 22,
        "StationID": "2289"
      },
      {
        "Name": "師大綜合大樓",
        "Lat": 25.026362,
        "Lon": 121.529958,
        "Sequence": 23,
        "StationID": "2291"
      },
      {
        "Name": "溫州街口",
        "Lat": 25.0260973914545,
        "Lon": 121.533012542409,
        "Sequence": 24,
        "StationID": "3914"
      },
      {
        "Name": "大安森林公園",
        "Lat": 25.0257355123764,
        "Lon": 121.536235879941,
        "Sequence": 25,
        "StationID": "2190"
      },
      {
        "Name": "龍門國中(和平)",
        "Lat": 25.0254072414078,
        "Lon": 121.538492198683,
        "Sequence": 26,
        "StationID": "2345"
      },
      {
        "Name": "復興南路口",
        "Lat": 25.0249140592421,
        "Lon": 121.542239793699,
        "Sequence": 27,
        "StationID": "2327"
      },
      {
        "Name": "國立臺北教育大學",
        "Lat": 25.0246033941802,
        "Lon": 121.545343325676,
        "Sequence": 28,
        "StationID": "2300"
      },
      {
        "Name": "臥龍街",
        "Lat": 25.024522,
        "Lon": 121.547571,
        "Sequence": 29,
        "StationID": "2267"
      },
      {
        "Name": "和平安和路口",
        "Lat": 25.0242726614044,
        "Lon": 121.550861893498,
        "Sequence": 30,
        "StationID": "2250"
      },
      {
        "Name": "捷運六張犁站(和平)",
        "Lat": 25.0232432826612,
        "Lon": 121.553534505165,
        "Sequence": 31,
        "StationID": "2146"
      },
      {
        "Name": "富陽街口",
        "Lat": 25.0210340657202,
        "Lon": 121.555910878022,
        "Sequence": 32,
        "StationID": "2085"
      },
      {
        "Name": "黎忠市場",
        "Lat": 25.01926083,
        "Lon": 121.5578044,
        "Sequence": 33,
        "StationID": "2172"
      },
      {
        "Name": "捷運麟光站",
        "Lat": 25.01825,
        "Lon": 121.55853,
        "Sequence": 34,
        "StationID": "2157"
      }
    ]
  },
  {
    "Route": "18",
    "SubRoute": "18",
    "Direction": 1,
    "Stops": [
      {
        "Name": "黎忠市場",
        "Lat": 25.019475,
        "Lon": 121.557953,
        "Sequence": 1,
        "StationID": "6015"
      },
      {
        "Name": "富陽街口",
        "Lat": 25.021127,
        "Lon": 121.55616,
        "Sequence": 2,
        "StationID": "2160"
      },
      {
        "Name": "捷運六張犁站(和平)",
        "Lat": 25.022926,
        "Lon": 121.554225,
        "Sequence": 3,
        "StationID": "2147"
      },
      {
        "Name": "和平安和路口",
        "Lat": 25.02462276337447,
        "Lon": 121.55135072927436,
        "Sequence": 4,
        "StationID": "1165607095"
      },
      {
        "Name": "臥龍街",
        "Lat": 25.0247072352904,
        "Lon": 121.547497854598,
        "Sequence": 5,
        "StationID": "6020"
      },
      {
        "Name": "國立臺北教育大學",
        "Lat": 25.02482681,
        "Lon": 121.5448151,
        "Sequence": 6,
        "StationID": "2304"
      },
      {
        "Name": "復興南路口",
        "Lat": 25.0251035284638,
        "Lon": 121.542376119519,
        "Sequence": 7,
        "StationID": "6021"
      },
      {
        "Name": "國北教大實小",
        "Lat": 25.02532,
        "Lon": 121.54065,
        "Sequence": 8,
        "StationID": "2299"
      },
      {
        "Name": "龍門國中(和平)",
        "Lat": 25.0255275256686,
        "Lon": 121.539154243763,
        "Sequence": 9,
        "StationID": "3942"
      },
      {
        "Name": "大安森林公園",
        "Lat": 25.0259280472003,
        "Lon": 121.53631985296,
        "Sequence": 10,
        "StationID": "2192"
      },
      {
        "Name": "溫州街口",
        "Lat": 25.0263548162126,
        "Lon": 121.532693859225,
        "Sequence": 11,
        "StationID": "6024"
      },
      {
        "Name": "師大綜合大樓",
        "Lat": 25.026622,
        "Lon": 121.53006,
        "Sequence": 12,
        "StationID": "2292"
      },
      {
        "Name": "師大",
        "Lat": 25.026738138642,
        "Lon": 121.527713493878,
        "Sequence": 13,
        "StationID": "6025"
      },
      {
        "Name": "捷運古亭站(和平)",
        "Lat": 25.027172,
        "Lon": 121.523152,
        "Sequence": 14,
        "StationID": "6026"
      },
      {
        "Name": "羅斯福潮州街口",
        "Lat": 25.02922,
        "Lon": 121.52096,
        "Sequence": 15,
        "StationID": "1165606957"
      },
      {
        "Name": "捷運中正紀念堂站(羅斯福)",
        "Lat": 25.0322495874994,
        "Lon": 121.51880642264224,
        "Sequence": 16,
        "StationID": "1982"
      },
      {
        "Name": "一女中(公園)",
        "Lat": 25.0368285357308,
        "Lon": 121.515136595156,
        "Sequence": 17,
        "StationID": "6713"
      },
      {
        "Name": "捷運台大醫院站",
        "Lat": 25.04192722,
        "Lon": 121.5163535,
        "Sequence": 18,
        "StationID": "1993"
      },
      {
        "Name": "博物館(館前)",
        "Lat": 25.0441772424518,
        "Lon": 121.515057344159,
        "Sequence": 19,
        "StationID": "2001"
      },
      {
        "Name": "臺北車站(開封)",
        "Lat": 25.046027,
        "Lon": 121.513879,
        "Sequence": 20,
        "StationID": "1892"
      },
      {
        "Name": "重慶南路一段",
        "Lat": 25.04441023077385,
        "Lon": 121.51311219241008,
        "Sequence": 21,
        "StationID": "1165604850"
      },
      {
        "Name": "二二八和平公園",
        "Lat": 25.0423685522993,
        "Lon": 121.512543916311,
        "Sequence": 22,
        "StationID": "1848"
      },
      {
        "Name": "衡陽路",
        "Lat": 25.04227,
        "Lon": 121.51021,
        "Sequence": 23,
        "StationID": "1165606055"
      },
      {
        "Name": "西門市場(成都)",
        "Lat": 25.042689544956,
        "Lon": 121.50665358531,
        "Sequence": 24,
        "StationID": "1752"
      },
      {
        "Name": "西寧南路",
        "Lat": 25.03991,
        "Lon": 121.50604,
        "Sequence": 25,
        "StationID": "1757"
      },
      {
        "Name": "桂林昆明街口",
        "Lat": 25.0381,
        "Lon": 121.5043,
        "Sequence": 26,
        "StationID": "1761"
      },
      {
        "Name": "桂林路",
        "Lat": 25.0384724642396,
        "Lon": 121.500815164828,
        "Sequence": 27,
        "StationID": "4615"
      },
      {
        "Name": "萬華分局",
        "Lat": 25.03861022,
        "Lon": 121.4980643,
        "Sequence": 28,
        "StationID": "4614"
      },
      {
        "Name": "龍山國小",
        "Lat": 25.03611,
        "Lon": 121.49478,
        "Sequence": 29,
        "StationID": "1834"
      },
      {
        "Name": "華江派出所",
        "Lat": 25.034006,
        "Lon": 121.493016,
        "Sequence": 30,
        "StationID": "1000096"
      },
      {
        "Name": "力霸社區",
        "Lat": 25.034167,
        "Lon": 121.490111,
        "Sequence": 31,
        "StationID": "1165604717"
      },
      {
        "Name": "華江站",
        "Lat": 25.032439944656794,
        "Lon": 121.48889339128904,
        "Sequence": 32,
        "StationID": "1165608959"
      }
    ]
  }
]