[
  {
    "Route": "小1",
    "SubRoute": "小1",
    "Direction": 0,
    "Stops": [
      {
        "Name": "中華科技大學(正門)",
        "Lat": 25.03382827,
        "Lon": 121.6097652,
        "Sequence": 1,
        "StationID": "4085"
      },
      {
        "Name": "中華科技大學",
        "Lat": 25.033428,
        "Lon": 121.611345,
        "Sequence": 2,
        "StationID": "1613"
      },
      {
        "Name": "軍人公墓",
        "Lat": 25.0332955,
        "Lon": 121.6121944,
        "Sequence": 3,
        "StationID": "1000965"
      },
      {
        "Name": "凌雲站",
        "Lat": 25.0346121838879,
        "Lon": 121.61448946069,
        "Sequence": 4,
        "StationID": "3870"
      },
      {
        "Name": "九如里二",
        "Lat": 25.034863,
        "Lon": 121.61612,
        "Sequence": 5,
        "StationID": "1618"
      },
      {
        "Name": "凌雲五村",
        "Lat": 25.035872068306,
        "Lon": 121.61695169081,
        "Sequence": 6,
        "StationID": "50024"
      },
      {
        "Name": "九如里一",
        "Lat": 25.03770122,
        "Lon": 121.6170236,
        "Sequence": 7,
        "StationID": "1616"
      },
      {
        "Name": "胡適公園",
        "Lat": 25.040597,
        "Lon": 121.617633,
        "Sequence": 8,
        "StationID": "50023"
      },
      {
        "Name": "中研院",
        "Lat": 25.043422,
        "Lon": 121.616561,
        "Sequence": 9,
        "StationID": "50026"
      },
      {
        "Name": "中研新村",
        "Lat": 25.045074,
        "Lon": 121.615639,
        "Sequence": 10,
        "StationID": "1000313"
      },
      {
        "Name": "圓拱橋",
        "Lat": 25.047462,
        "Lon": 121.615728,
        "Sequence": 11,
        "StationID": "50022"
      },
      {
        "Name": "南港水廠",
        "Lat": 25.048610235261958,
        "Lon": 121.61601678871844,
        "Sequence": 12,
        "StationID": "50021"
      },
      {
        "Name": "誠正國中",
        "Lat": 25.0515460114719,
        "Lon": 121.61603141641,
        "Sequence": 13,
        "StationID": "50020"
      },
      {
        "Name": "南港展覽館",
        "Lat": 25.05534,
        "Lon": 121.6156,
        "Sequence": 14,
        "StationID": "1664"
      },
      {
        "Name": "南港軟體園區南站",
        "Lat": 25.05641711,
        "Lon": 121.6141291,
        "Sequence": 15,
        "StationID": "1678"
      },
      {
        "Name": "南港軟體園區北站",
        "Lat": 25.05870570745196,
        "Lon": 121.61427996989374,
        "Sequence": 16,
        "StationID": "1000273"
      },
      {
        "Name": "捷運東湖站(南湖高中)",
        "Lat": 25.0672071869982,
        "Lon": 121.611573583354,
        "Sequence": 17,
        "StationID": "70072"
      },
      {
        "Name": "五分社區",
        "Lat": 25.06860831,
        "Lon": 121.6144033,
        "Sequence": 18,
        "StationID": "986"
      },
      {
        "Name": "東湖國小",
        "Lat": 25.06806969,
        "Lon": 121.6165906,
        "Sequence": 19,
        "StationID": "8530"
      },
      {
        "Name": "東湖社區",
        "Lat": 25.069547,
        "Lon": 121.618788,
        "Sequence": 20,
        "StationID": "1044"
      },
      {
        "Name": "康樂街",
        "Lat": 25.07119075,
        "Lon": 121.6191996,
        "Sequence": 21,
        "StationID": "1000734"
      },
      {
        "Name": "東湖國中",
        "Lat": 25.07287274,
        "Lon": 121.6194588,
        "Sequence": 22,
        "StationID": "1000677"
      },
      {
        "Name": "五分埤",
        "Lat": 25.0761334864734,
        "Lon": 121.621188834486,
        "Sequence": 23,
        "StationID": "1000211"
      },
      {
        "Name": "康湖隧道口(白馬山莊)",
        "Lat": 25.07715,
        "Lon": 121.62288,
        "Sequence": 24,
        "StationID": "50445"
      },
      {
        "Name": "南寮(忠三街口)",
        "Lat": 25.078715,
        "Lon": 121.62361,
        "Sequence": 25,
        "StationID": "1042"
      },
      {
        "Name": "奇頭",
        "Lat": 25.08560205,
        "Lon": 121.6239114,
        "Sequence": 26,
        "StationID": "1001242"
      }
    ]
  },
  {
    "Route": "小1",
    "SubRoute": "小1",
    "Direction": 1,
    "Stops": [
      {
        "Name": "內溝",
        "Lat": 25.096743,
        "Lon": 121.614669,
        "Sequence": 1,
        "StationID": "1001280"
      },
      {
        "Name": "奇頭",
        "Lat": 25.08546771,
        "Lon": 121.6237679,
        "Sequence": 2,
        "StationID": "1001281"
      },
      {
        "Name": "南寮(忠三街口)",
        "Lat": 25.079068,
        "Lon": 121.623553,
        "Sequence": 3,
        "StationID": "50446"
      },
      {
        "Name": "康湖隧道口(白馬山莊)",
        "Lat": 25.0773157481393,
        "Lon": 121.622813623616,
        "Sequence": 4,
        "StationID": "1025"
      },
      {
        "Name": "五分埤",
        "Lat": 25.0762017702812,
        "Lon": 121.62118809341,
        "Sequence": 5,
        "StationID": "1000201"
      },
      {
        "Name": "東湖國中",
        "Lat": 25.0726450755284,
        "Lon": 121.619351259043,
        "Sequence": 6,
        "StationID": "1055"
      },
      {
        "Name": "康樂街",
        "Lat": 25.0711232284945,
        "Lon": 121.619134959956,
        "Sequence": 7,
        "StationID": "1000203"
      },
      {
        "Name": "東湖社區",
        "Lat": 25.06922957,
        "Lon": 121.6184776,
        "Sequence": 8,
        "StationID": "50444"
      },
      {
        "Name": "東湖國小",
        "Lat": 25.068177,
        "Lon": 121.61668,
        "Sequence": 9,
        "StationID": "8531"
      },
      {
        "Name": "五分社區",
        "Lat": 25.068763284981,
        "Lon": 121.614308439756,
        "Sequence": 10,
        "StationID": "5441"
      },
      {
        "Name": "捷運東湖站(南湖高中)",
        "Lat": 25.0674930032886,
        "Lon": 121.61150222666,
        "Sequence": 11,
        "StationID": "1073"
      },
      {
        "Name": "南港軟體園區北站",
        "Lat": 25.0587135046885,
        "Lon": 121.61407454595626,
        "Sequence": 12,
        "StationID": "1000251"
      },
      {
        "Name": "南港軟體園區南站",
        "Lat": 25.05655055325109,
        "Lon": 121.61389139258283,
        "Sequence": 13,
        "StationID": "1000252"
      },
      {
        "Name": "南港展覽館",
        "Lat": 25.054699,
        "Lon": 121.616456,
        "Sequence": 14,
        "StationID": "1165606825"
      },
      {
        "Name": "誠正國中",
        "Lat": 25.0518036904539,
        "Lon": 121.615865875754,
        "Sequence": 15,
        "StationID": "1711"
      },
      {
        "Name": "南港水廠",
        "Lat": 25.049543,
        "Lon": 121.615625,
        "Sequence": 16,
        "StationID": "1650"
      },
      {
        "Name": "圓拱橋",
        "Lat": 25.047199,
        "Lon": 121.615363,
        "Sequence": 17,
        "StationID": "1707"
      },
      {
        "Name": "中研新村",
        "Lat": 25.044722099556466,
        "Lon": 121.61558513647303,
        "Sequence": 18,
        "StationID": "1611"
      },
      {
        "Name": "中研院",
        "Lat": 25.04313,
        "Lon": 121.61648,
        "Sequence": 19,
        "StationID": "1610"
      },
      {
        "Name": "胡適公園",
        "Lat": 25.039528,
        "Lon": 121.617338,
        "Sequence": 20,
        "StationID": "1687"
      },
      {
        "Name": "九如里一",
        "Lat": 25.03813813,
        "Lon": 121.6169015,
        "Sequence": 21,
        "StationID": "1620"
      },
      {
        "Name": "凌雲五村",
        "Lat": 25.036259,
        "Lon": 121.616893,
        "Sequence": 22,
        "StationID": "1690"
      },
      {
        "Name": "九如里二",
        "Lat": 25.03500483,
        "Lon": 121.6161708,
        "Sequence": 23,
        "StationID": "1621"
      },
      {
        "Name": "凌雲站",
        "Lat": 25.03474253,
        "Lon": 121.6147203,
        "Sequence": 24,
        "StationID": "1686"
      },
      {
        "Name": "軍人公墓(正門)",
        "Lat": 25.034447,
        "Lon": 121.611284,
        "Sequence": 25,
        "StationID": "1165603384"
      },
      {
        "Name": "中華科技大學(正門)",
        "Lat": 25.03382827,
        "Lon": 121.6097652,
        "Sequence": 26,
        "StationID": "4085"
      }
    ]
  }
]