[
  {
    "Route": "12",
    "SubRoute": "12",
    "Direction": 0,
    "Stops": [
      {
        "Name": "華中河濱公園",
        "Lat": 25.0171711735736,
        "Lon": 121.496094355207,
        "Sequence": 1,
        "StationID": "1800"
      },
      {
        "Name": "果菜市場",
        "Lat": 25.01987,
        "Lon": 121.497706,
        "Sequence": 2,
        "StationID": "4622"
      },
      {
        "Name": "光仁國小",
        "Lat": 25.02109899,
        "Lon": 121.5000872,
        "Sequence": 3,
        "StationID": "1750"
      },
      {
        "Name": "青年路派出所",
        "Lat": 25.02196658,
        "Lon": 121.5020719,
        "Sequence": 4,
        "StationID": "1775"
      },
      {
        "Name": "青年路",
        "Lat": 25.023224075638726,
        "Lon": 121.50277864902843,
        "Sequence": 5,
        "StationID": "4644"
      },
      {
        "Name": "中正新城",
        "Lat": 25.02477910385403,
        "Lon": 121.50333348774862,
        "Sequence": 6,
        "StationID": "4643"
      },
      {
        "Name": "青年社區",
        "Lat": 25.025478,
        "Lon": 121.504647,
        "Sequence": 7,
        "StationID": "4642"
      },
      {
        "Name": "青年公園(青年)",
        "Lat": 25.02596466,
        "Lon": 121.5062868,
        "Sequence": 8,
        "StationID": "4641"
      },
      {
        "Name": "青年公園(國興)",
        "Lat": 25.0253,
        "Lon": 121.50712,
        "Sequence": 9,
        "StationID": "4620"
      },
      {
        "Name": "國興路口一",
        "Lat": 25.0245858237515,
        "Lon": 121.508810147614,
        "Sequence": 10,
        "StationID": "1790"
      },
      {
        "Name": "國興路口",
        "Lat": 25.025757,
        "Lon": 121.508379,
        "Sequence": 11,
        "StationID": "4602"
      },
      {
        "Name": "中華南海路口",
        "Lat": 25.0272364792619,
        "Lon": 121.506661163485,
        "Sequence": 12,
        "StationID": "4603"
      },
      {
        "Name": "南機場公寓",
        "Lat": 25.0285917595947,
        "Lon": 121.50540777894,
        "Sequence": 13,
        "StationID": "4604"
      },
      {
        "Name": "廈安里",
        "Lat": 25.0306970667598,
        "Lon": 121.504168146781,
        "Sequence": 14,
        "StationID": "4605"
      },
      {
        "Name": "大埔街",
        "Lat": 25.03268103989999,
        "Lon": 121.50499126498305,
        "Sequence": 15,
        "StationID": "1737"
      },
      {
        "Name": "聯合醫院和平院區",
        "Lat": 25.03501116,
        "Lon": 121.5062837,
        "Sequence": 16,
        "StationID": "1165610495"
      },
      {
        "Name": "捷運西門站",
        "Lat": 25.041730058378,
        "Lon": 121.508285900629,
        "Sequence": 17,
        "StationID": "1793"
      },
      {
        "Name": "中華路北站",
        "Lat": 25.0456964941835,
        "Lon": 121.509380726049,
        "Sequence": 18,
        "StationID": "1744"
      },
      {
        "Name": "捷運北門站",
        "Lat": 25.0506096983314,
        "Lon": 121.5106101265,
        "Sequence": 19,
        "StationID": "1001788"
      },
      {
        "Name": "延平一站(長安)",
        "Lat": 25.05188337,
        "Lon": 121.5125579,
        "Sequence": 20,
        "StationID": "1436"
      },
      {
        "Name": "圓環(重慶)",
        "Lat": 25.052844,
        "Lon": 121.514207,
        "Sequence": 21,
        "StationID": "16019"
      },
      {
        "Name": "圓環(南京)",
        "Lat": 25.053651217399,
        "Lon": 121.515705430802,
        "Sequence": 22,
        "StationID": "16015"
      },
      {
        "Name": "捷運中山站(志仁高中)",
        "Lat": 25.0527107746344,
        "Lon": 121.519674930441,
        "Sequence": 23,
        "StationID": "16021"
      },
      {
        "Name": "南京林森路口",
        "Lat": 25.052069472359,
        "Lon": 121.525060474751,
        "Sequence": 24,
        "StationID": "16022"
      },
      {
        "Name": "南京吉林路口",
        "Lat": 25.0520078098529,
        "Lon": 121.529855025946,
        "Sequence": 25,
        "StationID": "16023"
      },
      {
        "Name": "捷運松江南京站",
        "Lat": 25.0519912439505,
        "Lon": 121.532641149751,
        "Sequence": 26,
        "StationID": "16024"
      },
      {
        "Name": "長春國小",
        "Lat": 25.05472,
        "Lon": 121.53409,
        "Sequence": 27,
        "StationID": "1295"
      },
      {
        "Name": "臺北大學(臺北校區)",
        "Lat": 25.05457515,
        "Lon": 121.5380796,
        "Sequence": 28,
        "StationID": "7611"
      },
      {
        "Name": "長春市場",
        "Lat": 25.05456174,
        "Lon": 121.5414952,
        "Sequence": 29,
        "StationID": "7613"
      },
      {
        "Name": "慶城街口",
        "Lat": 25.05447219,
        "Lon": 121.5453828,
        "Sequence": 30,
        "StationID": "1386"
      },
      {
        "Name": "長庚醫院",
        "Lat": 25.05668072,
        "Lon": 121.5492693,
        "Sequence": 31,
        "StationID": "1544"
      },
      {
        "Name": "公教住宅",
        "Lat": 25.05792823,
        "Lon": 121.5525641,
        "Sequence": 32,
        "StationID": "1495"
      },
      {
        "Name": "介壽國中",
        "Lat": 25.058201423962956,
        "Lon": 121.55569442816517,
        "Sequence": 33,
        "StationID": "1497"
      },
      {
        "Name": "聯合二村",
        "Lat": 25.0585017739443,
        "Lon": 121.559216750962,
        "Sequence": 34,
        "StationID": "1597"
      },
      {
        "Name": "民生社區活動中心",
        "Lat": 25.0586405271738,
        "Lon": 121.560927032747,
        "Sequence": 35,
        "StationID": "1506"
      },
      {
        "Name": "廣合新村",
        "Lat": 25.06067,
        "Lon": 121.56339,
        "Sequence": 36,
        "StationID": "1594"
      },
      {
        "Name": "三民國小",
        "Lat": 25.06279839209022,
        "Lon": 121.56364748952177,
        "Sequence": 37,
        "StationID": "8671"
      },
      {
        "Name": "新益里",
        "Lat": 25.062286,
        "Lon": 121.566155,
        "Sequence": 38,
        "StationID": "1503"
      }
    ]
  },
  {
    "Route": "12",
    "SubRoute": "12",
    "Direction": 1,
    "Stops": [
      {
        "Name": "民生國中",
        "Lat": 25.05966141,
        "Lon": 121.5679233,
        "Sequence": 1,
        "StationID": "1507"
      },
      {
        "Name": "新東街口",
        "Lat": 25.0591755,
        "Lon": 121.5663295,
        "Sequence": 2,
        "StationID": "60133"
      },
      {
        "Name": "民生社區活動中心",
        "Lat": 25.058808540179,
        "Lon": 121.561144568697,
        "Sequence": 3,
        "StationID": "1000074"
      },
      {
        "Name": "聯合二村",
        "Lat": 25.0586249332513,
        "Lon": 121.558923442523,
        "Sequence": 4,
        "StationID": "1000075"
      },
      {
        "Name": "介壽國中",
        "Lat": 25.058415078013,
        "Lon": 121.556044429017,
        "Sequence": 5,
        "StationID": "10408"
      },
      {
        "Name": "公教住宅",
        "Lat": 25.05813129,
        "Lon": 121.5526273,
        "Sequence": 6,
        "StationID": "10421"
      },
      {
        "Name": "民生敦化路口",
        "Lat": 25.05785197,
        "Lon": 121.5468517,
        "Sequence": 7,
        "StationID": "10418"
      },
      {
        "Name": "興安華城",
        "Lat": 25.05697224224693,
        "Lon": 121.54399053234562,
        "Sequence": 8,
        "StationID": "1390"
      },
      {
        "Name": "長春市場",
        "Lat": 25.054725622604824,
        "Lon": 121.54156337602802,
        "Sequence": 9,
        "StationID": "1293"
      },
      {
        "Name": "臺北大學(臺北校區)",
        "Lat": 25.05488074,
        "Lon": 121.5386725,
        "Sequence": 10,
        "StationID": "7612"
      },
      {
        "Name": "長春國小",
        "Lat": 25.054886747662636,
        "Lon": 121.53404332756475,
        "Sequence": 11,
        "StationID": "7610"
      },
      {
        "Name": "松江長春路口",
        "Lat": 25.054184898157907,
        "Lon": 121.53289279443148,
        "Sequence": 12,
        "StationID": "6714"
      },
      {
        "Name": "南京吉林路口",
        "Lat": 25.0521129968997,
        "Lon": 121.530332504829,
        "Sequence": 13,
        "StationID": "16012"
      },
      {
        "Name": "南京林森路口",
        "Lat": 25.0521676118001,
        "Lon": 121.525717467074,
        "Sequence": 14,
        "StationID": "16013"
      },
      {
        "Name": "捷運中山站(志仁高中)",
        "Lat": 25.052867,
        "Lon": 121.519866,
        "Sequence": 15,
        "StationID": "16014"
      },
      {
        "Name": "後車站",
        "Lat": 25.05143327,
        "Lon": 121.5151374,
        "Sequence": 16,
        "StationID": "1449"
      },
      {
        "Name": "延平一站(長安)",
        "Lat": 25.0519,
        "Lon": 121.513,
        "Sequence": 17,
        "StationID": "3946"
      },
      {
        "Name": "聯合醫院中興院區(塔城)",
        "Lat": 25.0513352337636,
        "Lon": 121.510398526977,
        "Sequence": 18,
        "StationID": "1484"
      },
      {
        "Name": "捷運北門站",
        "Lat": 25.049002,
        "Lon": 121.510134,
        "Sequence": 19,
        "StationID": "1000077"
      },
      {
        "Name": "中華路北站",
        "Lat": 25.0455115050969,
        "Lon": 121.509144127644,
        "Sequence": 20,
        "StationID": "1000078"
      },
      {
        "Name": "捷運西門站",
        "Lat": 25.0425165606871,
        "Lon": 121.508266771006,
        "Sequence": 21,
        "StationID": "1000079"
      },
      {
        "Name": "小南門",
        "Lat": 25.0378687908132,
        "Lon": 121.506903709074,
        "Sequence": 22,
        "StationID": "1000080"
      },
      {
        "Name": "聯合醫院和平院區",
        "Lat": 25.0364933609706,
        "Lon": 121.506507520259,
        "Sequence": 23,
        "StationID": "1926"
      },
      {
        "Name": "大埔街",
        "Lat": 25.03205520434067,
        "Lon": 121.50448356536738,
        "Sequence": 24,
        "StationID": "4606"
      },
      {
        "Name": "廈安里",
        "Lat": 25.02966,
        "Lon": 121.50438,
        "Sequence": 25,
        "StationID": "20344"
      },
      {
        "Name": "南機場公寓",
        "Lat": 25.028384629531,
        "Lon": 121.505465333891,
        "Sequence": 26,
        "StationID": "1777"
      },
      {
        "Name": "中華南海路口",
        "Lat": 25.0273435686053,
        "Lon": 121.506437964545,
        "Sequence": 27,
        "StationID": "1743"
      },
      {
        "Name": "國興路口",
        "Lat": 25.0256215629554,
        "Lon": 121.508316077824,
        "Sequence": 28,
        "StationID": "1788"
      },
      {
        "Name": "古亭國中",
        "Lat": 25.024664,
        "Lon": 121.509833,
        "Sequence": 29,
        "StationID": "1748"
      },
      {
        "Name": "萬華醫院",
        "Lat": 25.02391,
        "Lon": 121.50982,
        "Sequence": 30,
        "StationID": "1817"
      },
      {
        "Name": "國興社區",
        "Lat": 25.02354132567501,
        "Lon": 121.50853091651936,
        "Sequence": 31,
        "StationID": "1787"
      },
      {
        "Name": "青年公園(國興)",
        "Lat": 25.024607,
        "Lon": 121.507953,
        "Sequence": 32,
        "StationID": "253"
      },
      {
        "Name": "青年公園(青年)",
        "Lat": 25.02602624821444,
        "Lon": 121.50598380051417,
        "Sequence": 33,
        "StationID": "1771"
      },
      {
        "Name": "青年社區",
        "Lat": 25.025473,
        "Lon": 121.504417,
        "Sequence": 34,
        "StationID": "1772"
      },
      {
        "Name": "中正新城",
        "Lat": 25.0248005786137,
        "Lon": 121.503183945666,
        "Sequence": 35,
        "StationID": "1740"
      },
      {
        "Name": "青年路",
        "Lat": 25.02249119957861,
        "Lon": 121.5025183827621,
        "Sequence": 36,
        "StationID": "1773"
      },
      {
        "Name": "青年路派出所",
        "Lat": 25.022116707019617,
        "Lon": 121.5020920746352,
        "Sequence": 37,
        "StationID": "4624"
      },
      {
        "Name": "光仁國小",
        "Lat": 25.021489599820963,
        "Lon": 121.50066027111731,
        "Sequence": 38,
        "StationID": "4623"
      },
      {
        "Name": "果菜市場",
        "Lat": 25.01942,
        "Lon": 121.497234,
        "Sequence": 39,
        "StationID": "1165604854"
      },
      {
        "Name": "華中河濱公園",
        "Lat": 25.01714,
        "Lon": 121.49565,
        "Sequence": 40,
        "StationID": "1799"
      }
    ]
  },
  {
    "Route": "12",
    "SubRoute": "12狗狗公車",
    "Direction": 0,
    "Stops": [
      {
        "Name": "華中河濱公園",
        "Lat": 25.0171711735736,
        "Lon": 121.496094355207,
        "Sequence": 1,
        "StationID": "1800"
      },
      {
        "Name": "果菜市場",
        "Lat": 25.01987,
        "Lon": 121.497706,
        "Sequence": 2,
        "StationID": "4622"
      },
      {
        "Name": "光仁國小",
        "Lat": 25.02109899,
        "Lon": 121.5000872,
        "Sequence": 3,
        "StationID": "1750"
      },
      {
        "Name": "青年路派出所",
        "Lat": 25.02196658,
        "Lon": 121.5020719,
        "Sequence": 4,
        "StationID": "1775"
      },
      {
        "Name": "青年路",
        "Lat": 25.023224075638726,
        "Lon": 121.50277864902843,
        "Sequence": 5,
        "StationID": "4644"
      },
      {
        "Name": "中正新城",
        "Lat": 25.02477910385403,
        "Lon": 121.50333348774862,
        "Sequence": 6,
        "StationID": "4643"
      },
      {
        "Name": "青年社區",
        "Lat": 25.025478,
        "Lon": 121.504647,
        "Sequence": 7,
        "StationID": "4642"
      },
      {
        "Name": "青年公園(青年)",
        "Lat": 25.02596466,
        "Lon": 121.5062868,
        "Sequence": 8,
        "StationID": "4641"
      },
      {
        "Name": "青年公園(國興)",
        "Lat": 25.0253,
        "Lon": 121.50712,
        "Sequence": 9,
        "StationID": "4620"
      },
      {
        "Name": "國興路口一",
        "Lat": 25.0245858237515,
        "Lon": 121.508810147614,
        "Sequence": 10,
        "StationID": "1790"
      },
      {
        "Name": "國興路口",
        "Lat": 25.025757,
        "Lon": 121.508379,
        "Sequence": 11,
        "StationID": "4602"
      },
      {
        "Name": "中華南海路口",
        "Lat": 25.0272364792619,
        "Lon": 121.506661163485,
        "Sequence": 12,
        "StationID": "4603"
      },
      {
        "Name": "南機場公寓",
        "Lat": 25.0285917595947,
        "Lon": 121.50540777894,
        "Sequence": 13,
        "StationID": "4604"
      },
      {
        "Name": "廈安里",
        "Lat": 25.0306970667598,
        "Lon": 121.504168146781,
        "Sequence": 14,
        "StationID": "4605"
      },
      {
        "Name": "大埔街",
        "Lat": 25.03268103989999,
        "Lon": 121.50499126498305,
        "Sequence": 15,
        "StationID": "1737"
      },
      {
        "Name": "聯合醫院和平院區",
        "Lat": 25.03501116,
        "Lon": 121.5062837,
        "Sequence": 16,
        "StationID": "1165610495"
      },
      {
        "Name": "捷運西門站",
        "Lat": 25.041730058378,
        "Lon": 121.508285900629,
        "Sequence": 17,
        "StationID": "1793"
      },
      {
        "Name": "中華路北站",
        "Lat": 25.0456964941835,
        "Lon": 121.509380726049,
        "Sequence": 18,
        "StationID": "1744"
      },
      {
        "Name": "捷運北門站",
        "Lat": 25.0506096983314,
        "Lon": 121.5106101265,
        "Sequence": 19,
        "StationID": "1001788"
      },
      {
        "Name": "延平一站(長安)",
        "Lat": 25.05188337,
        "Lon": 121.5125579,
        "Sequence": 20,
        "StationID": "1436"
      },
      {
        "Name": "圓環(重慶)",
        "Lat": 25.052844,
        "Lon": 121.514207,
        "Sequence": 21,
        "StationID": "16019"
      },
      {
        "Name": "圓環(南京)",
        "Lat": 25.053651217399,
        "Lon": 121.515705430802,
        "Sequence": 22,
        "StationID": "16015"
      },
      {
        "Name": "捷運中山站(志仁高中)",
        "Lat": 25.0527107746344,
        "Lon": 121.519674930441,
        "Sequence": 23,
        "StationID": "16021"
      },
      {
        "Name": "南京林森路口",
        "Lat": 25.052069472359,
        "Lon": 121.525060474751,
        "Sequence": 24,
        "StationID": "16022"
      },
      {
        "Name": "南京吉林路口",
        "Lat": 25.0520078098529,
        "Lon": 121.529855025946,
        "Sequence": 25,
        "StationID": "16023"
      },
      {
        "Name": "捷運松江南京站",
        "Lat": 25.0519912439505,
        "Lon": 121.532641149751,
        "Sequence": 26,
        "StationID": "16024"
      },
      {
        "Name": "長春國小",
        "Lat": 25.05472,
        "Lon": 121.53409,
        "Sequence": 27,
        "StationID": "1295"
      },
      {
        "Name": "臺北大學(臺北校區)",
        "Lat": 25.05457515,
        "Lon": 121.5380796,
        "Sequence": 28,
        "StationID": "7611"
      },
      {
        "Name": "長春市場",
        "Lat": 25.05456174,
        "Lon": 121.5414952,
        "Sequence": 29,
        "StationID": "7613"
      },
      {
        "Name": "慶城街口",
        "Lat": 25.05447219,
        "Lon": 121.5453828,
        "Sequence": 30,
        "StationID": "1386"
      },
      {
        "Name": "長庚醫院",
        "Lat": 25.05668072,
        "Lon": 121.5492693,
        "Sequence": 31,
        "StationID": "1544"
      },
      {
        "Name": "公教住宅",
        "Lat": 25.05792823,
        "Lon": 121.5525641,
        "Sequence": 32,
        "StationID": "1495"
      },
      {
        "Name": "介壽國中",
        "Lat": 25.058201423962956,
        "Lon": 121.55569442816517,
        "Sequence": 33,
        "StationID": "1497"
      },
      {
        "Name": "聯合二村",
        "Lat": 25.0585017739443,
        "Lon": 121.559216750962,
        "Sequence": 34,
        "StationID": "1597"
      },
      {
        "Name": "民生社區活動中心",
        "Lat": 25.0586405271738,
        "Lon": 121.560927032747,
        "Sequence": 35,
        "StationID": "1506"
      },
      {
        "Name": "廣合新村",
        "Lat": 25.06067,
        "Lon": 121.56339,
        "Sequence": 36,
        "StationID": "1594"
      },
      {
        "Name": "三民國小",
        "Lat": 25.06279839209022,
        "Lon": 121.56364748952177,
        "Sequence": 37,
        "StationID": "8671"
      },
      {
        "Name": "新益里",
        "Lat": 25.062286,
        "Lon": 121.566155,
        "Sequence": 38,
        "StationID": "1503"
      }
    ]
  },
  {
    "Route": "12",
    "SubRoute": "12狗狗公車",
    "Direction": 1,
    "Stops": [
      {
        "Name": "民生國中",
        "Lat": 25.05966141,
        "Lon": 121.5679233,
        "Sequence": 1,
        "StationID": "1507"
      },
      {
        "Name": "新東街口",
        "Lat": 25.0591755,
        "Lon": 121.5663295,
        "Sequence": 2,
        "StationID": "60133"
      },
      {
        "Name": "民生社區活動中心",
        "Lat": 25.058808540179,
        "Lon": 121.561144568697,
        "Sequence": 3,
        "StationID": "1000074"
      },
      {
        "Name": "聯合二村",
        "Lat": 25.0586249332513,
        "Lon": 121.558923442523,
        "Sequence": 4,
        "StationID": "1000075"
      },
      {
        "Name": "介壽國中",
        "Lat": 25.058415078013,
        "Lon": 121.556044429017,
        "Sequence": 5,
        "StationID": "10408"
      },
      {
        "Name": "公教住宅",
        "Lat": 25.05813129,
        "Lon": 121.5526273,
        "Sequence": 6,
        "StationID": "10421"
      },
      {
        "Name": "民生敦化路口",
        "Lat": 25.05785197,
        "Lon": 121.5468517,
        "Sequence": 7,
        "StationID": "10418"
      },
      {
        "Name": "興安華城",
        "Lat": 25.05697224224693,
        "Lon": 121.54399053234562,
        "Sequence": 8,
        "StationID": "1390"
      },
      {
        "Name": "長春市場",
        "Lat": 25.054725622604824,
        "Lon": 121.54156337602802,
        "Sequence": 9,
        "StationID": "1293"
      },
      {
        "Name": "臺北大學(臺北校區)",
        "Lat": 25.05488074,
        "Lon": 121.5386725,
        "Sequence": 10,
        "StationID": "7612"
      },
      {
        "Name": "長春國小",
        "Lat": 25.054886747662636,
        "Lon": 121.53404332756475,
        "Sequence": 11,
        "StationID": "7610"
      },
      {
        "Name": "松江長春路口",
        "Lat": 25.054184898157907,
        "Lon": 121.53289279443148,
        "Sequence": 12,
        "StationID": "6714"
      },
      {
        "Name": "南京吉林路口",
        "Lat": 25.0521129968997,
        "Lon": 121.530332504829,
        "Sequence": 13,
        "StationID": "16012"
      },
      {
        "Name": "南京林森路口",
        "Lat": 25.0521676118001,
        "Lon": 121.525717467074,
        "Sequence": 14,
        "StationID": "16013"
      },
      {
        "Name": "捷運中山站(志仁高中)",
        "Lat": 25.052867,
        "Lon": 121.519866,
        "Sequence": 15,
        "StationID": "16014"
      },
      {
        "Name": "後車站",
        "Lat": 25.05143327,
        "Lon": 121.5151374,
        "Sequence": 16,
        "StationID": "1449"
      },
      {
        "Name": "延平一站(長安)",
        "Lat": 25.0519,
        "Lon": 121.513,
        "Sequence": 17,
        "StationID": "3946"
      },
      {
        "Name": "聯合醫院中興院區(塔城)",
        "Lat": 25.0513352337636,
        "Lon": 121.510398526977,
        "Sequence": 18,
        "StationID": "1484"
      },
      {
        "Name": "捷運北門站",
        "Lat": 25.049002,
        "Lon": 121.510134,
        "Sequence": 19,
        "StationID": "1000077"
      },
      {
        "Name": "中華路北站",
        "Lat": 25.0455115050969,
        "Lon": 121.509144127644,
        "Sequence": 20,
        "StationID": "1000078"
      },
      {
        "Name": "捷運西門站",
        "Lat": 25.0425165606871,
        "Lon": 121.508266771006,
        "Sequence": 21,
        "StationID": "1000079"
      },
      {
        "Name": "小南門",
        "Lat": 25.0378687908132,
        "Lon": 121.506903709074,
        "Sequence": 22,
        "StationID": "1000080"
      },
      {
        "Name": "聯合醫院和平院區",
        "Lat": 25.0364933609706,
        "Lon": 121.506507520259,
        "Sequence": 23,
        "StationID": "1926"
      },
      {
        "Name": "大埔街",
        "Lat": 25.03205520434067,
        "Lon": 121.50448356536738,
        "Sequence": 24,
        "StationID": "4606"
      },
      {
        "Name": "廈安里",
        "Lat": 25.02966,
        "Lon": 121.50438,
        "Sequence": 25,
        "StationID": "20344"
      },
      {
        "Name": "南機場公寓",
        "Lat": 25.028384629531,
        "Lon": 121.505465333891,
        "Sequence": 26,
        "StationID": "1777"
      },
      {
        "Name": "中華南海路口",
        "Lat": 25.0273435686053,
        "Lon": 121.506437964545,
        "Sequence": 27,
        "StationID": "1743"
      },
      {
        "Name": "國興路口",
        "Lat": 25.0256215629554,
        "Lon": 121.508316077824,
        "Sequence": 28,
        "StationID": "1788"
      },
      {
        "Name": "古亭國中",
        "Lat": 25.024664,
        "Lon": 121.509833,
        "Sequence": 29,
        "StationID": "1748"
      },
      {
        "Name": "萬華醫院",
        "Lat": 25.02391,
        "Lon": 121.50982,
        "Sequence": 30,
        "StationID": "1817"
      },
      {
        "Name": "國興社區",
        "Lat": 25.02354132567501,
        "Lon": 121.50853091651936,
        "Sequence": 31,
        "StationID": "1787"
      },
      {
        "Name": "青年公園(國興)",
        "Lat": 25.024607,
        "Lon": 121.507953,
        "Sequence": 32,
        "StationID": "253"
      },
      {
        "Name": "青年公園(青年)",
        "Lat": 25.02602624821444,
        "Lon": 121.50598380051417,
        "Sequence": 33,
        "StationID": "1771"
      },
      {
        "Name": "青年社區",
        "Lat": 25.025473,
        "Lon": 121.504417,
        "Sequence": 34,
        "StationID": "1772"
      },
      {
        "Name": "中正新城",
        "Lat": 25.0248005786137,
        "Lon": 121.503183945666,
        "Sequence": 35,
        "StationID": "1740"
      },
      {
        "Name": "青年路",
        "Lat": 25.02249119957861,
        "Lon": 121.5025183827621,
        "Sequence": 36,
        "StationID": "1773"
      },
      {
        "Name": "青年路派出所",
        "Lat": 25.022116707019617,
        "Lon": 121.5020920746352,
        "Sequence": 37,
        "StationID": "4624"
      },
      {
        "Name": "光仁國小",
        "Lat": 25.021489599820963,
        "Lon": 121.50066027111731,
        "Sequence": 38,
        "StationID": "4623"
      },
      {
        "Name": "果菜市場",
        "Lat": 25.01942,
        "Lon": 121.497234,
        "Sequence": 39,
        "StationID": "1165604854"
      },
      {
        "Name": "華中河濱公園",
        "Lat": 25.01714,
        "Lon": 121.49565,
        "Sequence": 40,
        "StationID": "1799"
      }
    ]
  },
  {
    "Route": "12",
    "SubRoute": "12去程半",
    "Direction": 0,
    "Stops": [
      {
        "Name": "華中河濱公園",
        "Lat": 25.0171711735736,
        "Lon": 121.496094355207,
        "Sequence": 1,
        "StationID": "1800"
      },
      {
        "Name": "果菜市場",
        "Lat": 25.01987,
        "Lon": 121.497706,
        "Sequence": 2,
        "StationID": "4622"
      },
      {
        "Name": "光仁國小",
        "Lat": 25.02109899,
        "Lon": 121.5000872,
        "Sequence": 3,
        "StationID": "1750"
      },
      {
        "Name": "青年路派出所",
        "Lat": 25.02196658,
        "Lon": 121.5020719,
        "Sequence": 4,
        "StationID": "1775"
      },
      {
        "Name": "青年路",
        "Lat": 25.023224075638726,
        "Lon": 121.50277864902843,
        "Sequence": 5,
        "StationID": "4644"
      },
      {
        "Name": "中正新城",
        "Lat": 25.02477910385403,
        "Lon": 121.50333348774862,
        "Sequence": 6,
        "StationID": "4643"
      },
      {
        "Name": "青年社區",
        "Lat": 25.025478,
        "Lon": 121.504647,
        "Sequence": 7,
        "StationID": "4642"
      },
      {
        "Name": "青年公園(青年)",
        "Lat": 25.02596466,
        "Lon": 121.5062868,
        "Sequence": 8,
        "StationID": "4641"
      },
      {
        "Name": "青年公園(國興)",
        "Lat": 25.0253,
        "Lon": 121.50712,
        "Sequence": 9,
        "StationID": "4620"
      },
      {
        "Name": "國興路口一",
        "Lat": 25.0245858237515,
        "Lon": 121.508810147614,
        "Sequence": 10,
        "StationID": "1790"
      },
      {
        "Name": "國興路口",
        "Lat": 25.025757,
        "Lon": 121.508379,
        "Sequence": 11,
        "StationID": "4602"
      },
      {
        "Name": "中華南海路口",
        "Lat": 25.0272364792619,
        "Lon": 121.506661163485,
        "Sequence": 12,
        "StationID": "4603"
      },
      {
        "Name": "南機場公寓",
        "Lat": 25.0285917595947,
        "Lon": 121.50540777894,
        "Sequence": 13,
        "StationID": "4604"
      },
      {
        "Name": "廈安里",
        "Lat": 25.0306970667598,
        "Lon": 121.504168146781,
        "Sequence": 14,
        "StationID": "4605"
      },
      {
        "Name": "大埔街",
        "Lat": 25.03268103989999,
        "Lon": 121.50499126498305,
        "Sequence": 15,
        "StationID": "1737"
      },
      {
        "Name": "聯合醫院和平院區",
        "Lat": 25.03501116,
        "Lon": 121.5062837,
        "Sequence": 16,
        "StationID": "1165610495"
      },
      {
        "Name": "捷運西門站",
        "Lat": 25.041730058378,
        "Lon": 121.508285900629,
        "Sequence": 17,
        "StationID": "1793"
      },
      {
        "Name": "中華路北站",
        "Lat": 25.0456964941835,
        "Lon": 121.509380726049,
        "Sequence": 18,
        "StationID": "1744"
      },
      {
        "Name": "捷運北門站",
        "Lat": 25.0506096983314,
        "Lon": 121.5106101265,
        "Sequence": 19,
        "StationID": "1001788"
      },
      {
        "Name": "延平一站(長安)",
        "Lat": 25.05188337,
        "Lon": 121.5125579,
        "Sequence": 20,
        "StationID": "1436"
      },
      {
        "Name": "圓環(重慶)",
        "Lat": 25.052844,
        "Lon": 121.514207,
        "Sequence": 21,
        "StationID": "16019"
      },
      {
        "Name": "圓環(南京)",
        "Lat": 25.053651217399,
        "Lon": 121.515705430802,
        "Sequence": 22,
        "StationID": "16015"
      },
      {
        "Name": "捷運中山站(志仁高中)",
        "Lat": 25.0527107746344,
        "Lon": 121.519674930441,
        "Sequence": 23,
        "StationID": "16021"
      },
      {
        "Name": "南京林森路口",
        "Lat": 25.052069472359,
        "Lon": 121.525060474751,
        "Sequence": 24,
        "StationID": "16022"
      },
      {
        "Name": "南京吉林路口",
        "Lat": 25.0520078098529,
        "Lon": 121.529855025946,
        "Sequence": 25,
        "StationID": "16023"
      },
      {
        "Name": "捷運松江南京站",
        "Lat": 25.0519912439505,
        "Lon": 121.532641149751,
        "Sequence": 26,
        "StationID": "16024"
      },
      {
        "Name": "長春國小",
        "Lat": 25.05472,
        "Lon": 121.53409,
        "Sequence": 27,
        "StationID": "1295"
      },
      {
        "Name": "臺北大學(臺北校區)",
        "Lat": 25.05457515,
        "Lon": 121.5380796,
        "Sequence": 28,
        "StationID": "7611"
      },
      {
        "Name": "長春市場",
        "Lat": 25.05456174,
        "Lon": 121.5414952,
        "Sequence": 29,
        "StationID": "7613"
      },
      {
        "Name": "慶城街口",
        "Lat": 25.05447219,
        "Lon": 121.5453828,
        "Sequence": 30,
        "StationID": "1386"
      },
      {
        "Name": "長庚醫院",
        "Lat": 25.05668072,
        "Lon": 121.5492693,
        "Sequence": 31,
        "StationID": "1544"
      },
      {
        "Name": "公教住宅",
        "Lat": 25.05792823,
        "Lon": 121.5525641,
        "Sequence": 32,
        "StationID": "1495"
      },
      {
        "Name": "介壽國中",
        "Lat": 25.058201423962956,
        "Lon": 121.55569442816517,
        "Sequence": 33,
        "StationID": "1497"
      },
      {
        "Name": "聯合二村",
        "Lat": 25.0585017739443,
        "Lon": 121.559216750962,
        "Sequence": 34,
        "StationID": "1597"
      },
      {
        "Name": "民生社區活動中心",
        "Lat": 25.0586405271738,
        "Lon": 121.560927032747,
        "Sequence": 35,
        "StationID": "1506"
      },
      {
        "Name": "廣合新村",
        "Lat": 25.06067,
        "Lon": 121.56339,
        "Sequence": 36,
        "StationID": "1594"
      },
      {
        "Name": "三民國小",
        "Lat": 25.06279839209022,
        "Lon": 121.56364748952177,
        "Sequence": 37,
        "StationID": "8671"
      },
      {
        "Name": "新益里",
        "Lat": 25.062286,
        "Lon": 121.566155,
        "Sequence": 38,
        "StationID": "1503"
      }
    ]
  },
  {
    "Route": "12",
    "SubRoute": "12返程半",
    "Direction": 1,
    "Stops": [
      {
        "Name": "民生國中",
        "Lat": 25.05966141,
        "Lon": 121.5679233,
        "Sequence": 1,
        "StationID": "1507"
      },
      {
        "Name": "新東街口",
        "Lat": 25.0591755,
        "Lon": 121.5663295,
        "Sequence": 2,
        "StationID": "60133"
      },
      {
        "Name": "民生社區活動中心",
        "Lat": 25.058808540179,
        "Lon": 121.561144568697,
        "Sequence": 3,
        "StationID": "1000074"
      },
      {
        "Name": "聯合二村",
        "Lat": 25.0586249332513,
        "Lon": 121.558923442523,
        "Sequence": 4,
        "StationID": "1000075"
      },
      {
        "Name": "介壽國中",
        "Lat": 25.058415078013,
        "Lon": 121.556044429017,
        "Sequence": 5,
        "StationID": "10408"
      },
      {
        "Name": "公教住宅",
        "Lat": 25.05813129,
        "Lon": 121.5526273,
        "Sequence": 6,
        "StationID": "10421"
      },
      {
        "Name": "民生敦化路口",
        "Lat": 25.05785197,
        "Lon": 121.5468517,
        "Sequence": 7,
        "StationID": "10418"
      },
      {
        "Name": "興安華城",
        "Lat": 25.05697224224693,
        "Lon": 121.54399053234562,
        "Sequence": 8,
        "StationID": "1390"
      },
      {
        "Name": "長春市場",
        "Lat": 25.054725622604824,
        "Lon": 121.54156337602802,
        "Sequence": 9,
        "StationID": "1293"
      },
      {
        "Name": "臺北大學(臺北校區)",
        "Lat": 25.05488074,
        "Lon": 121.5386725,
        "Sequence": 10,
        "StationID": "7612"
      },
      {
        "Name": "長春國小",
        "Lat": 25.054886747662636,
        "Lon": 121.53404332756475,
        "Sequence": 11,
        "StationID": "7610"
      },
      {
        "Name": "松江長春路口",
        "Lat": 25.054184898157907,
        "Lon": 121.53289279443148,
        "Sequence": 12,
        "StationID": "6714"
      },
      {
        "Name": "南京吉林路口",
        "Lat": 25.0521129968997,
        "Lon": 121.530332504829,
        "Sequence": 13,
        "StationID": "16012"
      },
      {
        "Name": "南京林森路口",
        "Lat": 25.0521676118001,
        "Lon": 121.525717467074,
        "Sequence": 14,
        "StationID": "16013"
      },
      {
        "Name": "捷運中山站(志仁高中)",
        "Lat": 25.052867,
        "Lon": 121.519866,
        "Sequence": 15,
        "StationID": "16014"
      },
      {
        "Name": "後車站",
        "Lat": 25.05143327,
        "Lon": 121.5151374,
        "Sequence": 16,
        "StationID": "1449"
      },
      {
        "Name": "延平一站(長安)",
        "Lat": 25.0519,
        "Lon": 121.513,
        "Sequence": 17,
        "StationID": "3946"
      },
      {
        "Name": "聯合醫院中興院區(塔城)",
        "Lat": 25.0513352337636,
        "Lon": 121.510398526977,
        "Sequence": 18,
        "StationID": "1484"
      },
      {
        "Name": "捷運北門站",
        "Lat": 25.049002,
        "Lon": 121.510134,
        "Sequence": 19,
        "StationID": "1000077"
      },
      {
        "Name": "中華路北站",
        "Lat": 25.0455115050969,
        "Lon": 121.509144127644,
        "Sequence": 20,
        "StationID": "1000078"
      },
      {
        "Name": "捷運西門站",
        "Lat": 25.0425165606871,
        "Lon": 121.508266771006,
        "Sequence": 21,
        "StationID": "1000079"
      },
      {
        "Name": "小南門",
        "Lat": 25.0378687908132,
        "Lon": 121.506903709074,
        "Sequence": 22,
        "StationID": "1000080"
      },
      {
        "Name": "聯合醫院和平院區",
        "Lat": 25.0364933609706,
        "Lon": 121.506507520259,
        "Sequence": 23,
        "StationID": "1926"
      },
      {
        "Name": "大埔街",
        "Lat": 25.03205520434067,
        "Lon": 121.50448356536738,
        "Sequence": 24,
        "StationID": "4606"
      },
      {
        "Name": "廈安里",
        "Lat": 25.02966,
        "Lon": 121.50438,
        "Sequence": 25,
        "StationID": "20344"
      },
      {
        "Name": "南機場公寓",
        "Lat": 25.028384629531,
        "Lon": 121.505465333891,
        "Sequence": 26,
        "StationID": "1777"
      },
      {
        "Name": "中華南海路口",
        "Lat": 25.0273435686053,
        "Lon": 121.506437964545,
        "Sequence": 27,
        "StationID": "1743"
      },
      {
        "Name": "國興路口",
        "Lat": 25.0256215629554,
        "Lon": 121.508316077824,
        "Sequence": 28,
        "StationID": "1788"
      },
      {
        "Name": "古亭國中",
        "Lat": 25.024664,
        "Lon": 121.509833,
        "Sequence": 29,
        "StationID": "1748"
      },
      {
        "Name": "萬華醫院",
        "Lat": 25.02391,
        "Lon": 121.50982,
        "Sequence": 30,
        "StationID": "1817"
      },
      {
        "Name": "國興社區",
        "Lat": 25.02354132567501,
        "Lon": 121.50853091651936,
        "Sequence": 31,
        "StationID": "1787"
      },
      {
        "Name": "青年公園(國興)",
        "Lat": 25.024607,
        "Lon": 121.507953,
        "Sequence": 32,
        "StationID": "253"
      },
      {
        "Name": "青年公園(青年)",
        "Lat": 25.02602624821444,
        "Lon": 121.50598380051417,
        "Sequence": 33,
        "StationID": "1771"
      },
      {
        "Name": "青年社區",
        "Lat": 25.025473,
        "Lon": 121.504417,
        "Sequence": 34,
        "StationID": "1772"
      },
      {
        "Name": "中正新城",
        "Lat": 25.0248005786137,
        "Lon": 121.503183945666,
        "Sequence": 35,
        "StationID": "1740"
      },
      {
        "Name": "青年路",
        "Lat": 25.02249119957861,
        "Lon": 121.5025183827621,
        "Sequence": 36,
        "StationID": "1773"
      },
      {
        "Name": "青年路派出所",
        "Lat": 25.022116707019617,
        "Lon": 121.5020920746352,
        "Sequence": 37,
        "StationID": "4624"
      },
      {
        "Name": "光仁國小",
        "Lat": 25.021489599820963,
        "Lon": 121.50066027111731,
        "Sequence": 38,
        "StationID": "4623"
      },
      {
        "Name": "果菜市場",
        "Lat": 25.01942,
        "Lon": 121.497234,
        "Sequence": 39,
        "StationID": "1165604854"
      },
      {
        "Name": "華中河濱公園",
        "Lat": 25.01714,
        "Lon": 121.49565,
        "Sequence": 40,
        "StationID": "1799"
      }
    ]
  }
]