[
  {
    "Route": "306",
    "SubRoute": "306(三重)",
    "Direction": 0,
    "Stops": [
      {
        "Name": "蘆洲總站",
        "Lat": 25.089056,
        "Lon": 121.465804,
        "Sequence": 1,
        "StationID": "3698"
      },
      {
        "Name": "王爺廟口",
        "Lat": 25.08814,
        "Lon": 121.46664,
        "Sequence": 2,
        "StationID": "3655"
      },
      {
        "Name": "空中大學(中正路)",
        "Lat": 25.08671129,
        "Lon": 121.4677982,
        "Sequence": 3,
        "StationID": "3670"
      },
      {
        "Name": "中原公寓",
        "Lat": 25.08574782,
        "Lon": 121.4684977,
        "Sequence": 4,
        "StationID": "77"
      },
      {
        "Name": "蘆洲國小",
        "Lat": 25.08302,
        "Lon": 121.470464,
        "Sequence": 5,
        "StationID": "3695"
      },
      {
        "Name": "蘆洲監理站",
        "Lat": 25.081628,
        "Lon": 121.472348,
        "Sequence": 6,
        "StationID": "3696"
      },
      {
        "Name": "蘆洲派出所",
        "Lat": 25.081859,
        "Lon": 121.473209,
        "Sequence": 7,
        "StationID": "3693"
      },
      {
        "Name": "溪墘",
        "Lat": 25.081453,
        "Lon": 121.476637,
        "Sequence": 8,
        "StationID": "3684"
      },
      {
        "Name": "捷運徐匯中學站",
        "Lat": 25.080762,
        "Lon": 121.479191,
        "Sequence": 9,
        "StationID": "4108"
      },
      {
        "Name": "徐匯中學",
        "Lat": 25.0795793818446,
        "Lon": 121.481238194798,
        "Sequence": 10,
        "StationID": "3449"
      },
      {
        "Name": "幸福市場",
        "Lat": 25.078537,
        "Lon": 121.483076,
        "Sequence": 11,
        "StationID": "3427"
      },
      {
        "Name": "建和新村",
        "Lat": 25.07777593,
        "Lon": 121.4845214,
        "Sequence": 12,
        "StationID": "3441"
      },
      {
        "Name": "捷運三和國中站",
        "Lat": 25.07691628,
        "Lon": 121.4859364,
        "Sequence": 13,
        "StationID": "3391"
      },
      {
        "Name": "三和國中",
        "Lat": 25.075482682654,
        "Lon": 121.48856950179,
        "Sequence": 14,
        "StationID": "4126"
      },
      {
        "Name": "格致中學(三和路)",
        "Lat": 25.073995,
        "Lon": 121.491151,
        "Sequence": 15,
        "StationID": "3450"
      },
      {
        "Name": "厚德派出所",
        "Lat": 25.07293,
        "Lon": 121.492963,
        "Sequence": 16,
        "StationID": "3438"
      },
      {
        "Name": "德林寺(三和路)",
        "Lat": 25.071998,
        "Lon": 121.49431,
        "Sequence": 17,
        "StationID": "10424"
      },
      {
        "Name": "龍門路口",
        "Lat": 25.0701489438371,
        "Lon": 121.49511101853,
        "Sequence": 18,
        "StationID": "10608"
      },
      {
        "Name": "三安里",
        "Lat": 25.068994,
        "Lon": 121.495798,
        "Sequence": 19,
        "StationID": "10601"
      },
      {
        "Name": "長壽西街口",
        "Lat": 25.067022,
        "Lon": 121.49641,
        "Sequence": 20,
        "StationID": "1000148"
      },
      {
        "Name": "長元西街口",
        "Lat": 25.065609,
        "Lon": 121.496788,
        "Sequence": 21,
        "StationID": "3395"
      },
      {
        "Name": "正義重新路口",
        "Lat": 25.06310647,
        "Lon": 121.4974644,
        "Sequence": 22,
        "StationID": "3435"
      },
      {
        "Name": "三重郵局",
        "Lat": 25.060928,
        "Lon": 121.498057,
        "Sequence": 23,
        "StationID": "3403"
      },
      {
        "Name": "光興國小",
        "Lat": 25.05971795,
        "Lon": 121.4983337,
        "Sequence": 24,
        "StationID": "3425"
      },
      {
        "Name": "三重空軍一村",
        "Lat": 25.05760253,
        "Lon": 121.498795,
        "Sequence": 25,
        "StationID": "3422"
      },
      {
        "Name": "天后宮",
        "Lat": 25.05707,
        "Lon": 121.49998,
        "Sequence": 26,
        "StationID": "3420"
      },
      {
        "Name": "福德南路",
        "Lat": 25.062224,
        "Lon": 121.503152,
        "Sequence": 27,
        "StationID": "3482"
      },
      {
        "Name": "涼州重慶路口",
        "Lat": 25.060980060423,
        "Lon": 121.513509342762,
        "Sequence": 28,
        "StationID": "8624"
      },
      {
        "Name": "民生重慶路口",
        "Lat": 25.0571504842388,
        "Lon": 121.51369271164,
        "Sequence": 29,
        "StationID": "1421"
      },
      {
        "Name": "朝陽公園(鈕釦街)",
        "Lat": 25.055504,
        "Lon": 121.514022,
        "Sequence": 30,
        "StationID": "1165605935"
      },
      {
        "Name": "圓環(南京)",
        "Lat": 25.053651217399,
        "Lon": 121.515705430802,
        "Sequence": 31,
        "StationID": "16015"
      },
      {
        "Name": "捷運中山站(志仁高中)",
        "Lat": 25.0527107746344,
        "Lon": 121.519674930441,
        "Sequence": 32,
        "StationID": "16021"
      },
      {
        "Name": "南京林森路口",
        "Lat": 25.052069472359,
        "Lon": 121.525060474751,
        "Sequence": 33,
        "StationID": "16022"
      },
      {
        "Name": "南京吉林路口",
        "Lat": 25.0520078098529,
        "Lon": 121.529855025946,
        "Sequence": 34,
        "StationID": "16023"
      },
      {
        "Name": "捷運松江南京站",
        "Lat": 25.0519912439505,
        "Lon": 121.532641149751,
        "Sequence": 35,
        "StationID": "16024"
      },
      {
        "Name": "南京建國路口",
        "Lat": 25.0519389515979,
        "Lon": 121.53627250499,
        "Sequence": 36,
        "StationID": "50005"
      },
      {
        "Name": "南京龍江路口",
        "Lat": 25.05189813653983,
        "Lon": 121.54002052720857,
        "Sequence": 37,
        "StationID": "50002"
      },
      {
        "Name": "捷運南京復興站",
        "Lat": 25.0518040049938,
        "Lon": 121.543561439976,
        "Sequence": 38,
        "StationID": "50004"
      },
      {
        "Name": "南京敦化路口(小巨蛋)",
        "Lat": 25.0517035084006,
        "Lon": 121.548353475095,
        "Sequence": 39,
        "StationID": "50001"
      },
      {
        "Name": "南京寧安街口",
        "Lat": 25.051594154729063,
        "Lon": 121.55469770362868,
        "Sequence": 40,
        "StationID": "16029"
      },
      {
        "Name": "南京三民路口",
        "Lat": 25.05148353485096,
        "Lon": 121.5602663380149,
        "Sequence": 41,
        "StationID": "16030"
      },
      {
        "Name": "南京公寓(捷運南京三民)",
        "Lat": 25.0512559293088,
        "Lon": 121.566535683299,
        "Sequence": 42,
        "StationID": "1165603387"
      },
      {
        "Name": "南松山(南京)",
        "Lat": 25.05111499,
        "Lon": 121.5688141,
        "Sequence": 43,
        "StationID": "1557"
      },
      {
        "Name": "饒河街觀光夜市(塔悠)",
        "Lat": 25.050545938983998,
        "Lon": 121.57131845679393,
        "Sequence": 44,
        "StationID": "1603"
      },
      {
        "Name": "松山農會",
        "Lat": 25.0499024516685,
        "Lon": 121.573848311551,
        "Sequence": 45,
        "StationID": "1534"
      },
      {
        "Name": "松山車站(八德)",
        "Lat": 25.0499755097464,
        "Lon": 121.577246475627,
        "Sequence": 46,
        "StationID": "1530"
      },
      {
        "Name": "玉成里",
        "Lat": 25.05082,
        "Lon": 121.58108,
        "Sequence": 47,
        "StationID": "1515"
      },
      {
        "Name": "松山磚廠",
        "Lat": 25.052203296391,
        "Lon": 121.584201721401,
        "Sequence": 48,
        "StationID": "1634"
      },
      {
        "Name": "南港路三段",
        "Lat": 25.05293617,
        "Lon": 121.5872289,
        "Sequence": 49,
        "StationID": "1684"
      },
      {
        "Name": "西新里(新新公園)",
        "Lat": 25.05323,
        "Lon": 121.58971,
        "Sequence": 50,
        "StationID": "1614"
      },
      {
        "Name": "玉成國小",
        "Lat": 25.05408309,
        "Lon": 121.5921075,
        "Sequence": 51,
        "StationID": "1624"
      },
      {
        "Name": "土地公廟",
        "Lat": 25.05424093800564,
        "Lon": 121.59633521222251,
        "Sequence": 52,
        "StationID": "1000270"
      },
      {
        "Name": "東明里/臺北流行音樂中心",
        "Lat": 25.0538414991689,
        "Lon": 121.598139533007,
        "Sequence": 53,
        "StationID": "1635"
      },
      {
        "Name": "南港路二段178巷口",
        "Lat": 25.0533242413246,
        "Lon": 121.60075620256,
        "Sequence": 54,
        "StationID": "1685"
      },
      {
        "Name": "台肥新村",
        "Lat": 25.053655363078,
        "Lon": 121.603021736172,
        "Sequence": 55,
        "StationID": "1000271"
      },
      {
        "Name": "南港行政中心(南港車站)",
        "Lat": 25.05433,
        "Lon": 121.60712,
        "Sequence": 56,
        "StationID": "1000272"
      },
      {
        "Name": "南港高工(南港路)",
        "Lat": 25.05493375102052,
        "Lon": 121.61066212694543,
        "Sequence": 57,
        "StationID": "50019"
      },
      {
        "Name": "南港",
        "Lat": 25.0551240859182,
        "Lon": 121.613597939232,
        "Sequence": 58,
        "StationID": "1643"
      },
      {
        "Name": "南港展覽館",
        "Lat": 25.054699,
        "Lon": 121.616456,
        "Sequence": 59,
        "StationID": "1165606825"
      },
      {
        "Name": "誠正國中",
        "Lat": 25.0518036904539,
        "Lon": 121.615865875754,
        "Sequence": 60,
        "StationID": "1711"
      },
      {
        "Name": "南港水廠",
        "Lat": 25.049543,
        "Lon": 121.615625,
        "Sequence": 61,
        "StationID": "1650"
      },
      {
        "Name": "圓拱橋",
        "Lat": 25.047199,
        "Lon": 121.615363,
        "Sequence": 62,
        "StationID": "1707"
      },
      {
        "Name": "中研新村",
        "Lat": 25.044722099556466,
        "Lon": 121.61558513647303,
        "Sequence": 63,
        "StationID": "1611"
      },
      {
        "Name": "中研院",
        "Lat": 25.04313,
        "Lon": 121.61648,
        "Sequence": 64,
        "StationID": "1610"
      },
      {
        "Name": "胡適公園",
        "Lat": 25.039528,
        "Lon": 121.617338,
        "Sequence": 65,
        "StationID": "1687"
      },
      {
        "Name": "九如里一",
        "Lat": 25.03813813,
        "Lon": 121.6169015,
        "Sequence": 66,
        "StationID": "1620"
      },
      {
        "Name": "凌雲五村",
        "Lat": 25.036259,
        "Lon": 121.616893,
        "Sequence": 67,
        "StationID": "1690"
      },
      {
        "Name": "九如里二",
        "Lat": 25.03500483,
        "Lon": 121.6161708,
        "Sequence": 68,
        "StationID": "1621"
      },
      {
        "Name": "凌雲站",
        "Lat": 25.03474253,
        "Lon": 121.6147203,
        "Sequence": 69,
        "StationID": "1686"
      }
    ]
  },
  {
    "Route": "306",
    "SubRoute": "306(三重)",
    "Direction": 1,
    "Stops": [
      {
        "Name": "凌雲站",
        "Lat": 25.0346121838879,
        "Lon": 121.61448946069,
        "Sequence": 1,
        "StationID": "3870"
      },
      {
        "Name": "九如里二",
        "Lat": 25.034863,
        "Lon": 121.61612,
        "Sequence": 2,
        "StationID": "1618"
      },
      {
        "Name": "凌雲五村",
        "Lat": 25.035872068306,
        "Lon": 121.61695169081,
        "Sequence": 3,
        "StationID": "50024"
      },
      {
        "Name": "九如里一",
        "Lat": 25.03770122,
        "Lon": 121.6170236,
        "Sequence": 4,
        "StationID": "1616"
      },
      {
        "Name": "胡適公園",
        "Lat": 25.040597,
        "Lon": 121.617633,
        "Sequence": 5,
        "StationID": "50023"
      },
      {
        "Name": "中研院",
        "Lat": 25.043422,
        "Lon": 121.616561,
        "Sequence": 6,
        "StationID": "50026"
      },
      {
        "Name": "中研新村",
        "Lat": 25.045074,
        "Lon": 121.615639,
        "Sequence": 7,
        "StationID": "1000313"
      },
      {
        "Name": "圓拱橋",
        "Lat": 25.047462,
        "Lon": 121.615728,
        "Sequence": 8,
        "StationID": "50022"
      },
      {
        "Name": "南港水廠",
        "Lat": 25.048610235261958,
        "Lon": 121.61601678871844,
        "Sequence": 9,
        "StationID": "50021"
      },
      {
        "Name": "誠正國中",
        "Lat": 25.0515460114719,
        "Lon": 121.61603141641,
        "Sequence": 10,
        "StationID": "50020"
      },
      {
        "Name": "南港展覽館",
        "Lat": 25.05534,
        "Lon": 121.6156,
        "Sequence": 11,
        "StationID": "1664"
      },
      {
        "Name": "南港",
        "Lat": 25.055463507638656,
        "Lon": 121.61366085593893,
        "Sequence": 12,
        "StationID": "1660"
      },
      {
        "Name": "南港高工(南港路)",
        "Lat": 25.0549683149017,
        "Lon": 121.609776304165,
        "Sequence": 13,
        "StationID": "1000253"
      },
      {
        "Name": "南港行政中心(南港車站)",
        "Lat": 25.0544113947875,
        "Lon": 121.606693480964,
        "Sequence": 14,
        "StationID": "1651"
      },
      {
        "Name": "台肥新村",
        "Lat": 25.0538268750408,
        "Lon": 121.603501503157,
        "Sequence": 15,
        "StationID": "50017"
      },
      {
        "Name": "南港路二段178巷口",
        "Lat": 25.053410287006,
        "Lon": 121.600631965419,
        "Sequence": 16,
        "StationID": "50018"
      },
      {
        "Name": "東明里/臺北流行音樂中心",
        "Lat": 25.05384,
        "Lon": 121.598727,
        "Sequence": 17,
        "StationID": "50016"
      },
      {
        "Name": "土地公廟",
        "Lat": 25.0544903819023,
        "Lon": 121.595509916336,
        "Sequence": 18,
        "StationID": "1000254"
      },
      {
        "Name": "玉成國小",
        "Lat": 25.05440689628416,
        "Lon": 121.59255973649874,
        "Sequence": 19,
        "StationID": "4000"
      },
      {
        "Name": "西新里(新新公園)",
        "Lat": 25.0535036880317,
        "Lon": 121.589992575868,
        "Sequence": 20,
        "StationID": "50015"
      },
      {
        "Name": "南港路三段",
        "Lat": 25.053169,
        "Lon": 121.587762,
        "Sequence": 21,
        "StationID": "4001"
      },
      {
        "Name": "松山磚廠",
        "Lat": 25.0526502598819,
        "Lon": 121.585050803739,
        "Sequence": 22,
        "StationID": "50014"
      },
      {
        "Name": "玉成里",
        "Lat": 25.0509225264878,
        "Lon": 121.580911886242,
        "Sequence": 23,
        "StationID": "15103"
      },
      {
        "Name": "松山車站(八德)",
        "Lat": 25.050168,
        "Lon": 121.576598,
        "Sequence": 24,
        "StationID": "15104"
      },
      {
        "Name": "松山農會",
        "Lat": 25.0500731024231,
        "Lon": 121.57491400582,
        "Sequence": 25,
        "StationID": "16001"
      },
      {
        "Name": "饒河街觀光夜市(塔悠)",
        "Lat": 25.050387,
        "Lon": 121.571871,
        "Sequence": 26,
        "StationID": "4147"
      },
      {
        "Name": "南松山(南京)",
        "Lat": 25.051515,
        "Lon": 121.569058,
        "Sequence": 27,
        "StationID": "1000206"
      },
      {
        "Name": "南京公寓(捷運南京三民)",
        "Lat": 25.051513187536237,
        "Lon": 121.56665364964157,
        "Sequence": 28,
        "StationID": "1165603388"
      },
      {
        "Name": "南京三民路口",
        "Lat": 25.05158012283465,
        "Lon": 121.56111056329053,
        "Sequence": 29,
        "StationID": "16005"
      },
      {
        "Name": "南京寧安街口",
        "Lat": 25.0516596699759,
        "Lon": 121.555516323112,
        "Sequence": 30,
        "StationID": "16006"
      },
      {
        "Name": "南京敦化路口(小巨蛋)",
        "Lat": 25.0517934820293,
        "Lon": 121.549520919642,
        "Sequence": 31,
        "StationID": "1548"
      },
      {
        "Name": "捷運南京復興站",
        "Lat": 25.05191518176843,
        "Lon": 121.5444563164689,
        "Sequence": 32,
        "StationID": "1547"
      },
      {
        "Name": "南京龍江路口",
        "Lat": 25.051994714534274,
        "Lon": 121.54085264591662,
        "Sequence": 33,
        "StationID": "1556"
      },
      {
        "Name": "南京建國路口",
        "Lat": 25.0520896887846,
        "Lon": 121.537271345417,
        "Sequence": 34,
        "StationID": "1546"
      },
      {
        "Name": "捷運松江南京站",
        "Lat": 25.0521144980622,
        "Lon": 121.533302047123,
        "Sequence": 35,
        "StationID": "16011"
      },
      {
        "Name": "南京吉林路口",
        "Lat": 25.0521129968997,
        "Lon": 121.530332504829,
        "Sequence": 36,
        "StationID": "16012"
      },
      {
        "Name": "南京林森路口",
        "Lat": 25.0521676118001,
        "Lon": 121.525717467074,
        "Sequence": 37,
        "StationID": "16013"
      },
      {
        "Name": "捷運中山站(志仁高中)",
        "Lat": 25.052867,
        "Lon": 121.519866,
        "Sequence": 38,
        "StationID": "16014"
      },
      {
        "Name": "圓環(南京)",
        "Lat": 25.053591227672776,
        "Lon": 121.51678653159566,
        "Sequence": 39,
        "StationID": "16020"
      },
      {
        "Name": "民生重慶路口",
        "Lat": 25.0567660236851,
        "Lon": 121.513825816749,
        "Sequence": 40,
        "StationID": "1422"
      },
      {
        "Name": "涼州重慶路口",
        "Lat": 25.060581358412865,
        "Lon": 121.51358595205109,
        "Sequence": 41,
        "StationID": "8625"
      },
      {
        "Name": "捷運大橋頭站",
        "Lat": 25.062704,
        "Lon": 121.513583,
        "Sequence": 42,
        "StationID": "8623"
      },
      {
        "Name": "昌吉重慶路口",
        "Lat": 25.06581169232777,
        "Lon": 121.51372071650857,
        "Sequence": 43,
        "StationID": "1441"
      },
      {
        "Name": "民族重慶路口",
        "Lat": 25.06854,
        "Lon": 121.51425,
        "Sequence": 44,
        "StationID": "1001200"
      },
      {
        "Name": "蘭州國中",
        "Lat": 25.06847,
        "Lon": 121.51626,
        "Sequence": 45,
        "StationID": "1487"
      },
      {
        "Name": "民族承德路口",
        "Lat": 25.0679133670728,
        "Lon": 121.518267306546,
        "Sequence": 46,
        "StationID": "1424"
      },
      {
        "Name": "大同國小",
        "Lat": 25.06487427,
        "Lon": 121.5181,
        "Sequence": 47,
        "StationID": "1401"
      },
      {
        "Name": "民權大龍街口",
        "Lat": 25.062976,
        "Lon": 121.516467,
        "Sequence": 48,
        "StationID": "1427"
      },
      {
        "Name": "三重派出所(重新路)",
        "Lat": 25.063667,
        "Lon": 121.501606,
        "Sequence": 49,
        "StationID": "3488"
      },
      {
        "Name": "捷運台北橋站",
        "Lat": 25.06321,
        "Lon": 121.500403,
        "Sequence": 50,
        "StationID": "13200"
      },
      {
        "Name": "正義重新路口",
        "Lat": 25.06353227,
        "Lon": 121.4975969,
        "Sequence": 51,
        "StationID": "1000150"
      },
      {
        "Name": "長元西街口",
        "Lat": 25.0657327321884,
        "Lon": 121.496909993597,
        "Sequence": 52,
        "StationID": "10628"
      },
      {
        "Name": "長壽西街口",
        "Lat": 25.067084,
        "Lon": 121.496507,
        "Sequence": 53,
        "StationID": "3437"
      },
      {
        "Name": "三安里",
        "Lat": 25.0686318968407,
        "Lon": 121.496081127723,
        "Sequence": 54,
        "StationID": "3388"
      },
      {
        "Name": "龍門路口",
        "Lat": 25.070313,
        "Lon": 121.495103,
        "Sequence": 55,
        "StationID": "10626"
      },
      {
        "Name": "德林寺(三和路)",
        "Lat": 25.07212332,
        "Lon": 121.4944102,
        "Sequence": 56,
        "StationID": "10423"
      },
      {
        "Name": "厚德派出所",
        "Lat": 25.07349256,
        "Lon": 121.4924535,
        "Sequence": 57,
        "StationID": "10422"
      },
      {
        "Name": "格致中學(三和路)",
        "Lat": 25.074357,
        "Lon": 121.490969,
        "Sequence": 58,
        "StationID": "10429"
      },
      {
        "Name": "三和國中",
        "Lat": 25.07639978,
        "Lon": 121.4873983,
        "Sequence": 59,
        "StationID": "4127"
      },
      {
        "Name": "捷運三和國中站",
        "Lat": 25.07710199,
        "Lon": 121.486132,
        "Sequence": 60,
        "StationID": "10428"
      },
      {
        "Name": "建和新村",
        "Lat": 25.0780278,
        "Lon": 121.4844874,
        "Sequence": 61,
        "StationID": "10427"
      },
      {
        "Name": "幸福市場",
        "Lat": 25.0789135,
        "Lon": 121.4828427,
        "Sequence": 62,
        "StationID": "10430"
      },
      {
        "Name": "捷運徐匯中學站",
        "Lat": 25.080319,
        "Lon": 121.480476,
        "Sequence": 63,
        "StationID": "10431"
      },
      {
        "Name": "民和公寓",
        "Lat": 25.0810914736106,
        "Lon": 121.4791180235,
        "Sequence": 64,
        "StationID": "15087"
      },
      {
        "Name": "溪墘",
        "Lat": 25.08167,
        "Lon": 121.47682,
        "Sequence": 65,
        "StationID": "3683"
      },
      {
        "Name": "蘆洲派出所",
        "Lat": 25.08207017,
        "Lon": 121.4735458,
        "Sequence": 66,
        "StationID": "1000394"
      },
      {
        "Name": "蘆洲監理站(中正路)",
        "Lat": 25.08184559,
        "Lon": 121.4716472,
        "Sequence": 67,
        "StationID": "3697"
      },
      {
        "Name": "蘆洲國小",
        "Lat": 25.08330021,
        "Lon": 121.4703582,
        "Sequence": 68,
        "StationID": "15070"
      },
      {
        "Name": "中原公寓",
        "Lat": 25.085252,
        "Lon": 121.469088,
        "Sequence": 69,
        "StationID": "15069"
      },
      {
        "Name": "空中大學(中正路)",
        "Lat": 25.087176,
        "Lon": 121.467676,
        "Sequence": 70,
        "StationID": "3671"
      },
      {
        "Name": "王爺廟口",
        "Lat": 25.08809,
        "Lon": 121.466902,
        "Sequence": 71,
        "StationID": "15068"
      },
      {
        "Name": "蘆洲總站",
        "Lat": 25.0891287596823,
        "Lon": 121.465970849851,
        "Sequence": 72,
        "StationID": "15067"
      }
    ]
  },
  {
    "Route": "306",
    "SubRoute": "306(大都會)",
    "Direction": 0,
    "Stops": [
      {
        "Name": "蘆洲總站",
        "Lat": 25.089056,
        "Lon": 121.465804,
        "Sequence": 1,
        "StationID": "3698"
      },
      {
        "Name": "王爺廟口",
        "Lat": 25.08814,
        "Lon": 121.46664,
        "Sequence": 2,
        "StationID": "3655"
      },
      {
        "Name": "空中大學(中正路)",
        "Lat": 25.08671129,
        "Lon": 121.4677982,
        "Sequence": 3,
        "StationID": "3670"
      },
      {
        "Name": "中原公寓",
        "Lat": 25.08574782,
        "Lon": 121.4684977,
        "Sequence": 4,
        "StationID": "77"
      },
      {
        "Name": "蘆洲國小",
        "Lat": 25.08302,
        "Lon": 121.470464,
        "Sequence": 5,
        "StationID": "3695"
      },
      {
        "Name": "蘆洲監理站",
        "Lat": 25.081628,
        "Lon": 121.472348,
        "Sequence": 6,
        "StationID": "3696"
      },
      {
        "Name": "蘆洲派出所",
        "Lat": 25.081859,
        "Lon": 121.473209,
        "Sequence": 7,
        "StationID": "3693"
      },
      {
        "Name": "溪墘",
        "Lat": 25.081453,
        "Lon": 121.476637,
        "Sequence": 8,
        "StationID": "3684"
      },
      {
        "Name": "捷運徐匯中學站",
        "Lat": 25.080762,
        "Lon": 121.479191,
        "Sequence": 9,
        "StationID": "4108"
      },
      {
        "Name": "徐匯中學",
        "Lat": 25.0795793818446,
        "Lon": 121.481238194798,
        "Sequence": 10,
        "StationID": "3449"
      },
      {
        "Name": "幸福市場",
        "Lat": 25.078537,
        "Lon": 121.483076,
        "Sequence": 11,
        "StationID": "3427"
      },
      {
        "Name": "建和新村",
        "Lat": 25.07777593,
        "Lon": 121.4845214,
        "Sequence": 12,
        "StationID": "3441"
      },
      {
        "Name": "捷運三和國中站",
        "Lat": 25.07691628,
        "Lon": 121.4859364,
        "Sequence": 13,
        "StationID": "3391"
      },
      {
        "Name": "三和國中",
        "Lat": 25.075482682654,
        "Lon": 121.48856950179,
        "Sequence": 14,
        "StationID": "4126"
      },
      {
        "Name": "格致中學(三和路)",
        "Lat": 25.073995,
        "Lon": 121.491151,
        "Sequence": 15,
        "StationID": "3450"
      },
      {
        "Name": "厚德派出所",
        "Lat": 25.07293,
        "Lon": 121.492963,
        "Sequence": 16,
        "StationID": "3438"
      },
      {
        "Name": "德林寺(三和路)",
        "Lat": 25.071998,
        "Lon": 121.49431,
        "Sequence": 17,
        "StationID": "10424"
      },
      {
        "Name": "龍門路口",
        "Lat": 25.0701489438371,
        "Lon": 121.49511101853,
        "Sequence": 18,
        "StationID": "10608"
      },
      {
        "Name": "三安里",
        "Lat": 25.068994,
        "Lon": 121.495798,
        "Sequence": 19,
        "StationID": "10601"
      },
      {
        "Name": "長壽西街口",
        "Lat": 25.067022,
        "Lon": 121.49641,
        "Sequence": 20,
        "StationID": "1000148"
      },
      {
        "Name": "長元西街口",
        "Lat": 25.065609,
        "Lon": 121.496788,
        "Sequence": 21,
        "StationID": "3395"
      },
      {
        "Name": "正義重新路口",
        "Lat": 25.06310647,
        "Lon": 121.4974644,
        "Sequence": 22,
        "StationID": "3435"
      },
      {
        "Name": "三重郵局",
        "Lat": 25.060928,
        "Lon": 121.498057,
        "Sequence": 23,
        "StationID": "3403"
      },
      {
        "Name": "光興國小",
        "Lat": 25.05971795,
        "Lon": 121.4983337,
        "Sequence": 24,
        "StationID": "3425"
      },
      {
        "Name": "三重空軍一村",
        "Lat": 25.05760253,
        "Lon": 121.498795,
        "Sequence": 25,
        "StationID": "3422"
      },
      {
        "Name": "天后宮",
        "Lat": 25.05707,
        "Lon": 121.49998,
        "Sequence": 26,
        "StationID": "3420"
      },
      {
        "Name": "福德南路",
        "Lat": 25.062224,
        "Lon": 121.503152,
        "Sequence": 27,
        "StationID": "3482"
      },
      {
        "Name": "涼州重慶路口",
        "Lat": 25.060980060423,
        "Lon": 121.513509342762,
        "Sequence": 28,
        "StationID": "8624"
      },
      {
        "Name": "民生重慶路口",
        "Lat": 25.0571504842388,
        "Lon": 121.51369271164,
        "Sequence": 29,
        "StationID": "1421"
      },
      {
        "Name": "朝陽公園(鈕釦街)",
        "Lat": 25.055504,
        "Lon": 121.514022,
        "Sequence": 30,
        "StationID": "1165605935"
      },
      {
        "Name": "圓環(南京)",
        "Lat": 25.053651217399,
        "Lon": 121.515705430802,
        "Sequence": 31,
        "StationID": "16015"
      },
      {
        "Name": "捷運中山站(志仁高中)",
        "Lat": 25.0527107746344,
        "Lon": 121.519674930441,
        "Sequence": 32,
        "StationID": "16021"
      },
      {
        "Name": "南京林森路口",
        "Lat": 25.052069472359,
        "Lon": 121.525060474751,
        "Sequence": 33,
        "StationID": "16022"
      },
      {
        "Name": "南京吉林路口",
        "Lat": 25.0520078098529,
        "Lon": 121.529855025946,
        "Sequence": 34,
        "StationID": "16023"
      },
      {
        "Name": "捷運松江南京站",
        "Lat": 25.0519912439505,
        "Lon": 121.532641149751,
        "Sequence": 35,
        "StationID": "16024"
      },
      {
        "Name": "南京建國路口",
        "Lat": 25.0519389515979,
        "Lon": 121.53627250499,
        "Sequence": 36,
        "StationID": "50005"
      },
      {
        "Name": "南京龍江路口",
        "Lat": 25.05189813653983,
        "Lon": 121.54002052720857,
        "Sequence": 37,
        "StationID": "50002"
      },
      {
        "Name": "捷運南京復興站",
        "Lat": 25.0518040049938,
        "Lon": 121.543561439976,
        "Sequence": 38,
        "StationID": "50004"
      },
      {
        "Name": "南京敦化路口(小巨蛋)",
        "Lat": 25.0517035084006,
        "Lon": 121.548353475095,
        "Sequence": 39,
        "StationID": "50001"
      },
      {
        "Name": "南京寧安街口",
        "Lat": 25.051594154729063,
        "Lon": 121.55469770362868,
        "Sequence": 40,
        "StationID": "16029"
      },
      {
        "Name": "南京三民路口",
        "Lat": 25.05148353485096,
        "Lon": 121.5602663380149,
        "Sequence": 41,
        "StationID": "16030"
      },
      {
        "Name": "南京公寓(捷運南京三民)",
        "Lat": 25.0512559293088,
        "Lon": 121.566535683299,
        "Sequence": 42,
        "StationID": "1165603387"
      },
      {
        "Name": "南松山(南京)",
        "Lat": 25.05111499,
        "Lon": 121.5688141,
        "Sequence": 43,
        "StationID": "1557"
      },
      {
        "Name": "饒河街觀光夜市(塔悠)",
        "Lat": 25.050545938983998,
        "Lon": 121.57131845679393,
        "Sequence": 44,
        "StationID": "1603"
      },
      {
        "Name": "松山農會",
        "Lat": 25.0499024516685,
        "Lon": 121.573848311551,
        "Sequence": 45,
        "StationID": "1534"
      },
      {
        "Name": "松山車站(八德)",
        "Lat": 25.0499755097464,
        "Lon": 121.577246475627,
        "Sequence": 46,
        "StationID": "1530"
      },
      {
        "Name": "玉成里",
        "Lat": 25.05082,
        "Lon": 121.58108,
        "Sequence": 47,
        "StationID": "1515"
      },
      {
        "Name": "松山磚廠",
        "Lat": 25.052203296391,
        "Lon": 121.584201721401,
        "Sequence": 48,
        "StationID": "1634"
      },
      {
        "Name": "南港路三段",
        "Lat": 25.05293617,
        "Lon": 121.5872289,
        "Sequence": 49,
        "StationID": "1684"
      },
      {
        "Name": "西新里(新新公園)",
        "Lat": 25.05323,
        "Lon": 121.58971,
        "Sequence": 50,
        "StationID": "1614"
      },
      {
        "Name": "玉成國小",
        "Lat": 25.05408309,
        "Lon": 121.5921075,
        "Sequence": 51,
        "StationID": "1624"
      },
      {
        "Name": "土地公廟",
        "Lat": 25.05424093800564,
        "Lon": 121.59633521222251,
        "Sequence": 52,
        "StationID": "1000270"
      },
      {
        "Name": "東明里/臺北流行音樂中心",
        "Lat": 25.0538414991689,
        "Lon": 121.598139533007,
        "Sequence": 53,
        "StationID": "1635"
      },
      {
        "Name": "南港路二段178巷口",
        "Lat": 25.0533242413246,
        "Lon": 121.60075620256,
        "Sequence": 54,
        "StationID": "1685"
      },
      {
        "Name": "台肥新村",
        "Lat": 25.053655363078,
        "Lon": 121.603021736172,
        "Sequence": 55,
        "StationID": "1000271"
      },
      {
        "Name": "南港行政中心(南港車站)",
        "Lat": 25.05433,
        "Lon": 121.60712,
        "Sequence": 56,
        "StationID": "1000272"
      },
      {
        "Name": "南港高工(南港路)",
        "Lat": 25.05493375102052,
        "Lon": 121.61066212694543,
        "Sequence": 57,
        "StationID": "50019"
      },
      {
        "Name": "南港",
        "Lat": 25.0551240859182,
        "Lon": 121.613597939232,
        "Sequence": 58,
        "StationID": "1643"
      },
      {
        "Name": "南港展覽館",
        "Lat": 25.054699,
        "Lon": 121.616456,
        "Sequence": 59,
        "StationID": "1165606825"
      },
      {
        "Name": "誠正國中",
        "Lat": 25.0518036904539,
        "Lon": 121.615865875754,
        "Sequence": 60,
        "StationID": "1711"
      },
      {
        "Name": "南港水廠",
        "Lat": 25.049543,
        "Lon": 121.615625,
        "Sequence": 61,
        "StationID": "1650"
      },
      {
        "Name": "圓拱橋",
        "Lat": 25.047199,
        "Lon": 121.615363,
        "Sequence": 62,
        "StationID": "1707"
      },
      {
        "Name": "中研新村",
        "Lat": 25.044722099556466,
        "Lon": 121.61558513647303,
        "Sequence": 63,
        "StationID": "1611"
      },
      {
        "Name": "中研院",
        "Lat": 25.04313,
        "Lon": 121.61648,
        "Sequence": 64,
        "StationID": "1610"
      },
      {
        "Name": "舊莊一站",
        "Lat": 25.04117512726169,
        "Lon": 121.61838014471944,
        "Sequence": 65,
        "StationID": "1724"
      },
      {
        "Name": "舊莊國小",
        "Lat": 25.03984242,
        "Lon": 121.6202488,
        "Sequence": 66,
        "StationID": "3891"
      },
      {
        "Name": "舊莊",
        "Lat": 25.03833,
        "Lon": 121.62277,
        "Sequence": 67,
        "StationID": "50028"
      }
    ]
  },
  {
    "Route": "306",
    "SubRoute": "306(大都會)",
    "Direction": 1,
    "Stops": [
      {
        "Name": "舊莊",
        "Lat": 25.0384056841054,
        "Lon": 121.622734485156,
        "Sequence": 1,
        "StationID": "1000152"
      },
      {
        "Name": "舊莊國小",
        "Lat": 25.039526,
        "Lon": 121.621016,
        "Sequence": 2,
        "StationID": "50029"
      },
      {
        "Name": "舊莊一站",
        "Lat": 25.0409122787157,
        "Lon": 121.619044433004,
        "Sequence": 3,
        "StationID": "50027"
      },
      {
        "Name": "中研院",
        "Lat": 25.043422,
        "Lon": 121.616561,
        "Sequence": 4,
        "StationID": "50026"
      },
      {
        "Name": "中研新村",
        "Lat": 25.045074,
        "Lon": 121.615639,
        "Sequence": 5,
        "StationID": "1000313"
      },
      {
        "Name": "圓拱橋",
        "Lat": 25.047462,
        "Lon": 121.615728,
        "Sequence": 6,
        "StationID": "50022"
      },
      {
        "Name": "南港水廠",
        "Lat": 25.048610235261958,
        "Lon": 121.61601678871844,
        "Sequence": 7,
        "StationID": "50021"
      },
      {
        "Name": "誠正國中",
        "Lat": 25.0515460114719,
        "Lon": 121.61603141641,
        "Sequence": 8,
        "StationID": "50020"
      },
      {
        "Name": "南港展覽館",
        "Lat": 25.05534,
        "Lon": 121.6156,
        "Sequence": 9,
        "StationID": "1664"
      },
      {
        "Name": "南港",
        "Lat": 25.055463507638656,
        "Lon": 121.61366085593893,
        "Sequence": 10,
        "StationID": "1660"
      },
      {
        "Name": "南港高工(南港路)",
        "Lat": 25.0549683149017,
        "Lon": 121.609776304165,
        "Sequence": 11,
        "StationID": "1000253"
      },
      {
        "Name": "南港行政中心(南港車站)",
        "Lat": 25.0544113947875,
        "Lon": 121.606693480964,
        "Sequence": 12,
        "StationID": "1651"
      },
      {
        "Name": "台肥新村",
        "Lat": 25.0538268750408,
        "Lon": 121.603501503157,
        "Sequence": 13,
        "StationID": "50017"
      },
      {
        "Name": "南港路二段178巷口",
        "Lat": 25.053410287006,
        "Lon": 121.600631965419,
        "Sequence": 14,
        "StationID": "50018"
      },
      {
        "Name": "東明里/臺北流行音樂中心",
        "Lat": 25.05384,
        "Lon": 121.598727,
        "Sequence": 15,
        "StationID": "50016"
      },
      {
        "Name": "土地公廟",
        "Lat": 25.0544903819023,
        "Lon": 121.595509916336,
        "Sequence": 16,
        "StationID": "1000254"
      },
      {
        "Name": "玉成國小",
        "Lat": 25.05440689628416,
        "Lon": 121.59255973649874,
        "Sequence": 17,
        "StationID": "4000"
      },
      {
        "Name": "西新里(新新公園)",
        "Lat": 25.0535036880317,
        "Lon": 121.589992575868,
        "Sequence": 18,
        "StationID": "50015"
      },
      {
        "Name": "南港路三段",
        "Lat": 25.053169,
        "Lon": 121.587762,
        "Sequence": 19,
        "StationID": "4001"
      },
      {
        "Name": "松山磚廠",
        "Lat": 25.0526502598819,
        "Lon": 121.585050803739,
        "Sequence": 20,
        "StationID": "50014"
      },
      {
        "Name": "玉成里",
        "Lat": 25.0509225264878,
        "Lon": 121.580911886242,
        "Sequence": 21,
        "StationID": "15103"
      },
      {
        "Name": "松山車站(八德)",
        "Lat": 25.050168,
        "Lon": 121.576598,
        "Sequence": 22,
        "StationID": "15104"
      },
      {
        "Name": "松山農會",
        "Lat": 25.0500731024231,
        "Lon": 121.57491400582,
        "Sequence": 23,
        "StationID": "16001"
      },
      {
        "Name": "饒河街觀光夜市(塔悠)",
        "Lat": 25.050387,
        "Lon": 121.571871,
        "Sequence": 24,
        "StationID": "4147"
      },
      {
        "Name": "南松山(南京)",
        "Lat": 25.051515,
        "Lon": 121.569058,
        "Sequence": 25,
        "StationID": "1000206"
      },
      {
        "Name": "南京公寓(捷運南京三民)",
        "Lat": 25.051513187536237,
        "Lon": 121.56665364964157,
        "Sequence": 26,
        "StationID": "1165603388"
      },
      {
        "Name": "南京三民路口",
        "Lat": 25.05158012283465,
        "Lon": 121.56111056329053,
        "Sequence": 27,
        "StationID": "16005"
      },
      {
        "Name": "南京寧安街口",
        "Lat": 25.0516596699759,
        "Lon": 121.555516323112,
        "Sequence": 28,
        "StationID": "16006"
      },
      {
        "Name": "南京敦化路口(小巨蛋)",
        "Lat": 25.0517934820293,
        "Lon": 121.549520919642,
        "Sequence": 29,
        "StationID": "1548"
      },
      {
        "Name": "捷運南京復興站",
        "Lat": 25.05191518176843,
        "Lon": 121.5444563164689,
        "Sequence": 30,
        "StationID": "1547"
      },
      {
        "Name": "南京龍江路口",
        "Lat": 25.051994714534274,
        "Lon": 121.54085264591662,
        "Sequence": 31,
        "StationID": "1556"
      },
      {
        "Name": "南京建國路口",
        "Lat": 25.0520896887846,
        "Lon": 121.537271345417,
        "Sequence": 32,
        "StationID": "1546"
      },
      {
        "Name": "捷運松江南京站",
        "Lat": 25.0521144980622,
        "Lon": 121.533302047123,
        "Sequence": 33,
        "StationID": "16011"
      },
      {
        "Name": "南京吉林路口",
        "Lat": 25.0521129968997,
        "Lon": 121.530332504829,
        "Sequence": 34,
        "StationID": "16012"
      },
      {
        "Name": "南京林森路口",
        "Lat": 25.0521676118001,
        "Lon": 121.525717467074,
        "Sequence": 35,
        "StationID": "16013"
      },
      {
        "Name": "捷運中山站(志仁高中)",
        "Lat": 25.052867,
        "Lon": 121.519866,
        "Sequence": 36,
        "StationID": "16014"
      },
      {
        "Name": "圓環(南京)",
        "Lat": 25.053591227672776,
        "Lon": 121.51678653159566,
        "Sequence": 37,
        "StationID": "16020"
      },
      {
        "Name": "民生重慶路口",
        "Lat": 25.0567660236851,
        "Lon": 121.513825816749,
        "Sequence": 38,
        "StationID": "1422"
      },
      {
        "Name": "涼州重慶路口",
        "Lat": 25.060581358412865,
        "Lon": 121.51358595205109,
        "Sequence": 39,
        "StationID": "8625"
      },
      {
        "Name": "捷運大橋頭站",
        "Lat": 25.062704,
        "Lon": 121.513583,
        "Sequence": 40,
        "StationID": "8623"
      },
      {
        "Name": "昌吉重慶路口",
        "Lat": 25.06581169232777,
        "Lon": 121.51372071650857,
        "Sequence": 41,
        "StationID": "1441"
      },
      {
        "Name": "民族重慶路口",
        "Lat": 25.06854,
        "Lon": 121.51425,
        "Sequence": 42,
        "StationID": "1001200"
      },
      {
        "Name": "蘭州國中",
        "Lat": 25.06847,
        "Lon": 121.51626,
        "Sequence": 43,
        "StationID": "1487"
      },
      {
        "Name": "民族承德路口",
        "Lat": 25.0679133670728,
        "Lon": 121.518267306546,
        "Sequence": 44,
        "StationID": "1424"
      },
      {
        "Name": "大同國小",
        "Lat": 25.06487427,
        "Lon": 121.5181,
        "Sequence": 45,
        "StationID": "1401"
      },
      {
        "Name": "民權大龍街口",
        "Lat": 25.062976,
        "Lon": 121.516467,
        "Sequence": 46,
        "StationID": "1427"
      },
      {
        "Name": "三重派出所(重新路)",
        "Lat": 25.063667,
        "Lon": 121.501606,
        "Sequence": 47,
        "StationID": "3488"
      },
      {
        "Name": "捷運台北橋站",
        "Lat": 25.06321,
        "Lon": 121.500403,
        "Sequence": 48,
        "StationID": "13200"
      },
      {
        "Name": "正義重新路口",
        "Lat": 25.06353227,
        "Lon": 121.4975969,
        "Sequence": 49,
        "StationID": "1000150"
      },
      {
        "Name": "長元西街口",
        "Lat": 25.0657327321884,
        "Lon": 121.496909993597,
        "Sequence": 50,
        "StationID": "10628"
      },
      {
        "Name": "長壽西街口",
        "Lat": 25.067084,
        "Lon": 121.496507,
        "Sequence": 51,
        "StationID": "3437"
      },
      {
        "Name": "三安里",
        "Lat": 25.0686318968407,
        "Lon": 121.496081127723,
        "Sequence": 52,
        "StationID": "3388"
      },
      {
        "Name": "龍門路口",
        "Lat": 25.070313,
        "Lon": 121.495103,
        "Sequence": 53,
        "StationID": "10626"
      },
      {
        "Name": "德林寺(三和路)",
        "Lat": 25.07212332,
        "Lon": 121.4944102,
        "Sequence": 54,
        "StationID": "10423"
      },
      {
        "Name": "厚德派出所",
        "Lat": 25.07349256,
        "Lon": 121.4924535,
        "Sequence": 55,
        "StationID": "10422"
      },
      {
        "Name": "格致中學(三和路)",
        "Lat": 25.074357,
        "Lon": 121.490969,
        "Sequence": 56,
        "StationID": "10429"
      },
      {
        "Name": "三和國中",
        "Lat": 25.07639978,
        "Lon": 121.4873983,
        "Sequence": 57,
        "StationID": "4127"
      },
      {
        "Name": "捷運三和國中站",
        "Lat": 25.07710199,
        "Lon": 121.486132,
        "Sequence": 58,
        "StationID": "10428"
      },
      {
        "Name": "建和新村",
        "Lat": 25.0780278,
        "Lon": 121.4844874,
        "Sequence": 59,
        "StationID": "10427"
      },
      {
        "Name": "幸福市場",
        "Lat": 25.0789135,
        "Lon": 121.4828427,
        "Sequence": 60,
        "StationID": "10430"
      },
      {
        "Name": "捷運徐匯中學站",
        "Lat": 25.080319,
        "Lon": 121.480476,
        "Sequence": 61,
        "StationID": "10431"
      },
      {
        "Name": "民和公寓",
        "Lat": 25.0810914736106,
        "Lon": 121.4791180235,
        "Sequence": 62,
        "StationID": "15087"
      },
      {
        "Name": "溪墘",
        "Lat": 25.08167,
        "Lon": 121.47682,
        "Sequence": 63,
        "StationID": "3683"
      },
      {
        "Name": "蘆洲派出所",
        "Lat": 25.08207017,
        "Lon": 121.4735458,
        "Sequence": 64,
        "StationID": "1000394"
      },
      {
        "Name": "蘆洲監理站(中正路)",
        "Lat": 25.08184559,
        "Lon": 121.4716472,
        "Sequence": 65,
        "StationID": "3697"
      },
      {
        "Name": "蘆洲國小",
        "Lat": 25.08330021,
        "Lon": 121.4703582,
        "Sequence": 66,
        "StationID": "15070"
      },
      {
        "Name": "中原公寓",
        "Lat": 25.085252,
        "Lon": 121.469088,
        "Sequence": 67,
        "StationID": "15069"
      },
      {
        "Name": "空中大學(中正路)",
        "Lat": 25.087176,
        "Lon": 121.467676,
        "Sequence": 68,
        "StationID": "3671"
      },
      {
        "Name": "王爺廟口",
        "Lat": 25.08809,
        "Lon": 121.466902,
        "Sequence": 69,
        "StationID": "15068"
      },
      {
        "Name": "蘆洲總站",
        "Lat": 25.0891287596823,
        "Lon": 121.465970849851,
        "Sequence": 70,
        "StationID": "15067"
      }
    ]
  }
]