[
  {
    "Route": "262區",
    "SubRoute": "262區",
    "Direction": 0,
    "Stops": [
      {
        "Name": "中和保養廠",
        "Lat": 25.002543,
        "Lon": 121.492374,
        "Sequence": 1,
        "StationID": "3066"
      },
      {
        "Name": "家美工業區",
        "Lat": 25.002028,
        "Lon": 121.493912,
        "Sequence": 2,
        "StationID": "3133"
      },
      {
        "Name": "捷運中和站(中山路)",
        "Lat": 25.002211,
        "Lon": 121.495441,
        "Sequence": 3,
        "StationID": "72478"
      },
      {
        "Name": "連城路口",
        "Lat": 25.00030984,
        "Lon": 121.4976874,
        "Sequence": 4,
        "StationID": "3136"
      },
      {
        "Name": "中和區公所(景平路)",
        "Lat": 24.998331595875737,
        "Lon": 121.4996731019886,
        "Sequence": 5,
        "StationID": "1000705"
      },
      {
        "Name": "南華路口",
        "Lat": 24.995456001390632,
        "Lon": 121.50137333996481,
        "Sequence": 6,
        "StationID": "3114"
      },
      {
        "Name": "捷運景安站(景平路)",
        "Lat": 24.993354,
        "Lon": 121.504297,
        "Sequence": 7,
        "StationID": "3130"
      },
      {
        "Name": "中和教會",
        "Lat": 24.992776,
        "Lon": 121.509186,
        "Sequence": 8,
        "StationID": "50844"
      },
      {
        "Name": "智光商職",
        "Lat": 24.994533,
        "Lon": 121.513228,
        "Sequence": 9,
        "StationID": "72406"
      },
      {
        "Name": "中興二村",
        "Lat": 24.9964243335687,
        "Lon": 121.514859678286,
        "Sequence": 10,
        "StationID": "3001"
      },
      {
        "Name": "中興新村",
        "Lat": 24.9983765816712,
        "Lon": 121.516565619533,
        "Sequence": 11,
        "StationID": "9646"
      },
      {
        "Name": "得和路口",
        "Lat": 25.00054939,
        "Lon": 121.5177138,
        "Sequence": 12,
        "StationID": "3028"
      },
      {
        "Name": "永和國小",
        "Lat": 25.0024569,
        "Lon": 121.5175452,
        "Sequence": 13,
        "StationID": "3013"
      },
      {
        "Name": "福和里",
        "Lat": 25.006519,
        "Lon": 121.517121,
        "Sequence": 14,
        "StationID": "9652"
      },
      {
        "Name": "大新街",
        "Lat": 25.008459,
        "Lon": 121.51691,
        "Sequence": 15,
        "StationID": "9653"
      },
      {
        "Name": "正興里",
        "Lat": 25.010161,
        "Lon": 121.5155,
        "Sequence": 16,
        "StationID": "1000476"
      },
      {
        "Name": "捷運頂溪站",
        "Lat": 25.01258,
        "Lon": 121.515273,
        "Sequence": 17,
        "StationID": "9621"
      },
      {
        "Name": "中正橋頭",
        "Lat": 25.01604284,
        "Lon": 121.5162239,
        "Sequence": 18,
        "StationID": "50809"
      },
      {
        "Name": "重慶南路三段(中正橋)",
        "Lat": 25.0242546637841,
        "Lon": 121.516898839078,
        "Sequence": 19,
        "StationID": "1000325"
      },
      {
        "Name": "寧波重慶路口",
        "Lat": 25.02907366,
        "Lon": 121.5155658,
        "Sequence": 20,
        "StationID": "1000399"
      },
      {
        "Name": "中正二分局",
        "Lat": 25.0326456333347,
        "Lon": 121.514086870192,
        "Sequence": 21,
        "StationID": "1000513"
      },
      {
        "Name": "一女中(重慶)",
        "Lat": 25.037508,
        "Lon": 121.512761,
        "Sequence": 22,
        "StationID": "1000628"
      },
      {
        "Name": "博愛路",
        "Lat": 25.043262,
        "Lon": 121.511555,
        "Sequence": 23,
        "StationID": "2002"
      },
      {
        "Name": "臺北郵局",
        "Lat": 25.04676505924,
        "Lon": 121.51129364418,
        "Sequence": 24,
        "StationID": "1000108"
      },
      {
        "Name": "臺北車站(忠孝)",
        "Lat": 25.0465635496954,
        "Lon": 121.515689438859,
        "Sequence": 25,
        "StationID": "1882"
      },
      {
        "Name": "捷運善導寺站",
        "Lat": 25.044844,
        "Lon": 121.522629,
        "Sequence": 26,
        "StationID": "1997"
      },
      {
        "Name": "華山文創園區",
        "Lat": 25.04393012352479,
        "Lon": 121.52631480425094,
        "Sequence": 27,
        "StationID": "2013"
      },
      {
        "Name": "忠孝國小",
        "Lat": 25.04260323596391,
        "Lon": 121.53133882119596,
        "Sequence": 28,
        "StationID": "1930"
      },
      {
        "Name": "臺北科技大學(忠孝)",
        "Lat": 25.041964538706296,
        "Lon": 121.53420785577566,
        "Sequence": 29,
        "StationID": "1900"
      },
      {
        "Name": "正義郵局",
        "Lat": 25.04151329724535,
        "Lon": 121.53833135465409,
        "Sequence": 30,
        "StationID": "2234"
      },
      {
        "Name": "懷生國中",
        "Lat": 25.041512273166234,
        "Lon": 121.54108205639983,
        "Sequence": 31,
        "StationID": "2350"
      },
      {
        "Name": "頂好市場",
        "Lat": 25.0414709888816,
        "Lon": 121.546380002806,
        "Sequence": 32,
        "StationID": "2325"
      },
      {
        "Name": "捷運忠孝敦化站",
        "Lat": 25.0430127,
        "Lon": 121.549174,
        "Sequence": 33,
        "StationID": "2259"
      },
      {
        "Name": "市民大道口",
        "Lat": 25.04575795,
        "Lon": 121.5491941,
        "Sequence": 34,
        "StationID": "13104"
      },
      {
        "Name": "市立體育場",
        "Lat": 25.048949,
        "Lon": 121.549204,
        "Sequence": 35,
        "StationID": "1510"
      },
      {
        "Name": "臺北小巨蛋",
        "Lat": 25.05258,
        "Lon": 121.54933,
        "Sequence": 36,
        "StationID": "13105"
      },
      {
        "Name": "長庚醫院",
        "Lat": 25.05668072,
        "Lon": 121.5492693,
        "Sequence": 37,
        "StationID": "1544"
      },
      {
        "Name": "公教住宅",
        "Lat": 25.05792823,
        "Lon": 121.5525641,
        "Sequence": 38,
        "StationID": "1495"
      },
      {
        "Name": "介壽國中",
        "Lat": 25.058201423962956,
        "Lon": 121.55569442816517,
        "Sequence": 39,
        "StationID": "1497"
      },
      {
        "Name": "聯合二村",
        "Lat": 25.0585017739443,
        "Lon": 121.559216750962,
        "Sequence": 40,
        "StationID": "1597"
      },
      {
        "Name": "民生社區活動中心",
        "Lat": 25.0586405271738,
        "Lon": 121.560927032747,
        "Sequence": 41,
        "StationID": "1506"
      },
      {
        "Name": "新東街口",
        "Lat": 25.05902066,
        "Lon": 121.5664423,
        "Sequence": 42,
        "StationID": "1588"
      },
      {
        "Name": "塔悠路",
        "Lat": 25.060955,
        "Lon": 121.56886,
        "Sequence": 43,
        "StationID": "1000630"
      },
      {
        "Name": "撫遠抽水站",
        "Lat": 25.06256326016851,
        "Lon": 121.56858398162726,
        "Sequence": 44,
        "StationID": "1000631"
      },
      {
        "Name": "塔悠疏散門",
        "Lat": 25.065092132222503,
        "Lon": 121.56816581358287,
        "Sequence": 45,
        "StationID": "8605"
      }
    ]
  },
  {
    "Route": "262區",
    "SubRoute": "262區",
    "Direction": 1,
    "Stops": [
      {
        "Name": "莊敬里",
        "Lat": 25.065033,
        "Lon": 121.565572,
        "Sequence": 1,
        "StationID": "1000632"
      },
      {
        "Name": "新益里",
        "Lat": 25.062286,
        "Lon": 121.566155,
        "Sequence": 2,
        "StationID": "1503"
      },
      {
        "Name": "民生國中",
        "Lat": 25.05966141,
        "Lon": 121.5679233,
        "Sequence": 3,
        "StationID": "1507"
      },
      {
        "Name": "新東街口",
        "Lat": 25.0591755,
        "Lon": 121.5663295,
        "Sequence": 4,
        "StationID": "60133"
      },
      {
        "Name": "民生社區活動中心",
        "Lat": 25.058808540179,
        "Lon": 121.561144568697,
        "Sequence": 5,
        "StationID": "1000074"
      },
      {
        "Name": "聯合二村",
        "Lat": 25.0586249332513,
        "Lon": 121.558923442523,
        "Sequence": 6,
        "StationID": "1000075"
      },
      {
        "Name": "介壽國中",
        "Lat": 25.058415078013,
        "Lon": 121.556044429017,
        "Sequence": 7,
        "StationID": "10408"
      },
      {
        "Name": "公教住宅",
        "Lat": 25.05813129,
        "Lon": 121.5526273,
        "Sequence": 8,
        "StationID": "10421"
      },
      {
        "Name": "富錦街口",
        "Lat": 25.05971079181516,
        "Lon": 121.55019898812432,
        "Sequence": 9,
        "StationID": "1580"
      },
      {
        "Name": "松山機場",
        "Lat": 25.063277,
        "Lon": 121.55196,
        "Sequence": 10,
        "StationID": "1536"
      },
      {
        "Name": "民生敦化路口",
        "Lat": 25.057956,
        "Lon": 121.548902,
        "Sequence": 11,
        "StationID": "13106"
      },
      {
        "Name": "長春敦化路口",
        "Lat": 25.05458,
        "Lon": 121.54883,
        "Sequence": 12,
        "StationID": "1298"
      },
      {
        "Name": "臺北小巨蛋",
        "Lat": 25.052139,
        "Lon": 121.548768,
        "Sequence": 13,
        "StationID": "13107"
      },
      {
        "Name": "八德敦化路口",
        "Lat": 25.04864,
        "Lon": 121.54874,
        "Sequence": 14,
        "StationID": "1488"
      },
      {
        "Name": "市民敦化路口",
        "Lat": 25.04527113,
        "Lon": 121.548797,
        "Sequence": 15,
        "StationID": "13109"
      },
      {
        "Name": "頂好市場",
        "Lat": 25.0416948578606,
        "Lon": 121.546693508012,
        "Sequence": 16,
        "StationID": "3932"
      },
      {
        "Name": "捷運忠孝復興站",
        "Lat": 25.04177,
        "Lon": 121.542636,
        "Sequence": 17,
        "StationID": "3933"
      },
      {
        "Name": "正義郵局",
        "Lat": 25.041847778405945,
        "Lon": 121.53921450721282,
        "Sequence": 18,
        "StationID": "3934"
      },
      {
        "Name": "臺北科技大學(忠孝)",
        "Lat": 25.04222,
        "Lon": 121.53457,
        "Sequence": 19,
        "StationID": "2228"
      },
      {
        "Name": "忠孝國小",
        "Lat": 25.04289823,
        "Lon": 121.5311997,
        "Sequence": 20,
        "StationID": "3935"
      },
      {
        "Name": "華山文創園區",
        "Lat": 25.043941210409297,
        "Lon": 121.52749815701229,
        "Sequence": 21,
        "StationID": "2015"
      },
      {
        "Name": "捷運善導寺站",
        "Lat": 25.045112057683003,
        "Lon": 121.52277975890082,
        "Sequence": 22,
        "StationID": "1998"
      },
      {
        "Name": "臺北車站(忠孝)",
        "Lat": 25.0465408,
        "Lon": 121.5167218,
        "Sequence": 23,
        "StationID": "1000082"
      },
      {
        "Name": "中華路北站",
        "Lat": 25.0455115050969,
        "Lon": 121.509144127644,
        "Sequence": 24,
        "StationID": "1000078"
      },
      {
        "Name": "捷運西門站",
        "Lat": 25.0425165606871,
        "Lon": 121.508266771006,
        "Sequence": 25,
        "StationID": "1000079"
      },
      {
        "Name": "小南門(和平院區)",
        "Lat": 25.03630737,
        "Lon": 121.5085509,
        "Sequence": 26,
        "StationID": "1853"
      },
      {
        "Name": "捷運小南門站",
        "Lat": 25.035137,
        "Lon": 121.511946,
        "Sequence": 27,
        "StationID": "1976"
      },
      {
        "Name": "中正二分局",
        "Lat": 25.03238167,
        "Lon": 121.5138969,
        "Sequence": 28,
        "StationID": "1858"
      },
      {
        "Name": "寧波重慶路口",
        "Lat": 25.02888681,
        "Lon": 121.5153917,
        "Sequence": 29,
        "StationID": "2009"
      },
      {
        "Name": "重慶南路三段(中正橋)",
        "Lat": 25.024804,
        "Lon": 121.516528,
        "Sequence": 30,
        "StationID": "1920"
      },
      {
        "Name": "捷運頂溪站",
        "Lat": 25.013998,
        "Lon": 121.515471,
        "Sequence": 31,
        "StationID": "4022"
      },
      {
        "Name": "中興街口",
        "Lat": 25.0115956,
        "Lon": 121.5147464,
        "Sequence": 32,
        "StationID": "3002"
      },
      {
        "Name": "豫溪街口(中正路)",
        "Lat": 25.010002,
        "Lon": 121.515573,
        "Sequence": 33,
        "StationID": "3018"
      },
      {
        "Name": "大新街",
        "Lat": 25.00843234,
        "Lon": 121.5167282,
        "Sequence": 34,
        "StationID": "2992"
      },
      {
        "Name": "福和里",
        "Lat": 25.006393,
        "Lon": 121.516986,
        "Sequence": 35,
        "StationID": "1165608705"
      },
      {
        "Name": "永和國小",
        "Lat": 25.00304399,
        "Lon": 121.5172544,
        "Sequence": 36,
        "StationID": "3012"
      },
      {
        "Name": "得和路口",
        "Lat": 25.000946,
        "Lon": 121.517563,
        "Sequence": 37,
        "StationID": "3029"
      },
      {
        "Name": "中興新村",
        "Lat": 24.99862597,
        "Lon": 121.5165323,
        "Sequence": 38,
        "StationID": "3003"
      },
      {
        "Name": "中興二村",
        "Lat": 24.9970684513473,
        "Lon": 121.515268767725,
        "Sequence": 39,
        "StationID": "9655"
      },
      {
        "Name": "智光商職",
        "Lat": 24.99403299,
        "Lon": 121.5125768,
        "Sequence": 40,
        "StationID": "3037"
      },
      {
        "Name": "南勢角(景平路)",
        "Lat": 24.99291,
        "Lon": 121.51133,
        "Sequence": 41,
        "StationID": "1165605328"
      },
      {
        "Name": "中和教會",
        "Lat": 24.993096,
        "Lon": 121.509353,
        "Sequence": 42,
        "StationID": "3074"
      },
      {
        "Name": "捷運景安站(景平路)",
        "Lat": 24.99367,
        "Lon": 121.50421,
        "Sequence": 43,
        "StationID": "50833"
      },
      {
        "Name": "南華路口",
        "Lat": 24.99516898447116,
        "Lon": 121.50208667210215,
        "Sequence": 44,
        "StationID": "50840"
      },
      {
        "Name": "中和區公所(景平路)",
        "Lat": 24.99880695334873,
        "Lon": 121.49960332023917,
        "Sequence": 45,
        "StationID": "1000334"
      },
      {
        "Name": "連城路口",
        "Lat": 25.00047553316187,
        "Lon": 121.49772766396961,
        "Sequence": 46,
        "StationID": "50817"
      },
      {
        "Name": "捷運中和站(中山路)",
        "Lat": 25.002436,
        "Lon": 121.496157,
        "Sequence": 47,
        "StationID": "3154"
      },
      {
        "Name": "家美工業區",
        "Lat": 25.00229,
        "Lon": 121.493465,
        "Sequence": 48,
        "StationID": "10049"
      },
      {
        "Name": "中和保養廠",
        "Lat": 25.003079,
        "Lon": 121.491807,
        "Sequence": 49,
        "StationID": "3065"
      }
    ]
  },
  {
    "Route": "262區",
    "SubRoute": "262區狗狗公車",
    "Direction": 0,
    "Stops": [
      {
        "Name": "中和保養廠",
        "Lat": 25.002543,
        "Lon": 121.492374,
        "Sequence": 1,
        "StationID": "3066"
      },
      {
        "Name": "家美工業區",
        "Lat": 25.002028,
        "Lon": 121.493912,
        "Sequence": 2,
        "StationID": "3133"
      },
      {
        "Name": "捷運中和站(中山路)",
        "Lat": 25.002211,
        "Lon": 121.495441,
        "Sequence": 3,
        "StationID": "72478"
      },
      {
        "Name": "連城路口",
        "Lat": 25.00030984,
        "Lon": 121.4976874,
        "Sequence": 4,
        "StationID": "3136"
      },
      {
        "Name": "中和區公所(景平路)",
        "Lat": 24.998331595875737,
        "Lon": 121.4996731019886,
        "Sequence": 5,
        "StationID": "1000705"
      },
      {
        "Name": "南華路口",
        "Lat": 24.995456001390632,
        "Lon": 121.50137333996481,
        "Sequence": 6,
        "StationID": "3114"
      },
      {
        "Name": "捷運景安站(景平路)",
        "Lat": 24.993354,
        "Lon": 121.504297,
        "Sequence": 7,
        "StationID": "3130"
      },
      {
        "Name": "中和教會",
        "Lat": 24.992776,
        "Lon": 121.509186,
        "Sequence": 8,
        "StationID": "50844"
      },
      {
        "Name": "智光商職",
        "Lat": 24.994533,
        "Lon": 121.513228,
        "Sequence": 9,
        "StationID": "72406"
      },
      {
        "Name": "中興二村",
        "Lat": 24.9964243335687,
        "Lon": 121.514859678286,
        "Sequence": 10,
        "StationID": "3001"
      },
      {
        "Name": "中興新村",
        "Lat": 24.9983765816712,
        "Lon": 121.516565619533,
        "Sequence": 11,
        "StationID": "9646"
      },
      {
        "Name": "得和路口",
        "Lat": 25.00054939,
        "Lon": 121.5177138,
        "Sequence": 12,
        "StationID": "3028"
      },
      {
        "Name": "永和國小",
        "Lat": 25.0024569,
        "Lon": 121.5175452,
        "Sequence": 13,
        "StationID": "3013"
      },
      {
        "Name": "福和里",
        "Lat": 25.006519,
        "Lon": 121.517121,
        "Sequence": 14,
        "StationID": "9652"
      },
      {
        "Name": "大新街",
        "Lat": 25.008459,
        "Lon": 121.51691,
        "Sequence": 15,
        "StationID": "9653"
      },
      {
        "Name": "正興里",
        "Lat": 25.010161,
        "Lon": 121.5155,
        "Sequence": 16,
        "StationID": "1000476"
      },
      {
        "Name": "捷運頂溪站",
        "Lat": 25.01258,
        "Lon": 121.515273,
        "Sequence": 17,
        "StationID": "9621"
      },
      {
        "Name": "中正橋頭",
        "Lat": 25.01604284,
        "Lon": 121.5162239,
        "Sequence": 18,
        "StationID": "50809"
      },
      {
        "Name": "重慶南路三段(中正橋)",
        "Lat": 25.0242546637841,
        "Lon": 121.516898839078,
        "Sequence": 19,
        "StationID": "1000325"
      },
      {
        "Name": "寧波重慶路口",
        "Lat": 25.02907366,
        "Lon": 121.5155658,
        "Sequence": 20,
        "StationID": "1000399"
      },
      {
        "Name": "中正二分局",
        "Lat": 25.0326456333347,
        "Lon": 121.514086870192,
        "Sequence": 21,
        "StationID": "1000513"
      },
      {
        "Name": "一女中(重慶)",
        "Lat": 25.037508,
        "Lon": 121.512761,
        "Sequence": 22,
        "StationID": "1000628"
      },
      {
        "Name": "博愛路",
        "Lat": 25.043262,
        "Lon": 121.511555,
        "Sequence": 23,
        "StationID": "2002"
      },
      {
        "Name": "臺北郵局",
        "Lat": 25.04676505924,
        "Lon": 121.51129364418,
        "Sequence": 24,
        "StationID": "1000108"
      },
      {
        "Name": "臺北車站(忠孝)",
        "Lat": 25.0465635496954,
        "Lon": 121.515689438859,
        "Sequence": 25,
        "StationID": "1882"
      },
      {
        "Name": "捷運善導寺站",
        "Lat": 25.044844,
        "Lon": 121.522629,
        "Sequence": 26,
        "StationID": "1997"
      },
      {
        "Name": "華山文創園區",
        "Lat": 25.04393012352479,
        "Lon": 121.52631480425094,
        "Sequence": 27,
        "StationID": "2013"
      },
      {
        "Name": "忠孝國小",
        "Lat": 25.04260323596391,
        "Lon": 121.53133882119596,
        "Sequence": 28,
        "StationID": "1930"
      },
      {
        "Name": "臺北科技大學(忠孝)",
        "Lat": 25.041964538706296,
        "Lon": 121.53420785577566,
        "Sequence": 29,
        "StationID": "1900"
      },
      {
        "Name": "正義郵局",
        "Lat": 25.04151329724535,
        "Lon": 121.53833135465409,
        "Sequence": 30,
        "StationID": "2234"
      },
      {
        "Name": "懷生國中",
        "Lat": 25.041512273166234,
        "Lon": 121.54108205639983,
        "Sequence": 31,
        "StationID": "2350"
      },
      {
        "Name": "頂好市場",
        "Lat": 25.0414709888816,
        "Lon": 121.546380002806,
        "Sequence": 32,
        "StationID": "2325"
      },
      {
        "Name": "捷運忠孝敦化站",
        "Lat": 25.0430127,
        "Lon": 121.549174,
        "Sequence": 33,
        "StationID": "2259"
      },
      {
        "Name": "市民大道口",
        "Lat": 25.04575795,
        "Lon": 121.5491941,
        "Sequence": 34,
        "StationID": "13104"
      },
      {
        "Name": "市立體育場",
        "Lat": 25.048949,
        "Lon": 121.549204,
        "Sequence": 35,
        "StationID": "1510"
      },
      {
        "Name": "臺北小巨蛋",
        "Lat": 25.05258,
        "Lon": 121.54933,
        "Sequence": 36,
        "StationID": "13105"
      },
      {
        "Name": "長庚醫院",
        "Lat": 25.05668072,
        "Lon": 121.5492693,
        "Sequence": 37,
        "StationID": "1544"
      },
      {
        "Name": "公教住宅",
        "Lat": 25.05792823,
        "Lon": 121.5525641,
        "Sequence": 38,
        "StationID": "1495"
      },
      {
        "Name": "介壽國中",
        "Lat": 25.058201423962956,
        "Lon": 121.55569442816517,
        "Sequence": 39,
        "StationID": "1497"
      },
      {
        "Name": "聯合二村",
        "Lat": 25.0585017739443,
        "Lon": 121.559216750962,
        "Sequence": 40,
        "StationID": "1597"
      },
      {
        "Name": "民生社區活動中心",
        "Lat": 25.0586405271738,
        "Lon": 121.560927032747,
        "Sequence": 41,
        "StationID": "1506"
      },
      {
        "Name": "新東街口",
        "Lat": 25.05902066,
        "Lon": 121.5664423,
        "Sequence": 42,
        "StationID": "1588"
      },
      {
        "Name": "塔悠路",
        "Lat": 25.060955,
        "Lon": 121.56886,
        "Sequence": 43,
        "StationID": "1000630"
      },
      {
        "Name": "撫遠抽水站",
        "Lat": 25.06256326016851,
        "Lon": 121.56858398162726,
        "Sequence": 44,
        "StationID": "1000631"
      },
      {
        "Name": "塔悠疏散門",
        "Lat": 25.065092132222503,
        "Lon": 121.56816581358287,
        "Sequence": 45,
        "StationID": "8605"
      }
    ]
  },
  {
    "Route": "262區",
    "SubRoute": "262區狗狗公車",
    "Direction": 1,
    "Stops": [
      {
        "Name": "莊敬里",
        "Lat": 25.065033,
        "Lon": 121.565572,
        "Sequence": 1,
        "StationID": "1000632"
      },
      {
        "Name": "新益里",
        "Lat": 25.062286,
        "Lon": 121.566155,
        "Sequence": 2,
        "StationID": "1503"
      },
      {
        "Name": "民生國中",
        "Lat": 25.05966141,
        "Lon": 121.5679233,
        "Sequence": 3,
        "StationID": "1507"
      },
      {
        "Name": "新東街口",
        "Lat": 25.0591755,
        "Lon": 121.5663295,
        "Sequence": 4,
        "StationID": "60133"
      },
      {
        "Name": "民生社區活動中心",
        "Lat": 25.058808540179,
        "Lon": 121.561144568697,
        "Sequence": 5,
        "StationID": "1000074"
      },
      {
        "Name": "聯合二村",
        "Lat": 25.0586249332513,
        "Lon": 121.558923442523,
        "Sequence": 6,
        "StationID": "1000075"
      },
      {
        "Name": "介壽國中",
        "Lat": 25.058415078013,
        "Lon": 121.556044429017,
        "Sequence": 7,
        "StationID": "10408"
      },
      {
        "Name": "公教住宅",
        "Lat": 25.05813129,
        "Lon": 121.5526273,
        "Sequence": 8,
        "StationID": "10421"
      },
      {
        "Name": "富錦街口",
        "Lat": 25.05971079181516,
        "Lon": 121.55019898812432,
        "Sequence": 9,
        "StationID": "1580"
      },
      {
        "Name": "松山機場",
        "Lat": 25.063277,
        "Lon": 121.55196,
        "Sequence": 10,
        "StationID": "1536"
      },
      {
        "Name": "民生敦化路口",
        "Lat": 25.057956,
        "Lon": 121.548902,
        "Sequence": 11,
        "StationID": "13106"
      },
      {
        "Name": "長春敦化路口",
        "Lat": 25.05458,
        "Lon": 121.54883,
        "Sequence": 12,
        "StationID": "1298"
      },
      {
        "Name": "臺北小巨蛋",
        "Lat": 25.052139,
        "Lon": 121.548768,
        "Sequence": 13,
        "StationID": "13107"
      },
      {
        "Name": "八德敦化路口",
        "Lat": 25.04864,
        "Lon": 121.54874,
        "Sequence": 14,
        "StationID": "1488"
      },
      {
        "Name": "市民敦化路口",
        "Lat": 25.04527113,
        "Lon": 121.548797,
        "Sequence": 15,
        "StationID": "13109"
      },
      {
        "Name": "頂好市場",
        "Lat": 25.0416948578606,
        "Lon": 121.546693508012,
        "Sequence": 16,
        "StationID": "3932"
      },
      {
        "Name": "捷運忠孝復興站",
        "Lat": 25.04177,
        "Lon": 121.542636,
        "Sequence": 17,
        "StationID": "3933"
      },
      {
        "Name": "正義郵局",
        "Lat": 25.041847778405945,
        "Lon": 121.53921450721282,
        "Sequence": 18,
        "StationID": "3934"
      },
      {
        "Name": "臺北科技大學(忠孝)",
        "Lat": 25.04222,
        "Lon": 121.53457,
        "Sequence": 19,
        "StationID": "2228"
      },
      {
        "Name": "忠孝國小",
        "Lat": 25.04289823,
        "Lon": 121.5311997,
        "Sequence": 20,
        "StationID": "3935"
      },
      {
        "Name": "華山文創園區",
        "Lat": 25.043941210409297,
        "Lon": 121.52749815701229,
        "Sequence": 21,
        "StationID": "2015"
      },
      {
        "Name": "捷運善導寺站",
        "Lat": 25.045112057683003,
        "Lon": 121.52277975890082,
        "Sequence": 22,
        "StationID": "1998"
      },
      {
        "Name": "臺北車站(忠孝)",
        "Lat": 25.0465408,
        "Lon": 121.5167218,
        "Sequence": 23,
        "StationID": "1000082"
      },
      {
        "Name": "中華路北站",
        "Lat": 25.0455115050969,
        "Lon": 121.509144127644,
        "Sequence": 24,
        "StationID": "1000078"
      },
      {
        "Name": "捷運西門站",
        "Lat": 25.0425165606871,
        "Lon": 121.508266771006,
        "Sequence": 25,
        "StationID": "1000079"
      },
      {
        "Name": "小南門(和平院區)",
        "Lat": 25.03630737,
        "Lon": 121.5085509,
        "Sequence": 26,
        "StationID": "1853"
      },
      {
        "Name": "捷運小南門站",
        "Lat": 25.035137,
        "Lon": 121.511946,
        "Sequence": 27,
        "StationID": "1976"
      },
      {
        "Name": "中正二分局",
        "Lat": 25.03238167,
        "Lon": 121.5138969,
        "Sequence": 28,
        "StationID": "1858"
      },
      {
        "Name": "寧波重慶路口",
        "Lat": 25.02888681,
        "Lon": 121.5153917,
        "Sequence": 29,
        "StationID": "2009"
      },
      {
        "Name": "重慶南路三段(中正橋)",
        "Lat": 25.024804,
        "Lon": 121.516528,
        "Sequence": 30,
        "StationID": "1920"
      },
      {
        "Name": "捷運頂溪站",
        "Lat": 25.013998,
        "Lon": 121.515471,
        "Sequence": 31,
        "StationID": "4022"
      },
      {
        "Name": "中興街口",
        "Lat": 25.0115956,
        "Lon": 121.5147464,
        "Sequence": 32,
        "StationID": "3002"
      },
      {
        "Name": "豫溪街口(中正路)",
        "Lat": 25.010002,
        "Lon": 121.515573,
        "Sequence": 33,
        "StationID": "3018"
      },
      {
        "Name": "大新街",
        "Lat": 25.00843234,
        "Lon": 121.5167282,
        "Sequence": 34,
        "StationID": "2992"
      },
      {
        "Name": "福和里",
        "Lat": 25.006393,
        "Lon": 121.516986,
        "Sequence": 35,
        "StationID": "1165608705"
      },
      {
        "Name": "永和國小",
        "Lat": 25.00304399,
        "Lon": 121.5172544,
        "Sequence": 36,
        "StationID": "3012"
      },
      {
        "Name": "得和路口",
        "Lat": 25.000946,
        "Lon": 121.517563,
        "Sequence": 37,
        "StationID": "3029"
      },
      {
        "Name": "中興新村",
        "Lat": 24.99862597,
        "Lon": 121.5165323,
        "Sequence": 38,
        "StationID": "3003"
      },
      {
        "Name": "中興二村",
        "Lat": 24.9970684513473,
        "Lon": 121.515268767725,
        "Sequence": 39,
        "StationID": "9655"
      },
      {
        "Name": "智光商職",
        "Lat": 24.99403299,
        "Lon": 121.5125768,
        "Sequence": 40,
        "StationID": "3037"
      },
      {
        "Name": "南勢角(景平路)",
        "Lat": 24.99291,
        "Lon": 121.51133,
        "Sequence": 41,
        "StationID": "1165605328"
      },
      {
        "Name": "中和教會",
        "Lat": 24.993096,
        "Lon": 121.509353,
        "Sequence": 42,
        "StationID": "3074"
      },
      {
        "Name": "捷運景安站(景平路)",
        "Lat": 24.99367,
        "Lon": 121.50421,
        "Sequence": 43,
        "StationID": "50833"
      },
      {
        "Name": "南華路口",
        "Lat": 24.99516898447116,
        "Lon": 121.50208667210215,
        "Sequence": 44,
        "StationID": "50840"
      },
      {
        "Name": "中和區公所(景平路)",
        "Lat": 24.99880695334873,
        "Lon": 121.49960332023917,
        "Sequence": 45,
        "StationID": "1000334"
      },
      {
        "Name": "連城路口",
        "Lat": 25.00047553316187,
        "Lon": 121.49772766396961,
        "Sequence": 46,
        "StationID": "50817"
      },
      {
        "Name": "捷運中和站(中山路)",
        "Lat": 25.002436,
        "Lon": 121.496157,
        "Sequence": 47,
        "StationID": "3154"
      },
      {
        "Name": "家美工業區",
        "Lat": 25.00229,
        "Lon": 121.493465,
        "Sequence": 48,
        "StationID": "10049"
      },
      {
        "Name": "中和保養廠",
        "Lat": 25.003079,
        "Lon": 121.491807,
        "Sequence": 49,
        "StationID": "3065"
      }
    ]
  },
  {
    "Route": "262區",
    "SubRoute": "262區去程半",
    "Direction": 0,
    "Stops": [
      {
        "Name": "中和保養廠",
        "Lat": 25.002543,
        "Lon": 121.492374,
        "Sequence": 1,
        "StationID": "3066"
      },
      {
        "Name": "家美工業區",
        "Lat": 25.002028,
        "Lon": 121.493912,
        "Sequence": 2,
        "StationID": "3133"
      },
      {
        "Name": "捷運中和站(中山路)",
        "Lat": 25.002211,
        "Lon": 121.495441,
        "Sequence": 3,
        "StationID": "72478"
      },
      {
        "Name": "連城路口",
        "Lat": 25.00030984,
        "Lon": 121.4976874,
        "Sequence": 4,
        "StationID": "3136"
      },
      {
        "Name": "中和區公所(景平路)",
        "Lat": 24.998331595875737,
        "Lon": 121.4996731019886,
        "Sequence": 5,
        "StationID": "1000705"
      },
      {
        "Name": "南華路口",
        "Lat": 24.995456001390632,
        "Lon": 121.50137333996481,
        "Sequence": 6,
        "StationID": "3114"
      },
      {
        "Name": "捷運景安站(景平路)",
        "Lat": 24.993354,
        "Lon": 121.504297,
        "Sequence": 7,
        "StationID": "3130"
      },
      {
        "Name": "中和教會",
        "Lat": 24.992776,
        "Lon": 121.509186,
        "Sequence": 8,
        "StationID": "50844"
      },
      {
        "Name": "智光商職",
        "Lat": 24.994533,
        "Lon": 121.513228,
        "Sequence": 9,
        "StationID": "72406"
      },
      {
        "Name": "中興二村",
        "Lat": 24.9964243335687,
        "Lon": 121.514859678286,
        "Sequence": 10,
        "StationID": "3001"
      },
      {
        "Name": "中興新村",
        "Lat": 24.9983765816712,
        "Lon": 121.516565619533,
        "Sequence": 11,
        "StationID": "9646"
      },
      {
        "Name": "得和路口",
        "Lat": 25.00054939,
        "Lon": 121.5177138,
        "Sequence": 12,
        "StationID": "3028"
      },
      {
        "Name": "永和國小",
        "Lat": 25.0024569,
        "Lon": 121.5175452,
        "Sequence": 13,
        "StationID": "3013"
      },
      {
        "Name": "福和里",
        "Lat": 25.006519,
        "Lon": 121.517121,
        "Sequence": 14,
        "StationID": "9652"
      },
      {
        "Name": "大新街",
        "Lat": 25.008459,
        "Lon": 121.51691,
        "Sequence": 15,
        "StationID": "9653"
      },
      {
        "Name": "正興里",
        "Lat": 25.010161,
        "Lon": 121.5155,
        "Sequence": 16,
        "StationID": "1000476"
      },
      {
        "Name": "捷運頂溪站",
        "Lat": 25.01258,
        "Lon": 121.515273,
        "Sequence": 17,
        "StationID": "9621"
      },
      {
        "Name": "中正橋頭",
        "Lat": 25.01604284,
        "Lon": 121.5162239,
        "Sequence": 18,
        "StationID": "50809"
      },
      {
        "Name": "重慶南路三段(中正橋)",
        "Lat": 25.0242546637841,
        "Lon": 121.516898839078,
        "Sequence": 19,
        "StationID": "1000325"
      },
      {
        "Name": "寧波重慶路口",
        "Lat": 25.02907366,
        "Lon": 121.5155658,
        "Sequence": 20,
        "StationID": "1000399"
      },
      {
        "Name": "中正二分局",
        "Lat": 25.0326456333347,
        "Lon": 121.514086870192,
        "Sequence": 21,
        "StationID": "1000513"
      },
      {
        "Name": "一女中(重慶)",
        "Lat": 25.037508,
        "Lon": 121.512761,
        "Sequence": 22,
        "StationID": "1000628"
      },
      {
        "Name": "博愛路",
        "Lat": 25.043262,
        "Lon": 121.511555,
        "Sequence": 23,
        "StationID": "2002"
      },
      {
        "Name": "臺北郵局",
        "Lat": 25.04676505924,
        "Lon": 121.51129364418,
        "Sequence": 24,
        "StationID": "1000108"
      },
      {
        "Name": "臺北車站(忠孝)",
        "Lat": 25.0465635496954,
        "Lon": 121.515689438859,
        "Sequence": 25,
        "StationID": "1882"
      },
      {
        "Name": "捷運善導寺站",
        "Lat": 25.044844,
        "Lon": 121.522629,
        "Sequence": 26,
        "StationID": "1997"
      },
      {
        "Name": "華山文創園區",
        "Lat": 25.04393012352479,
        "Lon": 121.52631480425094,
        "Sequence": 27,
        "StationID": "2013"
      },
      {
        "Name": "忠孝國小",
        "Lat": 25.04260323596391,
        "Lon": 121.53133882119596,
        "Sequence": 28,
        "StationID": "1930"
      },
      {
        "Name": "臺北科技大學(忠孝)",
        "Lat": 25.041964538706296,
        "Lon": 121.53420785577566,
        "Sequence": 29,
        "StationID": "1900"
      },
      {
        "Name": "正義郵局",
        "Lat": 25.04151329724535,
        "Lon": 121.53833135465409,
        "Sequence": 30,
        "StationID": "2234"
      },
      {
        "Name": "懷生國中",
        "Lat": 25.041512273166234,
        "Lon": 121.54108205639983,
        "Sequence": 31,
        "StationID": "2350"
      },
      {
        "Name": "頂好市場",
        "Lat": 25.0414709888816,
        "Lon": 121.546380002806,
        "Sequence": 32,
        "StationID": "2325"
      },
      {
        "Name": "捷運忠孝敦化站",
        "Lat": 25.0430127,
        "Lon": 121.549174,
        "Sequence": 33,
        "StationID": "2259"
      },
      {
        "Name": "市民大道口",
        "Lat": 25.04575795,
        "Lon": 121.5491941,
        "Sequence": 34,
        "StationID": "13104"
      },
      {
        "Name": "市立體育場",
        "Lat": 25.048949,
        "Lon": 121.549204,
        "Sequence": 35,
        "StationID": "1510"
      },
      {
        "Name": "臺北小巨蛋",
        "Lat": 25.05258,
        "Lon": 121.54933,
        "Sequence": 36,
        "StationID": "13105"
      },
      {
        "Name": "長庚醫院",
        "Lat": 25.05668072,
        "Lon": 121.5492693,
        "Sequence": 37,
        "StationID": "1544"
      },
      {
        "Name": "公教住宅",
        "Lat": 25.05792823,
        "Lon": 121.5525641,
        "Sequence": 38,
        "StationID": "1495"
      },
      {
        "Name": "介壽國中",
        "Lat": 25.058201423962956,
        "Lon": 121.55569442816517,
        "Sequence": 39,
        "StationID": "1497"
      },
      {
        "Name": "聯合二村",
        "Lat": 25.0585017739443,
        "Lon": 121.559216750962,
        "Sequence": 40,
        "StationID": "1597"
      },
      {
        "Name": "民生社區活動中心",
        "Lat": 25.0586405271738,
        "Lon": 121.560927032747,
        "Sequence": 41,
        "StationID": "1506"
      },
      {
        "Name": "新東街口",
        "Lat": 25.05902066,
        "Lon": 121.5664423,
        "Sequence": 42,
        "StationID": "1588"
      },
      {
        "Name": "塔悠路",
        "Lat": 25.060955,
        "Lon": 121.56886,
        "Sequence": 43,
        "StationID": "1000630"
      },
      {
        "Name": "撫遠抽水站",
        "Lat": 25.06256326016851,
        "Lon": 121.56858398162726,
        "Sequence": 44,
        "StationID": "1000631"
      },
      {
        "Name": "塔悠疏散門",
        "Lat": 25.065092132222503,
        "Lon": 121.56816581358287,
        "Sequence": 45,
        "StationID": "8605"
      }
    ]
  },
  {
    "Route": "262區",
    "SubRoute": "262區返程半",
    "Direction": 1,
    "Stops": [
      {
        "Name": "莊敬里",
        "Lat": 25.065033,
        "Lon": 121.565572,
        "Sequence": 1,
        "StationID": "1000632"
      },
      {
        "Name": "新益里",
        "Lat": 25.062286,
        "Lon": 121.566155,
        "Sequence": 2,
        "StationID": "1503"
      },
      {
        "Name": "民生國中",
        "Lat": 25.05966141,
        "Lon": 121.5679233,
        "Sequence": 3,
        "StationID": "1507"
      },
      {
        "Name": "新東街口",
        "Lat": 25.0591755,
        "Lon": 121.5663295,
        "Sequence": 4,
        "StationID": "60133"
      },
      {
        "Name": "民生社區活動中心",
        "Lat": 25.058808540179,
        "Lon": 121.561144568697,
        "Sequence": 5,
        "StationID": "1000074"
      },
      {
        "Name": "聯合二村",
        "Lat": 25.0586249332513,
        "Lon": 121.558923442523,
        "Sequence": 6,
        "StationID": "1000075"
      },
      {
        "Name": "介壽國中",
        "Lat": 25.058415078013,
        "Lon": 121.556044429017,
        "Sequence": 7,
        "StationID": "10408"
      },
      {
        "Name": "公教住宅",
        "Lat": 25.05813129,
        "Lon": 121.5526273,
        "Sequence": 8,
        "StationID": "10421"
      },
      {
        "Name": "富錦街口",
        "Lat": 25.05971079181516,
        "Lon": 121.55019898812432,
        "Sequence": 9,
        "StationID": "1580"
      },
      {
        "Name": "松山機場",
        "Lat": 25.063277,
        "Lon": 121.55196,
        "Sequence": 10,
        "StationID": "1536"
      },
      {
        "Name": "民生敦化路口",
        "Lat": 25.057956,
        "Lon": 121.548902,
        "Sequence": 11,
        "StationID": "13106"
      },
      {
        "Name": "長春敦化路口",
        "Lat": 25.05458,
        "Lon": 121.54883,
        "Sequence": 12,
        "StationID": "1298"
      },
      {
        "Name": "臺北小巨蛋",
        "Lat": 25.052139,
        "Lon": 121.548768,
        "Sequence": 13,
        "StationID": "13107"
      },
      {
        "Name": "八德敦化路口",
        "Lat": 25.04864,
        "Lon": 121.54874,
        "Sequence": 14,
        "StationID": "1488"
      },
      {
        "Name": "市民敦化路口",
        "Lat": 25.04527113,
        "Lon": 121.548797,
        "Sequence": 15,
        "StationID": "13109"
      },
      {
        "Name": "頂好市場",
        "Lat": 25.0416948578606,
        "Lon": 121.546693508012,
        "Sequence": 16,
        "StationID": "3932"
      },
      {
        "Name": "捷運忠孝復興站",
        "Lat": 25.04177,
        "Lon": 121.542636,
        "Sequence": 17,
        "StationID": "3933"
      },
      {
        "Name": "正義郵局",
        "Lat": 25.041847778405945,
        "Lon": 121.53921450721282,
        "Sequence": 18,
        "StationID": "3934"
      },
      {
        "Name": "臺北科技大學(忠孝)",
        "Lat": 25.04222,
        "Lon": 121.53457,
        "Sequence": 19,
        "StationID": "2228"
      },
      {
        "Name": "忠孝國小",
        "Lat": 25.04289823,
        "Lon": 121.5311997,
        "Sequence": 20,
        "StationID": "3935"
      },
      {
        "Name": "華山文創園區",
        "Lat": 25.043941210409297,
        "Lon": 121.52749815701229,
        "Sequence": 21,
        "StationID": "2015"
      },
      {
        "Name": "捷運善導寺站",
        "Lat": 25.045112057683003,
        "Lon": 121.52277975890082,
        "Sequence": 22,
        "StationID": "1998"
      },
      {
        "Name": "臺北車站(忠孝)",
        "Lat": 25.0465408,
        "Lon": 121.5167218,
        "Sequence": 23,
        "StationID": "1000082"
      },
      {
        "Name": "中華路北站",
        "Lat": 25.0455115050969,
        "Lon": 121.509144127644,
        "Sequence": 24,
        "StationID": "1000078"
      },
      {
        "Name": "捷運西門站",
        "Lat": 25.0425165606871,
        "Lon": 121.508266771006,
        "Sequence": 25,
        "StationID": "1000079"
      },
      {
        "Name": "小南門(和平院區)",
        "Lat": 25.03630737,
        "Lon": 121.5085509,
        "Sequence": 26,
        "StationID": "1853"
      },
      {
        "Name": "捷運小南門站",
        "Lat": 25.035137,
        "Lon": 121.511946,
        "Sequence": 27,
        "StationID": "1976"
      },
      {
        "Name": "中正二分局",
        "Lat": 25.03238167,
        "Lon": 121.5138969,
        "Sequence": 28,
        "StationID": "1858"
      },
      {
        "Name": "寧波重慶路口",
        "Lat": 25.02888681,
        "Lon": 121.5153917,
        "Sequence": 29,
        "StationID": "2009"
      },
      {
        "Name": "重慶南路三段(中正橋)",
        "Lat": 25.024804,
        "Lon": 121.516528,
        "Sequence": 30,
        "StationID": "1920"
      },
      {
        "Name": "捷運頂溪站",
        "Lat": 25.013998,
        "Lon": 121.515471,
        "Sequence": 31,
        "StationID": "4022"
      },
      {
        "Name": "中興街口",
        "Lat": 25.0115956,
        "Lon": 121.5147464,
        "Sequence": 32,
        "StationID": "3002"
      },
      {
        "Name": "豫溪街口(中正路)",
        "Lat": 25.010002,
        "Lon": 121.515573,
        "Sequence": 33,
        "StationID": "3018"
      },
      {
        "Name": "大新街",
        "Lat": 25.00843234,
        "Lon": 121.5167282,
        "Sequence": 34,
        "StationID": "2992"
      },
      {
        "Name": "福和里",
        "Lat": 25.006393,
        "Lon": 121.516986,
        "Sequence": 35,
        "StationID": "1165608705"
      },
      {
        "Name": "永和國小",
        "Lat": 25.00304399,
        "Lon": 121.5172544,
        "Sequence": 36,
        "StationID": "3012"
      },
      {
        "Name": "得和路口",
        "Lat": 25.000946,
        "Lon": 121.517563,
        "Sequence": 37,
        "StationID": "3029"
      },
      {
        "Name": "中興新村",
        "Lat": 24.99862597,
        "Lon": 121.5165323,
        "Sequence": 38,
        "StationID": "3003"
      },
      {
        "Name": "中興二村",
        "Lat": 24.9970684513473,
        "Lon": 121.515268767725,
        "Sequence": 39,
        "StationID": "9655"
      },
      {
        "Name": "智光商職",
        "Lat": 24.99403299,
        "Lon": 121.5125768,
        "Sequence": 40,
        "StationID": "3037"
      },
      {
        "Name": "南勢角(景平路)",
        "Lat": 24.99291,
        "Lon": 121.51133,
        "Sequence": 41,
        "StationID": "1165605328"
      },
      {
        "Name": "中和教會",
        "Lat": 24.993096,
        "Lon": 121.509353,
        "Sequence": 42,
        "StationID": "3074"
      },
      {
        "Name": "捷運景安站(景平路)",
        "Lat": 24.99367,
        "Lon": 121.50421,
        "Sequence": 43,
        "StationID": "50833"
      },
      {
        "Name": "南華路口",
        "Lat": 24.99516898447116,
        "Lon": 121.50208667210215,
        "Sequence": 44,
        "StationID": "50840"
      },
      {
        "Name": "中和區公所(景平路)",
        "Lat": 24.99880695334873,
        "Lon": 121.49960332023917,
        "Sequence": 45,
        "StationID": "1000334"
      },
      {
        "Name": "連城路口",
        "Lat": 25.00047553316187,
        "Lon": 121.49772766396961,
        "Sequence": 46,
        "StationID": "50817"
      },
      {
        "Name": "捷運中和站(中山路)",
        "Lat": 25.002436,
        "Lon": 121.496157,
        "Sequence": 47,
        "StationID": "3154"
      },
      {
        "Name": "家美工業區",
        "Lat": 25.00229,
        "Lon": 121.493465,
        "Sequence": 48,
        "StationID": "10049"
      },
      {
        "Name": "中和保養廠",
        "Lat": 25.003079,
        "Lon": 121.491807,
        "Sequence": 49,
        "StationID": "3065"
      }
    ]
  }
]