[
  {
    "Route": "530",
    "SubRoute": "530",
    "Direction": 0,
    "Stops": [
      {
        "Name": "指南宮",
        "Lat": 24.9812125534647,
        "Lon": 121.585437474256,
        "Sequence": 1,
        "StationID": "1000851"
      },
      {
        "Name": "猴山坑",
        "Lat": 24.98280334,
        "Lon": 121.5894172,
        "Sequence": 2,
        "StationID": "57713"
      },
      {
        "Name": "政大御花園",
        "Lat": 24.98599992,
        "Lon": 121.5873303,
        "Sequence": 3,
        "StationID": "50679"
      },
      {
        "Name": "棲霞山莊",
        "Lat": 24.9871695314337,
        "Lon": 121.587942169381,
        "Sequence": 4,
        "StationID": "50678"
      },
      {
        "Name": "綠野山莊",
        "Lat": 24.9881804824337,
        "Lon": 121.587632890382,
        "Sequence": 5,
        "StationID": "50677"
      },
      {
        "Name": "政大清境社區",
        "Lat": 24.98959656,
        "Lon": 121.5872624,
        "Sequence": 6,
        "StationID": "50676"
      },
      {
        "Name": "國關中心",
        "Lat": 24.98929,
        "Lon": 121.58023,
        "Sequence": 7,
        "StationID": "50675"
      },
      {
        "Name": "指南山莊",
        "Lat": 24.98905,
        "Lon": 121.57849,
        "Sequence": 8,
        "StationID": "2421"
      },
      {
        "Name": "政大一",
        "Lat": 24.98782160454249,
        "Lon": 121.57604615193513,
        "Sequence": 9,
        "StationID": "1001409"
      },
      {
        "Name": "新光路口",
        "Lat": 24.9880845060964,
        "Lon": 121.573881732316,
        "Sequence": 10,
        "StationID": "1000854"
      },
      {
        "Name": "指南路",
        "Lat": 24.987746922127,
        "Lon": 121.56997997801,
        "Sequence": 11,
        "StationID": "1000855"
      },
      {
        "Name": "木柵市場",
        "Lat": 24.98794462737213,
        "Lon": 121.5686729036256,
        "Sequence": 12,
        "StationID": "2384"
      },
      {
        "Name": "木柵",
        "Lat": 24.9885790493873,
        "Lon": 121.566361887311,
        "Sequence": 13,
        "StationID": "56107"
      },
      {
        "Name": "文山一分局",
        "Lat": 24.989024145656842,
        "Lon": 121.56247819644113,
        "Sequence": 14,
        "StationID": "56106"
      },
      {
        "Name": "馬明潭(再興中學)",
        "Lat": 24.989363359859,
        "Lon": 121.559942504895,
        "Sequence": 15,
        "StationID": "1000443"
      },
      {
        "Name": "興隆山莊",
        "Lat": 24.990768,
        "Lon": 121.55919,
        "Sequence": 16,
        "StationID": "1000444"
      },
      {
        "Name": "海巡署一",
        "Lat": 24.99243758851507,
        "Lon": 121.55883687781873,
        "Sequence": 17,
        "StationID": "392"
      },
      {
        "Name": "海巡署",
        "Lat": 24.99385696,
        "Lon": 121.5594086,
        "Sequence": 18,
        "StationID": "2452"
      },
      {
        "Name": "文山運動中心(興隆)",
        "Lat": 24.996452582031367,
        "Lon": 121.56012261539274,
        "Sequence": 19,
        "StationID": "4712"
      },
      {
        "Name": "臺灣警察專科學校",
        "Lat": 24.9977449509898,
        "Lon": 121.55947313859588,
        "Sequence": 20,
        "StationID": "1000764"
      },
      {
        "Name": "捷運萬芳醫院站",
        "Lat": 24.999259,
        "Lon": 121.557829,
        "Sequence": 21,
        "StationID": "2449"
      },
      {
        "Name": "中國科技大學(興隆)",
        "Lat": 25.0004051038435,
        "Lon": 121.555797991874,
        "Sequence": 22,
        "StationID": "2375"
      },
      {
        "Name": "興隆國小",
        "Lat": 25.001459963615,
        "Lon": 121.553039816886,
        "Sequence": 23,
        "StationID": "1000035"
      },
      {
        "Name": "興德國小",
        "Lat": 25.0009828977016,
        "Lon": 121.550073640107,
        "Sequence": 24,
        "StationID": "1000858"
      },
      {
        "Name": "興隆市場",
        "Lat": 24.9995842974218,
        "Lon": 121.547448469573,
        "Sequence": 25,
        "StationID": "1000037"
      },
      {
        "Name": "靜心高中",
        "Lat": 24.998953,
        "Lon": 121.545835,
        "Sequence": 26,
        "StationID": "20244"
      },
      {
        "Name": "憲光公寓",
        "Lat": 24.999719170953,
        "Lon": 121.54393655953,
        "Sequence": 27,
        "StationID": "2533"
      },
      {
        "Name": "景明街口",
        "Lat": 25.0015098013863,
        "Lon": 121.542530095186,
        "Sequence": 28,
        "StationID": "2457"
      },
      {
        "Name": "武功國小(興隆)",
        "Lat": 25.0042661031504,
        "Lon": 121.539995594657,
        "Sequence": 29,
        "StationID": "3980"
      },
      {
        "Name": "師大分部",
        "Lat": 25.0076706783786,
        "Lon": 121.538470307254,
        "Sequence": 30,
        "StationID": "1000036"
      },
      {
        "Name": "捷運公館站",
        "Lat": 25.013993,
        "Lon": 121.535185,
        "Sequence": 31,
        "StationID": "1990"
      },
      {
        "Name": "台電大樓",
        "Lat": 25.018104,
        "Lon": 121.531094,
        "Sequence": 32,
        "StationID": "1165603299"
      },
      {
        "Name": "溫州街口",
        "Lat": 25.021872,
        "Lon": 121.532327,
        "Sequence": 33,
        "StationID": "2336"
      },
      {
        "Name": "臺大綜合體育館",
        "Lat": 25.0215502113013,
        "Lon": 121.534113646475,
        "Sequence": 34,
        "StationID": "2199"
      },
      {
        "Name": "臺大",
        "Lat": 25.018246284477,
        "Lon": 121.533425339383,
        "Sequence": 35,
        "StationID": "2224"
      }
    ]
  },
  {
    "Route": "530",
    "SubRoute": "530",
    "Direction": 1,
    "Stops": [
      {
        "Name": "捷運公館站",
        "Lat": 25.014321,
        "Lon": 121.534722,
        "Sequence": 1,
        "StationID": "1991"
      },
      {
        "Name": "師大分部",
        "Lat": 25.0081406778406,
        "Lon": 121.538064047069,
        "Sequence": 2,
        "StationID": "2430"
      },
      {
        "Name": "武功國小(興隆)",
        "Lat": 25.004134202331223,
        "Lon": 121.53985642693925,
        "Sequence": 3,
        "StationID": "2413"
      },
      {
        "Name": "景明街口",
        "Lat": 25.0014489083498,
        "Lon": 121.542377053436,
        "Sequence": 4,
        "StationID": "2458"
      },
      {
        "Name": "憲光公寓",
        "Lat": 24.9994337628866,
        "Lon": 121.54389161859,
        "Sequence": 5,
        "StationID": "1000232"
      },
      {
        "Name": "靜心高中",
        "Lat": 24.998797,
        "Lon": 121.545859,
        "Sequence": 6,
        "StationID": "2546"
      },
      {
        "Name": "興隆市場",
        "Lat": 24.9996328919305,
        "Lon": 121.547902045529,
        "Sequence": 7,
        "StationID": "2536"
      },
      {
        "Name": "興德國小",
        "Lat": 25.0009702685655,
        "Lon": 121.550307886322,
        "Sequence": 8,
        "StationID": "2542"
      },
      {
        "Name": "興隆國小",
        "Lat": 25.0012218102124,
        "Lon": 121.553328388246,
        "Sequence": 9,
        "StationID": "2538"
      },
      {
        "Name": "捷運萬芳醫院站",
        "Lat": 24.999571,
        "Lon": 121.556845,
        "Sequence": 10,
        "StationID": "1000769"
      },
      {
        "Name": "臺灣警察專科學校",
        "Lat": 24.9982684874929,
        "Lon": 121.558494894192,
        "Sequence": 11,
        "StationID": "1000770"
      },
      {
        "Name": "文山運動中心(興隆)",
        "Lat": 24.996224651489683,
        "Lon": 121.55988996370712,
        "Sequence": 12,
        "StationID": "3782"
      },
      {
        "Name": "海巡署",
        "Lat": 24.994721428997224,
        "Lon": 121.55947687971212,
        "Sequence": 13,
        "StationID": "2431"
      },
      {
        "Name": "海巡署一",
        "Lat": 24.993046,
        "Lon": 121.558778,
        "Sequence": 14,
        "StationID": "2451"
      },
      {
        "Name": "興隆山莊",
        "Lat": 24.9913869,
        "Lon": 121.5586916,
        "Sequence": 15,
        "StationID": "2535"
      },
      {
        "Name": "馬明潭(再興中學)",
        "Lat": 24.98937794,
        "Lon": 121.5597219,
        "Sequence": 16,
        "StationID": "2434"
      },
      {
        "Name": "文山一分局",
        "Lat": 24.98887,
        "Lon": 121.56251,
        "Sequence": 17,
        "StationID": "2378"
      },
      {
        "Name": "木柵",
        "Lat": 24.9885,
        "Lon": 121.56657,
        "Sequence": 18,
        "StationID": "1000439"
      },
      {
        "Name": "木柵市場",
        "Lat": 24.98849886,
        "Lon": 121.5685523,
        "Sequence": 19,
        "StationID": "50682"
      },
      {
        "Name": "永安街",
        "Lat": 24.98672,
        "Lon": 121.56893,
        "Sequence": 20,
        "StationID": "142"
      },
      {
        "Name": "指南路口",
        "Lat": 24.9871941238226,
        "Lon": 121.570722800802,
        "Sequence": 21,
        "StationID": "2426"
      },
      {
        "Name": "政大",
        "Lat": 24.9878362086283,
        "Lon": 121.574633255625,
        "Sequence": 22,
        "StationID": "2415"
      },
      {
        "Name": "政大一",
        "Lat": 24.988319,
        "Lon": 121.576427,
        "Sequence": 23,
        "StationID": "1001400"
      },
      {
        "Name": "指南山莊",
        "Lat": 24.9889796040779,
        "Lon": 121.578601086333,
        "Sequence": 24,
        "StationID": "50674"
      },
      {
        "Name": "國關中心",
        "Lat": 24.98914141,
        "Lon": 121.5804463,
        "Sequence": 25,
        "StationID": "2438"
      },
      {
        "Name": "貓纜動物園南站",
        "Lat": 24.989841,
        "Lon": 121.586251,
        "Sequence": 26,
        "StationID": "4030"
      },
      {
        "Name": "政大清境社區",
        "Lat": 24.98948011,
        "Lon": 121.5874366,
        "Sequence": 27,
        "StationID": "2504"
      },
      {
        "Name": "綠野山莊",
        "Lat": 24.98829565,
        "Lon": 121.58742,
        "Sequence": 28,
        "StationID": "2526"
      },
      {
        "Name": "棲霞山莊",
        "Lat": 24.98715168,
        "Lon": 121.5876992,
        "Sequence": 29,
        "StationID": "2472"
      },
      {
        "Name": "政大御花園",
        "Lat": 24.98565649,
        "Lon": 121.5872664,
        "Sequence": 30,
        "StationID": "2420"
      },
      {
        "Name": "猴山坑",
        "Lat": 24.98294,
        "Lon": 121.58903,
        "Sequence": 31,
        "StationID": "2476"
      },
      {
        "Name": "指南宮",
        "Lat": 24.9812125534647,
        "Lon": 121.585437474256,
        "Sequence": 32,
        "StationID": "1000851"
      }
    ]
  },
  {
    "Route": "530",
    "SubRoute": "530返程半",
    "Direction": 1,
    "Stops": [
      {
        "Name": "捷運公館站",
        "Lat": 25.014321,
        "Lon": 121.534722,
        "Sequence": 1,
        "StationID": "1991"
      },
      {
        "Name": "師大分部",
        "Lat": 25.0081406778406,
        "Lon": 121.538064047069,
        "Sequence": 2,
        "StationID": "2430"
      },
      {
        "Name": "武功國小(興隆)",
        "Lat": 25.004134202331223,
        "Lon": 121.53985642693925,
        "Sequence": 3,
        "StationID": "2413"
      },
      {
        "Name": "景明街口",
        "Lat": 25.0014489083498,
        "Lon": 121.542377053436,
        "Sequence": 4,
        "StationID": "2458"
      },
      {
        "Name": "憲光公寓",
        "Lat": 24.9994337628866,
        "Lon": 121.54389161859,
        "Sequence": 5,
        "StationID": "1000232"
      },
      {
        "Name": "靜心高中",
        "Lat": 24.998797,
        "Lon": 121.545859,
        "Sequence": 6,
        "StationID": "2546"
      },
      {
        "Name": "興隆市場",
        "Lat": 24.9996328919305,
        "Lon": 121.547902045529,
        "Sequence": 7,
        "StationID": "2536"
      },
      {
        "Name": "興德國小",
        "Lat": 25.0009702685655,
        "Lon": 121.550307886322,
        "Sequence": 8,
        "StationID": "2542"
      },
      {
        "Name": "興隆國小",
        "Lat": 25.0012218102124,
        "Lon": 121.553328388246,
        "Sequence": 9,
        "StationID": "2538"
      },
      {
        "Name": "捷運萬芳醫院站",
        "Lat": 24.999571,
        "Lon": 121.556845,
        "Sequence": 10,
        "StationID": "1000769"
      },
      {
        "Name": "臺灣警察專科學校",
        "Lat": 24.9982684874929,
        "Lon": 121.558494894192,
        "Sequence": 11,
        "StationID": "1000770"
      },
      {
        "Name": "文山運動中心(興隆)",
        "Lat": 24.996224651489683,
        "Lon": 121.55988996370712,
        "Sequence": 12,
        "StationID": "3782"
      },
      {
        "Name": "海巡署",
        "Lat": 24.994721428997224,
        "Lon": 121.55947687971212,
        "Sequence": 13,
        "StationID": "2431"
      },
      {
        "Name": "海巡署一",
        "Lat": 24.993046,
        "Lon": 121.558778,
        "Sequence": 14,
        "StationID": "2451"
      },
      {
        "Name": "興隆山莊",
        "Lat": 24.9913869,
        "Lon": 121.5586916,
        "Sequence": 15,
        "StationID": "2535"
      },
      {
        "Name": "馬明潭(再興中學)",
        "Lat": 24.98937794,
        "Lon": 121.5597219,
        "Sequence": 16,
        "StationID": "2434"
      },
      {
        "Name": "文山一分局",
        "Lat": 24.98887,
        "Lon": 121.56251,
        "Sequence": 17,
        "StationID": "2378"
      },
      {
        "Name": "木柵",
        "Lat": 24.9885,
        "Lon": 121.56657,
        "Sequence": 18,
        "StationID": "1000439"
      },
      {
        "Name": "木柵市場",
        "Lat": 24.98849886,
        "Lon": 121.5685523,
        "Sequence": 19,
        "StationID": "50682"
      },
      {
        "Name": "永安街",
        "Lat": 24.98672,
        "Lon": 121.56893,
        "Sequence": 20,
        "StationID": "142"
      },
      {
        "Name": "指南路口",
        "Lat": 24.9871941238226,
        "Lon": 121.570722800802,
        "Sequence": 21,
        "StationID": "2426"
      },
      {
        "Name": "政大",
        "Lat": 24.9878362086283,
        "Lon": 121.574633255625,
        "Sequence": 22,
        "StationID": "2415"
      },
      {
        "Name": "政大一",
        "Lat": 24.988319,
        "Lon": 121.576427,
        "Sequence": 23,
        "StationID": "1001400"
      },
      {
        "Name": "指南山莊",
        "Lat": 24.9889796040779,
        "Lon": 121.578601086333,
        "Sequence": 24,
        "StationID": "50674"
      },
      {
        "Name": "國關中心",
        "Lat": 24.98914141,
        "Lon": 121.5804463,
        "Sequence": 25,
        "StationID": "2438"
      },
      {
        "Name": "貓纜動物園南站",
        "Lat": 24.989841,
        "Lon": 121.586251,
        "Sequence": 26,
        "StationID": "4030"
      },
      {
        "Name": "政大清境社區",
        "Lat": 24.98948011,
        "Lon": 121.5874366,
        "Sequence": 27,
        "StationID": "2504"
      },
      {
        "Name": "綠野山莊",
        "Lat": 24.98829565,
        "Lon": 121.58742,
        "Sequence": 28,
        "StationID": "2526"
      },
      {
        "Name": "棲霞山莊",
        "Lat": 24.98715168,
        "Lon": 121.5876992,
        "Sequence": 29,
        "StationID": "2472"
      },
      {
        "Name": "政大御花園",
        "Lat": 24.98565649,
        "Lon": 121.5872664,
        "Sequence": 30,
        "StationID": "2420"
      },
      {
        "Name": "猴山坑",
        "Lat": 24.98294,
        "Lon": 121.58903,
        "Sequence": 31,
        "StationID": "2476"
      },
      {
        "Name": "指南宮",
        "Lat": 24.9812125534647,
        "Lon": 121.585437474256,
        "Sequence": 32,
        "StationID": "1000851"
      }
    ]
  }
]