[
  {
    "Route": "藍20區",
    "SubRoute": "藍20區經三總",
    "Direction": 0,
    "Stops": [
      {
        "Name": "南港高工一",
        "Lat": 25.056276,
        "Lon": 121.607046,
        "Sequence": 1,
        "StationID": "1662"
      },
      {
        "Name": "南港車站",
        "Lat": 25.05340065,
        "Lon": 121.6069591,
        "Sequence": 2,
        "StationID": "4848"
      },
      {
        "Name": "南港機廠",
        "Lat": 25.051558036997456,
        "Lon": 121.60111276224704,
        "Sequence": 3,
        "StationID": "4650"
      },
      {
        "Name": "捷運昆陽站",
        "Lat": 25.050346,
        "Lon": 121.593165,
        "Sequence": 4,
        "StationID": "1697"
      },
      {
        "Name": "捷運昆陽站",
        "Lat": 25.050052,
        "Lon": 121.59306,
        "Sequence": 5,
        "StationID": "1165604773"
      },
      {
        "Name": "南港高中",
        "Lat": 25.0529513842885,
        "Lon": 121.595233108141,
        "Sequence": 6,
        "StationID": "1000319"
      },
      {
        "Name": "南港分局(向陽)",
        "Lat": 25.0553345135907,
        "Lon": 121.594415258716,
        "Sequence": 7,
        "StationID": "1646"
      },
      {
        "Name": "石潭公園(成功)",
        "Lat": 25.061289,
        "Lon": 121.591281,
        "Sequence": 8,
        "StationID": "50434"
      },
      {
        "Name": "成功路二段(交流道)",
        "Lat": 25.0646545,
        "Lon": 121.5910436,
        "Sequence": 9,
        "StationID": "1165610510"
      },
      {
        "Name": "上灣仔",
        "Lat": 25.066818699184,
        "Lon": 121.590714855835,
        "Sequence": 10,
        "StationID": "8663"
      },
      {
        "Name": "湖興",
        "Lat": 25.067861865327,
        "Lon": 121.59085370773,
        "Sequence": 11,
        "StationID": "8664"
      },
      {
        "Name": "國防醫學中心",
        "Lat": 25.0712104683315,
        "Lon": 121.590031196316,
        "Sequence": 12,
        "StationID": "339"
      },
      {
        "Name": "三總內湖站",
        "Lat": 25.071852,
        "Lon": 121.592095,
        "Sequence": 13,
        "StationID": "8677"
      },
      {
        "Name": "將軍嶺",
        "Lat": 25.0738091792986,
        "Lon": 121.590016770287,
        "Sequence": 14,
        "StationID": "50500"
      },
      {
        "Name": "方濟中學",
        "Lat": 25.0768845629687,
        "Lon": 121.590231346227,
        "Sequence": 15,
        "StationID": "3996"
      },
      {
        "Name": "內湖高中",
        "Lat": 25.07901319,
        "Lon": 121.5883097,
        "Sequence": 16,
        "StationID": "8523"
      },
      {
        "Name": "捷運文德站(碧湖公園)",
        "Lat": 25.078655,
        "Lon": 121.584351,
        "Sequence": 17,
        "StationID": "1109"
      },
      {
        "Name": "湖光國宅",
        "Lat": 25.07859,
        "Lon": 121.58078,
        "Sequence": 18,
        "StationID": "8415"
      },
      {
        "Name": "西湖圖書館(湖光教會)",
        "Lat": 25.07910692,
        "Lon": 121.5779835,
        "Sequence": 19,
        "StationID": "1000499"
      },
      {
        "Name": "港墘",
        "Lat": 25.080919190818054,
        "Lon": 121.57806788111567,
        "Sequence": 20,
        "StationID": "424"
      },
      {
        "Name": "麗山高中(港墘)",
        "Lat": 25.08298972,
        "Lon": 121.5783099,
        "Sequence": 21,
        "StationID": "8631"
      },
      {
        "Name": "麗山高中(環山)",
        "Lat": 25.08421544,
        "Lon": 121.5767705,
        "Sequence": 22,
        "StationID": "8607"
      },
      {
        "Name": "麗山新村",
        "Lat": 25.08522466,
        "Lon": 121.5742675,
        "Sequence": 23,
        "StationID": "8545"
      },
      {
        "Name": "環山路",
        "Lat": 25.08636101,
        "Lon": 121.5713602,
        "Sequence": 24,
        "StationID": "8608"
      },
      {
        "Name": "德明財經科技大學(環山)",
        "Lat": 25.086482848136942,
        "Lon": 121.56752775057197,
        "Sequence": 25,
        "StationID": "8609"
      },
      {
        "Name": "西湖國中",
        "Lat": 25.08514,
        "Lon": 121.56545,
        "Sequence": 26,
        "StationID": "50511"
      },
      {
        "Name": "治磐新村",
        "Lat": 25.0830692818289,
        "Lon": 121.564098538475,
        "Sequence": 27,
        "StationID": "194"
      },
      {
        "Name": "文湖國小",
        "Lat": 25.0843810062584,
        "Lon": 121.561535778783,
        "Sequence": 28,
        "StationID": "8670"
      },
      {
        "Name": "美麗華",
        "Lat": 25.0848172776379,
        "Lon": 121.558119339359,
        "Sequence": 29,
        "StationID": "1322"
      },
      {
        "Name": "敬業四路",
        "Lat": 25.08185576,
        "Lon": 121.5584464,
        "Sequence": 30,
        "StationID": "8665"
      },
      {
        "Name": "大直美堤花園二",
        "Lat": 25.08002077,
        "Lon": 121.5574829,
        "Sequence": 31,
        "StationID": "9407"
      },
      {
        "Name": "敬業三路二",
        "Lat": 25.0813388630833,
        "Lon": 121.556408099291,
        "Sequence": 32,
        "StationID": "1000500"
      }
    ]
  },
  {
    "Route": "藍20區",
    "SubRoute": "藍20區經三總",
    "Direction": 1,
    "Stops": [
      {
        "Name": "敬業三路一",
        "Lat": 25.083024,
        "Lon": 121.556223,
        "Sequence": 1,
        "StationID": "1371"
      },
      {
        "Name": "敬業三路二",
        "Lat": 25.0812466844798,
        "Lon": 121.556223237814,
        "Sequence": 2,
        "StationID": "1000502"
      },
      {
        "Name": "大直美堤花園三",
        "Lat": 25.079873,
        "Lon": 121.556649286559,
        "Sequence": 3,
        "StationID": "8653"
      },
      {
        "Name": "敬業四路",
        "Lat": 25.081142,
        "Lon": 121.558531,
        "Sequence": 4,
        "StationID": "1000227"
      },
      {
        "Name": "美麗華",
        "Lat": 25.0845384449731,
        "Lon": 121.558196913178,
        "Sequence": 5,
        "StationID": "1000127"
      },
      {
        "Name": "文湖國小",
        "Lat": 25.0841512660387,
        "Lon": 121.5615165067,
        "Sequence": 6,
        "StationID": "1008"
      },
      {
        "Name": "治磐新村",
        "Lat": 25.0829452709661,
        "Lon": 121.56384168984,
        "Sequence": 7,
        "StationID": "8521"
      },
      {
        "Name": "西湖國中",
        "Lat": 25.08562294,
        "Lon": 121.5656019,
        "Sequence": 8,
        "StationID": "1039"
      },
      {
        "Name": "德明財經科技大學(環山)",
        "Lat": 25.086349673182,
        "Lon": 121.56821752149,
        "Sequence": 9,
        "StationID": "1144"
      },
      {
        "Name": "環山路",
        "Lat": 25.08579,
        "Lon": 121.57246,
        "Sequence": 10,
        "StationID": "1147"
      },
      {
        "Name": "麗山新村",
        "Lat": 25.0851847031458,
        "Lon": 121.573943217316,
        "Sequence": 11,
        "StationID": "1155"
      },
      {
        "Name": "麗山高中(環山)",
        "Lat": 25.08405797,
        "Lon": 121.5768304,
        "Sequence": 12,
        "StationID": "1149"
      },
      {
        "Name": "麗山高中(港墘)",
        "Lat": 25.08352,
        "Lon": 121.57808,
        "Sequence": 13,
        "StationID": "1150"
      },
      {
        "Name": "港墘",
        "Lat": 25.08055757,
        "Lon": 121.5775386,
        "Sequence": 14,
        "StationID": "1105"
      },
      {
        "Name": "西湖圖書館(湖光教會)",
        "Lat": 25.078683,
        "Lon": 121.578396,
        "Sequence": 15,
        "StationID": "1041"
      },
      {
        "Name": "湖光國宅",
        "Lat": 25.0783569202296,
        "Lon": 121.581597209792,
        "Sequence": 16,
        "StationID": "1104"
      },
      {
        "Name": "捷運文德站(碧湖公園)",
        "Lat": 25.07840172,
        "Lon": 121.5841327,
        "Sequence": 17,
        "StationID": "4083"
      },
      {
        "Name": "內湖高中",
        "Lat": 25.0787035812339,
        "Lon": 121.587565869008,
        "Sequence": 18,
        "StationID": "998"
      },
      {
        "Name": "方濟中學",
        "Lat": 25.076435413204408,
        "Lon": 121.59007719697958,
        "Sequence": 19,
        "StationID": "1012"
      },
      {
        "Name": "將軍嶺",
        "Lat": 25.073372,
        "Lon": 121.58972,
        "Sequence": 20,
        "StationID": "50501"
      },
      {
        "Name": "三總內湖站",
        "Lat": 25.071852,
        "Lon": 121.592095,
        "Sequence": 21,
        "StationID": "980"
      },
      {
        "Name": "國防醫學中心",
        "Lat": 25.0710371489715,
        "Lon": 121.589869957803,
        "Sequence": 22,
        "StationID": "1080"
      },
      {
        "Name": "湖興",
        "Lat": 25.0680308659982,
        "Lon": 121.590661157725,
        "Sequence": 23,
        "StationID": "1107"
      },
      {
        "Name": "上灣仔",
        "Lat": 25.0670002134225,
        "Lon": 121.590521443523,
        "Sequence": 24,
        "StationID": "985"
      },
      {
        "Name": "成功路二段(交流道)",
        "Lat": 25.06290258,
        "Lon": 121.5907021,
        "Sequence": 25,
        "StationID": "1165610511"
      },
      {
        "Name": "石潭公園(成功)",
        "Lat": 25.061041,
        "Lon": 121.591015,
        "Sequence": 26,
        "StationID": "50433"
      },
      {
        "Name": "南港分局(向陽)",
        "Lat": 25.05574836,
        "Lon": 121.5937887,
        "Sequence": 27,
        "StationID": "1647"
      },
      {
        "Name": "南港高中",
        "Lat": 25.0530195,
        "Lon": 121.5949802,
        "Sequence": 28,
        "StationID": "1000314"
      },
      {
        "Name": "捷運昆陽站",
        "Lat": 25.050346,
        "Lon": 121.593165,
        "Sequence": 29,
        "StationID": "1697"
      },
      {
        "Name": "捷運昆陽站",
        "Lat": 25.050052,
        "Lon": 121.59306,
        "Sequence": 30,
        "StationID": "1165604773"
      },
      {
        "Name": "衛生福利部",
        "Lat": 25.050768,
        "Lon": 121.596331,
        "Sequence": 31,
        "StationID": "1165604495"
      },
      {
        "Name": "南港機廠",
        "Lat": 25.051694,
        "Lon": 121.604333,
        "Sequence": 32,
        "StationID": "4651"
      },
      {
        "Name": "南港車站",
        "Lat": 25.05319593,
        "Lon": 121.6071781,
        "Sequence": 33,
        "StationID": "4847"
      },
      {
        "Name": "南港高工一",
        "Lat": 25.055892219409326,
        "Lon": 121.60724177635524,
        "Sequence": 34,
        "StationID": "1165604591"
      },
      {
        "Name": "南港高工(重陽)",
        "Lat": 25.058039,
        "Lon": 121.605866,
        "Sequence": 35,
        "StationID": "1001375"
      }
    ]
  },
  {
    "Route": "藍20區",
    "SubRoute": "藍20區不經三總",
    "Direction": 0,
    "Stops": [
      {
        "Name": "南港高工一",
        "Lat": 25.056276,
        "Lon": 121.607046,
        "Sequence": 1,
        "StationID": "1662"
      },
      {
        "Name": "南港車站",
        "Lat": 25.05340065,
        "Lon": 121.6069591,
        "Sequence": 2,
        "StationID": "4848"
      },
      {
        "Name": "南港機廠",
        "Lat": 25.051558036997456,
        "Lon": 121.60111276224704,
        "Sequence": 3,
        "StationID": "4650"
      },
      {
        "Name": "捷運昆陽站",
        "Lat": 25.050346,
        "Lon": 121.593165,
        "Sequence": 4,
        "StationID": "1697"
      },
      {
        "Name": "捷運昆陽站",
        "Lat": 25.050052,
        "Lon": 121.59306,
        "Sequence": 5,
        "StationID": "1165604773"
      },
      {
        "Name": "南港高中",
        "Lat": 25.0529513842885,
        "Lon": 121.595233108141,
        "Sequence": 6,
        "StationID": "1000319"
      },
      {
        "Name": "南港分局(向陽)",
        "Lat": 25.0553345135907,
        "Lon": 121.594415258716,
        "Sequence": 7,
        "StationID": "1646"
      },
      {
        "Name": "石潭公園(成功)",
        "Lat": 25.061289,
        "Lon": 121.591281,
        "Sequence": 8,
        "StationID": "50434"
      },
      {
        "Name": "成功路二段(交流道)",
        "Lat": 25.0646545,
        "Lon": 121.5910436,
        "Sequence": 9,
        "StationID": "1165610510"
      },
      {
        "Name": "上灣仔",
        "Lat": 25.066818699184,
        "Lon": 121.590714855835,
        "Sequence": 10,
        "StationID": "8663"
      },
      {
        "Name": "湖興",
        "Lat": 25.067861865327,
        "Lon": 121.59085370773,
        "Sequence": 11,
        "StationID": "8664"
      },
      {
        "Name": "國防醫學中心",
        "Lat": 25.0712104683315,
        "Lon": 121.590031196316,
        "Sequence": 12,
        "StationID": "339"
      },
      {
        "Name": "將軍嶺",
        "Lat": 25.0738091792986,
        "Lon": 121.590016770287,
        "Sequence": 13,
        "StationID": "50500"
      },
      {
        "Name": "方濟中學",
        "Lat": 25.0768845629687,
        "Lon": 121.590231346227,
        "Sequence": 14,
        "StationID": "3996"
      },
      {
        "Name": "內湖高中",
        "Lat": 25.07901319,
        "Lon": 121.5883097,
        "Sequence": 15,
        "StationID": "8523"
      },
      {
        "Name": "捷運文德站(碧湖公園)",
        "Lat": 25.078655,
        "Lon": 121.584351,
        "Sequence": 16,
        "StationID": "1109"
      },
      {
        "Name": "湖光國宅",
        "Lat": 25.07859,
        "Lon": 121.58078,
        "Sequence": 17,
        "StationID": "8415"
      },
      {
        "Name": "西湖圖書館(湖光教會)",
        "Lat": 25.07910692,
        "Lon": 121.5779835,
        "Sequence": 18,
        "StationID": "1000499"
      },
      {
        "Name": "港墘",
        "Lat": 25.080919190818054,
        "Lon": 121.57806788111567,
        "Sequence": 19,
        "StationID": "424"
      },
      {
        "Name": "麗山高中(港墘)",
        "Lat": 25.08298972,
        "Lon": 121.5783099,
        "Sequence": 20,
        "StationID": "8631"
      },
      {
        "Name": "麗山高中(環山)",
        "Lat": 25.08421544,
        "Lon": 121.5767705,
        "Sequence": 21,
        "StationID": "8607"
      },
      {
        "Name": "麗山新村",
        "Lat": 25.08522466,
        "Lon": 121.5742675,
        "Sequence": 22,
        "StationID": "8545"
      },
      {
        "Name": "環山路",
        "Lat": 25.08636101,
        "Lon": 121.5713602,
        "Sequence": 23,
        "StationID": "8608"
      },
      {
        "Name": "德明財經科技大學(環山)",
        "Lat": 25.086482848136942,
        "Lon": 121.56752775057197,
        "Sequence": 24,
        "StationID": "8609"
      },
      {
        "Name": "西湖國中",
        "Lat": 25.08514,
        "Lon": 121.56545,
        "Sequence": 25,
        "StationID": "50511"
      },
      {
        "Name": "治磐新村",
        "Lat": 25.0830692818289,
        "Lon": 121.564098538475,
        "Sequence": 26,
        "StationID": "194"
      },
      {
        "Name": "文湖國小",
        "Lat": 25.0843810062584,
        "Lon": 121.561535778783,
        "Sequence": 27,
        "StationID": "8670"
      },
      {
        "Name": "美麗華",
        "Lat": 25.0848172776379,
        "Lon": 121.558119339359,
        "Sequence": 28,
        "StationID": "1322"
      },
      {
        "Name": "敬業四路",
        "Lat": 25.08185576,
        "Lon": 121.5584464,
        "Sequence": 29,
        "StationID": "8665"
      },
      {
        "Name": "大直美堤花園二",
        "Lat": 25.08002077,
        "Lon": 121.5574829,
        "Sequence": 30,
        "StationID": "9407"
      },
      {
        "Name": "敬業三路二",
        "Lat": 25.0813388630833,
        "Lon": 121.556408099291,
        "Sequence": 31,
        "StationID": "1000500"
      }
    ]
  },
  {
    "Route": "藍20區",
    "SubRoute": "藍20區不經三總",
    "Direction": 1,
    "Stops": [
      {
        "Name": "敬業三路一",
        "Lat": 25.083024,
        "Lon": 121.556223,
        "Sequence": 1,
        "StationID": "1371"
      },
      {
        "Name": "敬業三路二",
        "Lat": 25.0812466844798,
        "Lon": 121.556223237814,
        "Sequence": 2,
        "StationID": "1000502"
      },
      {
        "Name": "大直美堤花園三",
        "Lat": 25.079873,
        "Lon": 121.556649286559,
        "Sequence": 3,
        "StationID": "8653"
      },
      {
        "Name": "敬業四路",
        "Lat": 25.081142,
        "Lon": 121.558531,
        "Sequence": 4,
        "StationID": "1000227"
      },
      {
        "Name": "美麗華",
        "Lat": 25.0845384449731,
        "Lon": 121.558196913178,
        "Sequence": 5,
        "StationID": "1000127"
      },
      {
        "Name": "文湖國小",
        "Lat": 25.0841512660387,
        "Lon": 121.5615165067,
        "Sequence": 6,
        "StationID": "1008"
      },
      {
        "Name": "治磐新村",
        "Lat": 25.0829452709661,
        "Lon": 121.56384168984,
        "Sequence": 7,
        "StationID": "8521"
      },
      {
        "Name": "西湖國中",
        "Lat": 25.08562294,
        "Lon": 121.5656019,
        "Sequence": 8,
        "StationID": "1039"
      },
      {
        "Name": "德明財經科技大學(環山)",
        "Lat": 25.086349673182,
        "Lon": 121.56821752149,
        "Sequence": 9,
        "StationID": "1144"
      },
      {
        "Name": "環山路",
        "Lat": 25.08579,
        "Lon": 121.57246,
        "Sequence": 10,
        "StationID": "1147"
      },
      {
        "Name": "麗山新村",
        "Lat": 25.0851847031458,
        "Lon": 121.573943217316,
        "Sequence": 11,
        "StationID": "1155"
      },
      {
        "Name": "麗山高中(環山)",
        "Lat": 25.08405797,
        "Lon": 121.5768304,
        "Sequence": 12,
        "StationID": "1149"
      },
      {
        "Name": "麗山高中(港墘)",
        "Lat": 25.08352,
        "Lon": 121.57808,
        "Sequence": 13,
        "StationID": "1150"
      },
      {
        "Name": "港墘",
        "Lat": 25.08055757,
        "Lon": 121.5775386,
        "Sequence": 14,
        "StationID": "1105"
      },
      {
        "Name": "西湖圖書館(湖光教會)",
        "Lat": 25.078683,
        "Lon": 121.578396,
        "Sequence": 15,
        "StationID": "1041"
      },
      {
        "Name": "湖光國宅",
        "Lat": 25.0783569202296,
        "Lon": 121.581597209792,
        "Sequence": 16,
        "StationID": "1104"
      },
      {
        "Name": "捷運文德站(碧湖公園)",
        "Lat": 25.07840172,
        "Lon": 121.5841327,
        "Sequence": 17,
        "StationID": "4083"
      },
      {
        "Name": "內湖高中",
        "Lat": 25.0787035812339,
        "Lon": 121.587565869008,
        "Sequence": 18,
        "StationID": "998"
      },
      {
        "Name": "方濟中學",
        "Lat": 25.076435413204408,
        "Lon": 121.59007719697958,
        "Sequence": 19,
        "StationID": "1012"
      },
      {
        "Name": "將軍嶺",
        "Lat": 25.073372,
        "Lon": 121.58972,
        "Sequence": 20,
        "StationID": "50501"
      },
      {
        "Name": "國防醫學中心",
        "Lat": 25.0710371489715,
        "Lon": 121.589869957803,
        "Sequence": 21,
        "StationID": "1080"
      },
      {
        "Name": "湖興",
        "Lat": 25.0680308659982,
        "Lon": 121.590661157725,
        "Sequence": 22,
        "StationID": "1107"
      },
      {
        "Name": "上灣仔",
        "Lat": 25.0670002134225,
        "Lon": 121.590521443523,
        "Sequence": 23,
        "StationID": "985"
      },
      {
        "Name": "成功路二段(交流道)",
        "Lat": 25.06290258,
        "Lon": 121.5907021,
        "Sequence": 24,
        "StationID": "1165610511"
      },
      {
        "Name": "石潭公園(成功)",
        "Lat": 25.061041,
        "Lon": 121.591015,
        "Sequence": 25,
        "StationID": "50433"
      },
      {
        "Name": "南港分局(向陽)",
        "Lat": 25.05574836,
        "Lon": 121.5937887,
        "Sequence": 26,
        "StationID": "1647"
      },
      {
        "Name": "南港高中",
        "Lat": 25.0530195,
        "Lon": 121.5949802,
        "Sequence": 27,
        "StationID": "1000314"
      },
      {
        "Name": "捷運昆陽站",
        "Lat": 25.050346,
        "Lon": 121.593165,
        "Sequence": 28,
        "StationID": "1697"
      },
      {
        "Name": "捷運昆陽站",
        "Lat": 25.050052,
        "Lon": 121.59306,
        "Sequence": 29,
        "StationID": "1165604773"
      },
      {
        "Name": "衛生福利部",
        "Lat": 25.050768,
        "Lon": 121.596331,
        "Sequence": 30,
        "StationID": "1165604495"
      },
      {
        "Name": "南港機廠",
        "Lat": 25.051694,
        "Lon": 121.604333,
        "Sequence": 31,
        "StationID": "4651"
      },
      {
        "Name": "南港車站",
        "Lat": 25.05319593,
        "Lon": 121.6071781,
        "Sequence": 32,
        "StationID": "4847"
      },
      {
        "Name": "南港高工一",
        "Lat": 25.055892219409326,
        "Lon": 121.60724177635524,
        "Sequence": 33,
        "StationID": "1165604591"
      },
      {
        "Name": "南港高工(重陽)",
        "Lat": 25.058039,
        "Lon": 121.605866,
        "Sequence": 34,
        "StationID": "1001375"
      }
    ]
  }
]