[
  {
    "Route": "235",
    "SubRoute": "235",
    "Direction": 0,
    "Stops": [
      {
        "Name": "西盛",
        "Lat": 25.019241,
        "Lon": 121.433249,
        "Sequence": 1,
        "StationID": "3534"
      },
      {
        "Name": "東方之星",
        "Lat": 25.01508972,
        "Lon": 121.4326327,
        "Sequence": 2,
        "StationID": "30018"
      },
      {
        "Name": "西盛館",
        "Lat": 25.013078,
        "Lon": 121.432578,
        "Sequence": 3,
        "StationID": "3536"
      },
      {
        "Name": "家麒新天地",
        "Lat": 25.010087,
        "Lon": 121.432644,
        "Sequence": 4,
        "StationID": "3535"
      },
      {
        "Name": "正豐",
        "Lat": 25.007493,
        "Lon": 121.432786,
        "Sequence": 5,
        "StationID": "3528"
      },
      {
        "Name": "大唐江山",
        "Lat": 25.007867,
        "Lon": 121.431869,
        "Sequence": 6,
        "StationID": "30032"
      },
      {
        "Name": "民安西路403巷口",
        "Lat": 25.009369,
        "Lon": 121.4299139,
        "Sequence": 7,
        "StationID": "30031"
      },
      {
        "Name": "光華街口",
        "Lat": 25.01056501,
        "Lon": 121.4284024,
        "Sequence": 8,
        "StationID": "30030"
      },
      {
        "Name": "新寶社區",
        "Lat": 25.01254806,
        "Lon": 121.4263087,
        "Sequence": 9,
        "StationID": "30029"
      },
      {
        "Name": "光明里",
        "Lat": 25.01453194,
        "Lon": 121.4260504,
        "Sequence": 10,
        "StationID": "30028"
      },
      {
        "Name": "光華國小(民安西路)",
        "Lat": 25.016748,
        "Lon": 121.426301,
        "Sequence": 11,
        "StationID": "30044"
      },
      {
        "Name": "福祿新城一",
        "Lat": 25.018631,
        "Lon": 121.426917,
        "Sequence": 12,
        "StationID": "30041"
      },
      {
        "Name": "福祿新城二",
        "Lat": 25.02033,
        "Lon": 121.427412,
        "Sequence": 13,
        "StationID": "30008"
      },
      {
        "Name": "民安陸橋",
        "Lat": 25.022571,
        "Lon": 121.426146,
        "Sequence": 14,
        "StationID": "30012"
      },
      {
        "Name": "民安路",
        "Lat": 25.024026,
        "Lon": 121.425221,
        "Sequence": 15,
        "StationID": "1000432"
      },
      {
        "Name": "後港社區",
        "Lat": 25.025331,
        "Lon": 121.424195,
        "Sequence": 16,
        "StationID": "3550"
      },
      {
        "Name": "建福路口",
        "Lat": 25.02637,
        "Lon": 121.426468,
        "Sequence": 17,
        "StationID": "30010"
      },
      {
        "Name": "宏泰社區",
        "Lat": 25.02749,
        "Lon": 121.42673,
        "Sequence": 18,
        "StationID": "30009"
      },
      {
        "Name": "三洋",
        "Lat": 25.0301579598983,
        "Lon": 121.426971584029,
        "Sequence": 19,
        "StationID": "30007"
      },
      {
        "Name": "營盤口",
        "Lat": 25.031553,
        "Lon": 121.431382,
        "Sequence": 20,
        "StationID": "3602"
      },
      {
        "Name": "捷運輔大站",
        "Lat": 25.032612,
        "Lon": 121.435466,
        "Sequence": 21,
        "StationID": "30001"
      },
      {
        "Name": "盲人重建院",
        "Lat": 25.033904,
        "Lon": 121.442607,
        "Sequence": 22,
        "StationID": "50616"
      },
      {
        "Name": "海山里",
        "Lat": 25.034382,
        "Lon": 121.44483,
        "Sequence": 23,
        "StationID": "30002"
      },
      {
        "Name": "新泰路口",
        "Lat": 25.034987,
        "Lon": 121.447739,
        "Sequence": 24,
        "StationID": "30003"
      },
      {
        "Name": "捷運新莊站(新莊郵局)",
        "Lat": 25.035376,
        "Lon": 121.449469,
        "Sequence": 25,
        "StationID": "1165604194"
      },
      {
        "Name": "新莊國小",
        "Lat": 25.036727,
        "Lon": 121.456562,
        "Sequence": 26,
        "StationID": "30025"
      },
      {
        "Name": "保元宮",
        "Lat": 25.038242,
        "Lon": 121.459593,
        "Sequence": 27,
        "StationID": "30004"
      },
      {
        "Name": "捷運頭前庄站",
        "Lat": 25.03991225,
        "Lon": 121.4623098,
        "Sequence": 28,
        "StationID": "1000983"
      },
      {
        "Name": "頭前",
        "Lat": 25.041731,
        "Lon": 121.46516,
        "Sequence": 29,
        "StationID": "30005"
      },
      {
        "Name": "金陵女中",
        "Lat": 25.0427471,
        "Lon": 121.4665635,
        "Sequence": 30,
        "StationID": "13207"
      },
      {
        "Name": "中興街口",
        "Lat": 25.045403,
        "Lon": 121.469408,
        "Sequence": 31,
        "StationID": "13218"
      },
      {
        "Name": "捷運先嗇宮站",
        "Lat": 25.046158,
        "Lon": 121.471374,
        "Sequence": 32,
        "StationID": "4687"
      },
      {
        "Name": "五谷王廟",
        "Lat": 25.047009,
        "Lon": 121.473986,
        "Sequence": 33,
        "StationID": "3409"
      },
      {
        "Name": "重新大橋",
        "Lat": 25.0513765359288,
        "Lon": 121.487739420364,
        "Sequence": 34,
        "StationID": "13203"
      },
      {
        "Name": "西門國小(臺大醫院北護分院)",
        "Lat": 25.042608,
        "Lon": 121.502346,
        "Sequence": 35,
        "StationID": "70028"
      },
      {
        "Name": "臺北護理健康大學",
        "Lat": 25.041536,
        "Lon": 121.50367,
        "Sequence": 36,
        "StationID": "1842"
      },
      {
        "Name": "內江街",
        "Lat": 25.04153818,
        "Lon": 121.5051324,
        "Sequence": 37,
        "StationID": "1741"
      },
      {
        "Name": "西門市場(漢中)",
        "Lat": 25.04202065,
        "Lon": 121.507436,
        "Sequence": 38,
        "StationID": "1753"
      },
      {
        "Name": "臺北市憲兵隊",
        "Lat": 25.04072737,
        "Lon": 121.5091239,
        "Sequence": 39,
        "StationID": "1000435"
      },
      {
        "Name": "東吳大學城中校區",
        "Lat": 25.0390539,
        "Lon": 121.5091008,
        "Sequence": 40,
        "StationID": "1936"
      },
      {
        "Name": "一女中(貴陽)",
        "Lat": 25.0385833202908,
        "Lon": 121.514486272409,
        "Sequence": 41,
        "StationID": "4612"
      },
      {
        "Name": "一女中(公園)",
        "Lat": 25.03800782,
        "Lon": 121.5149627,
        "Sequence": 42,
        "StationID": "1847"
      },
      {
        "Name": "市立大學附小",
        "Lat": 25.0364625980204,
        "Lon": 121.514976309391,
        "Sequence": 43,
        "StationID": "1912"
      },
      {
        "Name": "南門",
        "Lat": 25.033381,
        "Lon": 121.51568,
        "Sequence": 44,
        "StationID": "1873"
      },
      {
        "Name": "自來水西分處(寧波)",
        "Lat": 25.029828,
        "Lon": 121.5157,
        "Sequence": 45,
        "StationID": "1916"
      },
      {
        "Name": "聯合醫院婦幼院區一",
        "Lat": 25.0299878580087,
        "Lon": 121.518037534882,
        "Sequence": 46,
        "StationID": "50685"
      },
      {
        "Name": "南昌家具街",
        "Lat": 25.0273649962157,
        "Lon": 121.520315080867,
        "Sequence": 47,
        "StationID": "1944"
      },
      {
        "Name": "捷運古亭站(和平)",
        "Lat": 25.02678744,
        "Lon": 121.5246159,
        "Sequence": 48,
        "StationID": "2311"
      },
      {
        "Name": "師大",
        "Lat": 25.02650071684031,
        "Lon": 121.5278634988405,
        "Sequence": 49,
        "StationID": "2289"
      },
      {
        "Name": "師大綜合大樓",
        "Lat": 25.026362,
        "Lon": 121.529958,
        "Sequence": 50,
        "StationID": "2291"
      },
      {
        "Name": "溫州街口",
        "Lat": 25.0260973914545,
        "Lon": 121.533012542409,
        "Sequence": 51,
        "StationID": "3914"
      },
      {
        "Name": "大安森林公園",
        "Lat": 25.0257355123764,
        "Lon": 121.536235879941,
        "Sequence": 52,
        "StationID": "2190"
      },
      {
        "Name": "龍門國中(和平)",
        "Lat": 25.0254072414078,
        "Lon": 121.538492198683,
        "Sequence": 53,
        "StationID": "2345"
      },
      {
        "Name": "復興南路口",
        "Lat": 25.0249140592421,
        "Lon": 121.542239793699,
        "Sequence": 54,
        "StationID": "2327"
      },
      {
        "Name": "國立臺北教育大學",
        "Lat": 25.0246033941802,
        "Lon": 121.545343325676,
        "Sequence": 55,
        "StationID": "2300"
      },
      {
        "Name": "臥龍街",
        "Lat": 25.024522,
        "Lon": 121.547571,
        "Sequence": 56,
        "StationID": "2267"
      },
      {
        "Name": "全安里",
        "Lat": 25.02553767,
        "Lon": 121.5501916,
        "Sequence": 57,
        "StationID": "59003"
      },
      {
        "Name": "立人國際國中小學",
        "Lat": 25.02874334,
        "Lon": 121.5505851,
        "Sequence": 58,
        "StationID": "59002"
      },
      {
        "Name": "文昌街口",
        "Lat": 25.031516,
        "Lon": 121.552557,
        "Sequence": 59,
        "StationID": "59001"
      },
      {
        "Name": "捷運信義安和站(安和)",
        "Lat": 25.034479,
        "Lon": 121.552601,
        "Sequence": 60,
        "StationID": "6920"
      },
      {
        "Name": "仁愛國中",
        "Lat": 25.03661955,
        "Lon": 121.5521758,
        "Sequence": 61,
        "StationID": "2210"
      },
      {
        "Name": "敦化安和路口",
        "Lat": 25.03964863,
        "Lon": 121.5497082,
        "Sequence": 62,
        "StationID": "2328"
      },
      {
        "Name": "捷運忠孝敦化站",
        "Lat": 25.041391012662,
        "Lon": 121.55037495586,
        "Sequence": 63,
        "StationID": "2318"
      },
      {
        "Name": "阿波羅大廈",
        "Lat": 25.041262,
        "Lon": 121.553619,
        "Sequence": 64,
        "StationID": "2272"
      },
      {
        "Name": "交通部觀光署",
        "Lat": 25.04128222,
        "Lon": 121.555503,
        "Sequence": 65,
        "StationID": "2361"
      }
    ]
  },
  {
    "Route": "235",
    "SubRoute": "235",
    "Direction": 1,
    "Stops": [
      {
        "Name": "國父紀念館",
        "Lat": 25.0390095904505,
        "Lon": 121.557499635507,
        "Sequence": 1,
        "StationID": "60095"
      },
      {
        "Name": "仁愛延吉街口",
        "Lat": 25.0377743210687,
        "Lon": 121.555779394717,
        "Sequence": 2,
        "StationID": "6926"
      },
      {
        "Name": "仁愛國泰醫院",
        "Lat": 25.0378288007837,
        "Lon": 121.553215911831,
        "Sequence": 3,
        "StationID": "6925"
      },
      {
        "Name": "仁愛安和路口",
        "Lat": 25.03796,
        "Lon": 121.55181,
        "Sequence": 4,
        "StationID": "6924"
      },
      {
        "Name": "仁愛安和路口",
        "Lat": 25.0377212341364,
        "Lon": 121.550883391345,
        "Sequence": 5,
        "StationID": "1863"
      },
      {
        "Name": "仁愛國小",
        "Lat": 25.03650265,
        "Lon": 121.5520521,
        "Sequence": 6,
        "StationID": "2208"
      },
      {
        "Name": "捷運信義安和站(安和)",
        "Lat": 25.034385,
        "Lon": 121.552398,
        "Sequence": 7,
        "StationID": "2287"
      },
      {
        "Name": "文昌街口",
        "Lat": 25.03120638,
        "Lon": 121.5523363,
        "Sequence": 8,
        "StationID": "2222"
      },
      {
        "Name": "立人國際國中小學",
        "Lat": 25.028825,
        "Lon": 121.550354,
        "Sequence": 9,
        "StationID": "2235"
      },
      {
        "Name": "全安里",
        "Lat": 25.02648723,
        "Lon": 121.5498058,
        "Sequence": 10,
        "StationID": "2236"
      },
      {
        "Name": "安和路口",
        "Lat": 25.02519,
        "Lon": 121.55002,
        "Sequence": 11,
        "StationID": "1000927"
      },
      {
        "Name": "臥龍街",
        "Lat": 25.0247072352904,
        "Lon": 121.547497854598,
        "Sequence": 12,
        "StationID": "6020"
      },
      {
        "Name": "國立臺北教育大學",
        "Lat": 25.02482681,
        "Lon": 121.5448151,
        "Sequence": 13,
        "StationID": "2304"
      },
      {
        "Name": "復興南路口",
        "Lat": 25.0251035284638,
        "Lon": 121.542376119519,
        "Sequence": 14,
        "StationID": "6021"
      },
      {
        "Name": "國北教大實小",
        "Lat": 25.02532,
        "Lon": 121.54065,
        "Sequence": 15,
        "StationID": "2299"
      },
      {
        "Name": "龍門國中(和平)",
        "Lat": 25.0255275256686,
        "Lon": 121.539154243763,
        "Sequence": 16,
        "StationID": "3942"
      },
      {
        "Name": "大安森林公園",
        "Lat": 25.0259280472003,
        "Lon": 121.53631985296,
        "Sequence": 17,
        "StationID": "2192"
      },
      {
        "Name": "溫州街口",
        "Lat": 25.0263548162126,
        "Lon": 121.532693859225,
        "Sequence": 18,
        "StationID": "6024"
      },
      {
        "Name": "師大綜合大樓",
        "Lat": 25.026622,
        "Lon": 121.53006,
        "Sequence": 19,
        "StationID": "2292"
      },
      {
        "Name": "師大",
        "Lat": 25.026738138642,
        "Lon": 121.527713493878,
        "Sequence": 20,
        "StationID": "6025"
      },
      {
        "Name": "捷運古亭站(和平)",
        "Lat": 25.027172,
        "Lon": 121.523152,
        "Sequence": 21,
        "StationID": "6026"
      },
      {
        "Name": "南昌家具街",
        "Lat": 25.0270778477608,
        "Lon": 121.520842984034,
        "Sequence": 22,
        "StationID": "6933"
      },
      {
        "Name": "聯合醫院婦幼院區一",
        "Lat": 25.02997969,
        "Lon": 121.5183087,
        "Sequence": 23,
        "StationID": "1972"
      },
      {
        "Name": "南昌路",
        "Lat": 25.030967,
        "Lon": 121.517416,
        "Sequence": 24,
        "StationID": "1000277"
      },
      {
        "Name": "南門",
        "Lat": 25.033381,
        "Lon": 121.51568,
        "Sequence": 25,
        "StationID": "1000758"
      },
      {
        "Name": "一女中(公園)",
        "Lat": 25.0368285357308,
        "Lon": 121.515136595156,
        "Sequence": 26,
        "StationID": "6713"
      },
      {
        "Name": "一女中(貴陽)",
        "Lat": 25.0386560843846,
        "Lon": 121.514498656168,
        "Sequence": 27,
        "StationID": "4611"
      },
      {
        "Name": "衡陽路",
        "Lat": 25.04227,
        "Lon": 121.51021,
        "Sequence": 28,
        "StationID": "1165606055"
      },
      {
        "Name": "西門市場(成都)",
        "Lat": 25.042689544956,
        "Lon": 121.50665358531,
        "Sequence": 29,
        "StationID": "1752"
      },
      {
        "Name": "西門國小",
        "Lat": 25.043299072488,
        "Lon": 121.50400338161,
        "Sequence": 30,
        "StationID": "1754"
      },
      {
        "Name": "重新大橋",
        "Lat": 25.05174,
        "Lon": 121.487734,
        "Sequence": 31,
        "StationID": "3446"
      },
      {
        "Name": "五谷王廟",
        "Lat": 25.04728267,
        "Lon": 121.4740976,
        "Sequence": 32,
        "StationID": "1000966"
      },
      {
        "Name": "捷運先嗇宮站",
        "Lat": 25.046125,
        "Lon": 121.47048,
        "Sequence": 33,
        "StationID": "4688"
      },
      {
        "Name": "中興街口",
        "Lat": 25.044972,
        "Lon": 121.468523,
        "Sequence": 34,
        "StationID": "3418"
      },
      {
        "Name": "金陵女中",
        "Lat": 25.043117,
        "Lon": 121.466676,
        "Sequence": 35,
        "StationID": "3436"
      },
      {
        "Name": "頭前",
        "Lat": 25.041063159,
        "Lon": 121.4636349,
        "Sequence": 36,
        "StationID": "3593"
      },
      {
        "Name": "捷運頭前庄站",
        "Lat": 25.040058,
        "Lon": 121.462079,
        "Sequence": 37,
        "StationID": "1000604"
      },
      {
        "Name": "大眾廟",
        "Lat": 25.03714826,
        "Lon": 121.4573883,
        "Sequence": 38,
        "StationID": "3493"
      },
      {
        "Name": "捷運新莊站(新莊郵局)",
        "Lat": 25.035639,
        "Lon": 121.449807,
        "Sequence": 39,
        "StationID": "3567"
      },
      {
        "Name": "新泰路口",
        "Lat": 25.035329,
        "Lon": 121.44814,
        "Sequence": 40,
        "StationID": "3565"
      },
      {
        "Name": "海山里",
        "Lat": 25.034808,
        "Lon": 121.445934,
        "Sequence": 41,
        "StationID": "3552"
      },
      {
        "Name": "盲人重建院",
        "Lat": 25.0337008431394,
        "Lon": 121.440631678538,
        "Sequence": 42,
        "StationID": "3543"
      },
      {
        "Name": "捷運輔大站",
        "Lat": 25.03275227,
        "Lon": 121.4347821,
        "Sequence": 43,
        "StationID": "3589"
      },
      {
        "Name": "營盤口",
        "Lat": 25.031456,
        "Lon": 121.43029,
        "Sequence": 44,
        "StationID": "8204"
      },
      {
        "Name": "三洋(建福路)",
        "Lat": 25.028689,
        "Lon": 121.4262926,
        "Sequence": 45,
        "StationID": "73683"
      },
      {
        "Name": "宏泰社區",
        "Lat": 25.027122,
        "Lon": 121.426713,
        "Sequence": 46,
        "StationID": "3537"
      },
      {
        "Name": "建福路口",
        "Lat": 25.026331,
        "Lon": 121.426119,
        "Sequence": 47,
        "StationID": "3547"
      },
      {
        "Name": "後港社區",
        "Lat": 25.02585,
        "Lon": 121.42461,
        "Sequence": 48,
        "StationID": "3549"
      },
      {
        "Name": "民安路",
        "Lat": 25.02401714,
        "Lon": 121.4250914,
        "Sequence": 49,
        "StationID": "3525"
      },
      {
        "Name": "民安陸橋",
        "Lat": 25.02243361,
        "Lon": 121.4261035,
        "Sequence": 50,
        "StationID": "3524"
      },
      {
        "Name": "福祿新城二",
        "Lat": 25.02045611,
        "Lon": 121.4272815,
        "Sequence": 51,
        "StationID": "3586"
      },
      {
        "Name": "福祿新城一",
        "Lat": 25.01873861,
        "Lon": 121.4268159,
        "Sequence": 52,
        "StationID": "3585"
      },
      {
        "Name": "光華國小(民安西路)",
        "Lat": 25.01724,
        "Lon": 121.42625,
        "Sequence": 53,
        "StationID": "30045"
      },
      {
        "Name": "光明里",
        "Lat": 25.01439,
        "Lon": 121.4258116,
        "Sequence": 54,
        "StationID": "3529"
      },
      {
        "Name": "新寶社區",
        "Lat": 25.01268166,
        "Lon": 121.4260776,
        "Sequence": 55,
        "StationID": "3582"
      },
      {
        "Name": "光華街口",
        "Lat": 25.010583,
        "Lon": 121.428101,
        "Sequence": 56,
        "StationID": "3532"
      },
      {
        "Name": "民安西路403巷口",
        "Lat": 25.009224,
        "Lon": 121.429871,
        "Sequence": 57,
        "StationID": "3521"
      },
      {
        "Name": "大唐江山",
        "Lat": 25.007896,
        "Lon": 121.431591,
        "Sequence": 58,
        "StationID": "3492"
      },
      {
        "Name": "正豐",
        "Lat": 25.007876,
        "Lon": 121.432929,
        "Sequence": 59,
        "StationID": "30013"
      },
      {
        "Name": "西盛一",
        "Lat": 25.00947,
        "Lon": 121.432866,
        "Sequence": 60,
        "StationID": "73693"
      },
      {
        "Name": "家麒新天地",
        "Lat": 25.010698,
        "Lon": 121.432869,
        "Sequence": 61,
        "StationID": "30014"
      },
      {
        "Name": "西盛館",
        "Lat": 25.01294458,
        "Lon": 121.4327276,
        "Sequence": 62,
        "StationID": "30015"
      },
      {
        "Name": "東方之星",
        "Lat": 25.015233,
        "Lon": 121.432839,
        "Sequence": 63,
        "StationID": "30016"
      },
      {
        "Name": "西盛",
        "Lat": 25.01986167,
        "Lon": 121.4337502,
        "Sequence": 64,
        "StationID": "30017"
      }
    ]
  }
]