[
  {
    "Route": "兒樂1號線",
    "SubRoute": "兒童新樂園1",
    "Direction": 0,
    "Stops": [
      {
        "Name": "兒童新樂園",
        "Lat": 25.09636438,
        "Lon": 121.5146581,
        "Sequence": 1,
        "StationID": "1165603310"
      },
      {
        "Name": "捷運芝山站(福國)",
        "Lat": 25.101765,
        "Lon": 121.522741,
        "Sequence": 5,
        "StationID": "7262"
      },
      {
        "Name": "捷運士林站(中正)",
        "Lat": 25.095428,
        "Lon": 121.525882,
        "Sequence": 7,
        "StationID": "1165605299"
      },
      {
        "Name": "天文科學館",
        "Lat": 25.09549,
        "Lon": 121.51822,
        "Sequence": 8,
        "StationID": "572"
      },
      {
        "Name": "國立科教館",
        "Lat": 25.0953476878965,
        "Lon": 121.517419129378,
        "Sequence": 9,
        "StationID": "790"
      },
      {
        "Name": "兒童新樂園",
        "Lat": 25.09636438,
        "Lon": 121.5146581,
        "Sequence": 10,
        "StationID": "1165603310"
      }
    ]
  }
]