[
  {
    "Route": "218",
    "SubRoute": "218",
    "Direction": 0,
    "Stops": [
      {
        "Name": "貴子坑水土保持園區",
        "Lat": 25.14506,
        "Lon": 121.49262,
        "Sequence": 1,
        "StationID": "437"
      },
      {
        "Name": "秀山里",
        "Lat": 25.1452880512553,
        "Lon": 121.493826634438,
        "Sequence": 2,
        "StationID": "1000928"
      },
      {
        "Name": "慈航寺",
        "Lat": 25.144571,
        "Lon": 121.497011,
        "Sequence": 3,
        "StationID": "454"
      },
      {
        "Name": "國泰新村",
        "Lat": 25.1435377973513,
        "Lon": 121.498005120919,
        "Sequence": 4,
        "StationID": "343"
      },
      {
        "Name": "中和里",
        "Lat": 25.1420654536477,
        "Lon": 121.49875524785,
        "Sequence": 5,
        "StationID": "63"
      },
      {
        "Name": "復興中學",
        "Lat": 25.1404257952951,
        "Lon": 121.500142024239,
        "Sequence": 6,
        "StationID": "414"
      },
      {
        "Name": "中和街",
        "Lat": 25.1391571863191,
        "Lon": 121.501520744986,
        "Sequence": 7,
        "StationID": "64"
      },
      {
        "Name": "新北投",
        "Lat": 25.137791,
        "Lon": 121.502937,
        "Sequence": 8,
        "StationID": "456"
      },
      {
        "Name": "北投公園",
        "Lat": 25.1363484992167,
        "Lon": 121.504124469582,
        "Sequence": 9,
        "StationID": "112"
      },
      {
        "Name": "第一銀行",
        "Lat": 25.1345133895389,
        "Lon": 121.50235879653,
        "Sequence": 10,
        "StationID": "399"
      },
      {
        "Name": "中央南路",
        "Lat": 25.1321537676007,
        "Lon": 121.50131769692,
        "Sequence": 11,
        "StationID": "7241"
      },
      {
        "Name": "中央南大興街口",
        "Lat": 25.130163,
        "Lon": 121.501062,
        "Sequence": 12,
        "StationID": "357"
      },
      {
        "Name": "慈后宮",
        "Lat": 25.1278841376109,
        "Lon": 121.501189626271,
        "Sequence": 13,
        "StationID": "50086"
      },
      {
        "Name": "捷運奇岩站",
        "Lat": 25.12600361,
        "Lon": 121.4995994,
        "Sequence": 14,
        "StationID": "366"
      },
      {
        "Name": "大業路(農禪寺)",
        "Lat": 25.12242987,
        "Lon": 121.499222,
        "Sequence": 15,
        "StationID": "37"
      },
      {
        "Name": "承德公舘路口",
        "Lat": 25.118907,
        "Lon": 121.501973,
        "Sequence": 16,
        "StationID": "22"
      },
      {
        "Name": "立農國小",
        "Lat": 25.117433,
        "Lon": 121.503568,
        "Sequence": 17,
        "StationID": "157"
      },
      {
        "Name": "實踐街口",
        "Lat": 25.114726442462,
        "Lon": 121.506438836067,
        "Sequence": 18,
        "StationID": "480"
      },
      {
        "Name": "承德路七段",
        "Lat": 25.1127066443373,
        "Lon": 121.508727083955,
        "Sequence": 19,
        "StationID": "50641"
      },
      {
        "Name": "石牌福星宮",
        "Lat": 25.1095368758096,
        "Lon": 121.512347026452,
        "Sequence": 20,
        "StationID": "153"
      },
      {
        "Name": "文林國小",
        "Lat": 25.10803433,
        "Lon": 121.5139733,
        "Sequence": 21,
        "StationID": "94"
      },
      {
        "Name": "中正高中",
        "Lat": 25.105059,
        "Lon": 121.517803,
        "Sequence": 22,
        "StationID": "60"
      },
      {
        "Name": "捷運芝山站(戲曲中心)",
        "Lat": 25.1022630440787,
        "Lon": 121.520473605143,
        "Sequence": 23,
        "StationID": "800"
      },
      {
        "Name": "捷運芝山站一",
        "Lat": 25.1008497293525,
        "Lon": 121.522307508871,
        "Sequence": 24,
        "StationID": "1000347"
      },
      {
        "Name": "士林",
        "Lat": 25.0959118891448,
        "Lon": 121.524279381093,
        "Sequence": 25,
        "StationID": "569"
      },
      {
        "Name": "小北街",
        "Lat": 25.090999,
        "Lon": 121.526725,
        "Sequence": 26,
        "StationID": "1165604808"
      },
      {
        "Name": "捷運劍潭站(中山)",
        "Lat": 25.085353,
        "Lon": 121.525327,
        "Sequence": 27,
        "StationID": "803"
      },
      {
        "Name": "劍潭",
        "Lat": 25.0817595131148,
        "Lon": 121.524712226022,
        "Sequence": 28,
        "StationID": "1000266"
      },
      {
        "Name": "臺北市立美術館",
        "Lat": 25.070066233009,
        "Lon": 121.523095139749,
        "Sequence": 29,
        "StationID": "4121"
      },
      {
        "Name": "大同大學",
        "Lat": 25.0673,
        "Lon": 121.52244,
        "Sequence": 30,
        "StationID": "1170"
      },
      {
        "Name": "大同公司(晴光市場)",
        "Lat": 25.06438114,
        "Lon": 121.5221621,
        "Sequence": 31,
        "StationID": "1171"
      },
      {
        "Name": "台泥大樓(馬偕醫院)",
        "Lat": 25.0608309862107,
        "Lon": 121.522776776113,
        "Sequence": 32,
        "StationID": "1000155"
      },
      {
        "Name": "國賓飯店",
        "Lat": 25.0564276089864,
        "Lon": 121.522628910085,
        "Sequence": 33,
        "StationID": "1000156"
      },
      {
        "Name": "中山市場",
        "Lat": 25.05126405386,
        "Lon": 121.52202112765,
        "Sequence": 34,
        "StationID": "1000064"
      },
      {
        "Name": "行政院",
        "Lat": 25.046484462941,
        "Lon": 121.519759690546,
        "Sequence": 35,
        "StationID": "50688"
      },
      {
        "Name": "臺北車站(忠孝)",
        "Lat": 25.0465408,
        "Lon": 121.5167218,
        "Sequence": 36,
        "StationID": "1000082"
      },
      {
        "Name": "中華路北站",
        "Lat": 25.0445846194834,
        "Lon": 121.508765096201,
        "Sequence": 37,
        "StationID": "1001169"
      },
      {
        "Name": "捷運西門站",
        "Lat": 25.041649236993,
        "Lon": 121.507887356667,
        "Sequence": 38,
        "StationID": "4608"
      },
      {
        "Name": "小南門",
        "Lat": 25.0380081419194,
        "Lon": 121.506812536211,
        "Sequence": 39,
        "StationID": "1975"
      },
      {
        "Name": "老松國小",
        "Lat": 25.0382620086784,
        "Lon": 121.502569664855,
        "Sequence": 40,
        "StationID": "4613"
      }
    ]
  },
  {
    "Route": "218",
    "SubRoute": "218",
    "Direction": 1,
    "Stops": [
      {
        "Name": "祖師廟(貴陽)",
        "Lat": 25.0399728811606,
        "Lon": 121.502490233032,
        "Sequence": 1,
        "StationID": "1784"
      },
      {
        "Name": "貴陽街",
        "Lat": 25.03944952637,
        "Lon": 121.50582384788,
        "Sequence": 2,
        "StationID": "1806"
      },
      {
        "Name": "捷運西門站",
        "Lat": 25.041730058378,
        "Lon": 121.508285900629,
        "Sequence": 3,
        "StationID": "1793"
      },
      {
        "Name": "中華路北站",
        "Lat": 25.0456964941835,
        "Lon": 121.509380726049,
        "Sequence": 4,
        "StationID": "1744"
      },
      {
        "Name": "捷運北門站",
        "Lat": 25.0492507169836,
        "Lon": 121.510332531364,
        "Sequence": 5,
        "StationID": "50044"
      },
      {
        "Name": "臺北車站(鄭州)",
        "Lat": 25.0484971857801,
        "Lon": 121.51719764702355,
        "Sequence": 6,
        "StationID": "1895"
      },
      {
        "Name": "中山市場",
        "Lat": 25.050519,
        "Lon": 121.522081,
        "Sequence": 7,
        "StationID": "1000712"
      },
      {
        "Name": "國賓飯店",
        "Lat": 25.0562422589842,
        "Lon": 121.522969858739,
        "Sequence": 8,
        "StationID": "1000157"
      },
      {
        "Name": "台泥大樓(馬偕醫院)",
        "Lat": 25.06158152,
        "Lon": 121.5230341,
        "Sequence": 9,
        "StationID": "1000158"
      },
      {
        "Name": "大同公司(晴光市場)",
        "Lat": 25.0642887,
        "Lon": 121.5224722,
        "Sequence": 10,
        "StationID": "16264"
      },
      {
        "Name": "大同大學",
        "Lat": 25.06770081,
        "Lon": 121.5228199,
        "Sequence": 11,
        "StationID": "1169"
      },
      {
        "Name": "臺北市立美術館",
        "Lat": 25.0721395085303,
        "Lon": 121.523964286473,
        "Sequence": 12,
        "StationID": "101"
      },
      {
        "Name": "劍潭",
        "Lat": 25.0805889011559,
        "Lon": 121.524381872313,
        "Sequence": 13,
        "StationID": "50629"
      },
      {
        "Name": "捷運劍潭站(北藝中心)",
        "Lat": 25.084952,
        "Lon": 121.525031,
        "Sequence": 14,
        "StationID": "1000256"
      },
      {
        "Name": "小北街",
        "Lat": 25.0907094764658,
        "Lon": 121.526963489882,
        "Sequence": 15,
        "StationID": "10208"
      },
      {
        "Name": "士林",
        "Lat": 25.096111,
        "Lon": 121.524405,
        "Sequence": 16,
        "StationID": "10209"
      },
      {
        "Name": "捷運芝山站一",
        "Lat": 25.1007959524461,
        "Lon": 121.522657043885,
        "Sequence": 17,
        "StationID": "801"
      },
      {
        "Name": "捷運芝山站(戲曲中心)",
        "Lat": 25.1025,
        "Lon": 121.52067,
        "Sequence": 18,
        "StationID": "1000388"
      },
      {
        "Name": "中正高中",
        "Lat": 25.1058289859016,
        "Lon": 121.517290935039,
        "Sequence": 19,
        "StationID": "1000348"
      },
      {
        "Name": "文林國小",
        "Lat": 25.1075998291069,
        "Lon": 121.515036396953,
        "Sequence": 20,
        "StationID": "55017"
      },
      {
        "Name": "石牌福星宮",
        "Lat": 25.1104478952371,
        "Lon": 121.511778736417,
        "Sequence": 21,
        "StationID": "1000349"
      },
      {
        "Name": "承德路七段",
        "Lat": 25.11294,
        "Lon": 121.50901,
        "Sequence": 22,
        "StationID": "224"
      },
      {
        "Name": "實踐街口",
        "Lat": 25.1140889844948,
        "Lon": 121.507720173671,
        "Sequence": 23,
        "StationID": "3958"
      },
      {
        "Name": "立賢承德路口",
        "Lat": 25.11585,
        "Lon": 121.50576,
        "Sequence": 24,
        "StationID": "1165609055"
      },
      {
        "Name": "立農國小",
        "Lat": 25.1173181486975,
        "Lon": 121.504190816017,
        "Sequence": 25,
        "StationID": "158"
      },
      {
        "Name": "承德公舘路口",
        "Lat": 25.11997,
        "Lon": 121.501232,
        "Sequence": 26,
        "StationID": "3959"
      },
      {
        "Name": "大業路(農禪寺)",
        "Lat": 25.122792,
        "Lon": 121.49951,
        "Sequence": 27,
        "StationID": "40"
      },
      {
        "Name": "鳳甲美術館",
        "Lat": 25.126464,
        "Lon": 121.498447,
        "Sequence": 28,
        "StationID": "506"
      },
      {
        "Name": "大業路(大興街口)",
        "Lat": 25.12909,
        "Lon": 121.49742,
        "Sequence": 29,
        "StationID": "41"
      },
      {
        "Name": "大興街口",
        "Lat": 25.130578,
        "Lon": 121.499403,
        "Sequence": 30,
        "StationID": "45"
      },
      {
        "Name": "捷運北投站(北投)",
        "Lat": 25.132300275375297,
        "Lon": 121.49796757939285,
        "Sequence": 31,
        "StationID": "358"
      },
      {
        "Name": "幼華高中(北投)",
        "Lat": 25.13423,
        "Lon": 121.49683,
        "Sequence": 32,
        "StationID": "5"
      },
      {
        "Name": "大業中央北路口",
        "Lat": 25.135605,
        "Lon": 121.498029,
        "Sequence": 33,
        "StationID": "50062"
      },
      {
        "Name": "北投國小",
        "Lat": 25.13384543,
        "Lon": 121.5007209,
        "Sequence": 34,
        "StationID": "120"
      },
      {
        "Name": "第一銀行",
        "Lat": 25.13489933134952,
        "Lon": 121.50256846263959,
        "Sequence": 35,
        "StationID": "7239"
      },
      {
        "Name": "北投公園",
        "Lat": 25.13658039419034,
        "Lon": 121.50444128215462,
        "Sequence": 36,
        "StationID": "113"
      },
      {
        "Name": "新北投",
        "Lat": 25.1377878885811,
        "Lon": 121.503116860832,
        "Sequence": 37,
        "StationID": "4113"
      },
      {
        "Name": "中和街",
        "Lat": 25.1392080991718,
        "Lon": 121.501688456724,
        "Sequence": 38,
        "StationID": "7238"
      },
      {
        "Name": "復興中學",
        "Lat": 25.140779616914,
        "Lon": 121.50003982457,
        "Sequence": 39,
        "StationID": "3990"
      },
      {
        "Name": "中和里",
        "Lat": 25.1422718056895,
        "Lon": 121.498822886077,
        "Sequence": 40,
        "StationID": "7237"
      },
      {
        "Name": "國泰新村",
        "Lat": 25.1434882184522,
        "Lon": 121.498191201655,
        "Sequence": 41,
        "StationID": "3991"
      },
      {
        "Name": "慈航寺",
        "Lat": 25.144813,
        "Lon": 121.496498,
        "Sequence": 42,
        "StationID": "3995"
      },
      {
        "Name": "秀山里",
        "Lat": 25.1454283711567,
        "Lon": 121.494135327259,
        "Sequence": 43,
        "StationID": "7236"
      },
      {
        "Name": "貴子坑水土保持園區",
        "Lat": 25.1452633730156,
        "Lon": 121.492633753399,
        "Sequence": 44,
        "StationID": "1000350"
      },
      {
        "Name": "北投站",
        "Lat": 25.144595,
        "Lon": 121.492071,
        "Sequence": 45,
        "StationID": "1000351"
      }
    ]
  }
]