[
  {
    "Route": "758",
    "SubRoute": "758(五股發車)",
    "Direction": 0,
    "Stops": [
      {
        "Name": "明日世界",
        "Lat": 25.07430648,
        "Lon": 121.4351234,
        "Sequence": 1,
        "StationID": "3730"
      },
      {
        "Name": "德音國小",
        "Lat": 25.07182,
        "Lon": 121.43563,
        "Sequence": 2,
        "StationID": "3731"
      },
      {
        "Name": "遠東物流",
        "Lat": 25.06966085,
        "Lon": 121.4353791,
        "Sequence": 3,
        "StationID": "3762"
      },
      {
        "Name": "大窠橋",
        "Lat": 25.06761,
        "Lon": 121.43454,
        "Sequence": 4,
        "StationID": "3702"
      },
      {
        "Name": "明志和平路口",
        "Lat": 25.06526521,
        "Lon": 121.433433,
        "Sequence": 5,
        "StationID": "36059"
      },
      {
        "Name": "泰山郵局",
        "Lat": 25.06216,
        "Lon": 121.432904,
        "Sequence": 6,
        "StationID": "3629"
      },
      {
        "Name": "下泰山巖",
        "Lat": 25.061074,
        "Lon": 121.432389,
        "Sequence": 7,
        "StationID": "3607"
      },
      {
        "Name": "泰山區公所",
        "Lat": 25.058131,
        "Lon": 121.430718,
        "Sequence": 8,
        "StationID": "3627"
      },
      {
        "Name": "泰山高中",
        "Lat": 25.056466,
        "Lon": 121.430655,
        "Sequence": 9,
        "StationID": "3624"
      },
      {
        "Name": "同榮里",
        "Lat": 25.054419,
        "Lon": 121.430406,
        "Sequence": 10,
        "StationID": "3613"
      },
      {
        "Name": "義學里",
        "Lat": 25.05149832,
        "Lon": 121.4278259,
        "Sequence": 11,
        "StationID": "36063"
      },
      {
        "Name": "文程路口",
        "Lat": 25.04957047,
        "Lon": 121.4274415,
        "Sequence": 12,
        "StationID": "3612"
      },
      {
        "Name": "明志里",
        "Lat": 25.048028,
        "Lon": 121.42698,
        "Sequence": 13,
        "StationID": "1000984"
      },
      {
        "Name": "明志國小",
        "Lat": 25.0454414,
        "Lon": 121.4259089,
        "Sequence": 14,
        "StationID": "36065"
      },
      {
        "Name": "泰山巖",
        "Lat": 25.04275923,
        "Lon": 121.4247892,
        "Sequence": 15,
        "StationID": "3631"
      },
      {
        "Name": "明志科技大學",
        "Lat": 25.03898947,
        "Lon": 121.4241632,
        "Sequence": 16,
        "StationID": "1000985"
      },
      {
        "Name": "宏泰新村",
        "Lat": 25.037323,
        "Lon": 121.423173,
        "Sequence": 17,
        "StationID": "3616"
      },
      {
        "Name": "下坡角",
        "Lat": 25.03513,
        "Lon": 121.42184,
        "Sequence": 18,
        "StationID": "36068"
      },
      {
        "Name": "捷運泰山貴和站(明志路)",
        "Lat": 25.03317,
        "Lon": 121.42081,
        "Sequence": 19,
        "StationID": "3632"
      },
      {
        "Name": "丹鳳一",
        "Lat": 25.030166,
        "Lon": 121.420498,
        "Sequence": 20,
        "StationID": "3511"
      },
      {
        "Name": "捷運丹鳳站",
        "Lat": 25.028741,
        "Lon": 121.422375,
        "Sequence": 21,
        "StationID": "30006"
      },
      {
        "Name": "三洋",
        "Lat": 25.03016,
        "Lon": 121.42685,
        "Sequence": 22,
        "StationID": "30007"
      },
      {
        "Name": "營盤口",
        "Lat": 25.031553,
        "Lon": 121.431382,
        "Sequence": 23,
        "StationID": "3602"
      },
      {
        "Name": "捷運輔大站",
        "Lat": 25.032612,
        "Lon": 121.435466,
        "Sequence": 24,
        "StationID": "30001"
      },
      {
        "Name": "盲人重建院",
        "Lat": 25.033904,
        "Lon": 121.442607,
        "Sequence": 25,
        "StationID": "50616"
      },
      {
        "Name": "海山里",
        "Lat": 25.034382,
        "Lon": 121.44483,
        "Sequence": 26,
        "StationID": "30002"
      },
      {
        "Name": "新泰路口",
        "Lat": 25.034987,
        "Lon": 121.447739,
        "Sequence": 27,
        "StationID": "30003"
      },
      {
        "Name": "捷運新莊站(新莊郵局)",
        "Lat": 25.035445,
        "Lon": 121.449908,
        "Sequence": 28,
        "StationID": "1000433"
      },
      {
        "Name": "新莊國小",
        "Lat": 25.036727,
        "Lon": 121.456562,
        "Sequence": 29,
        "StationID": "30025"
      },
      {
        "Name": "保元宮",
        "Lat": 25.038242,
        "Lon": 121.459593,
        "Sequence": 30,
        "StationID": "30004"
      },
      {
        "Name": "捷運頭前庄站",
        "Lat": 25.03991225,
        "Lon": 121.4623098,
        "Sequence": 31,
        "StationID": "1000983"
      },
      {
        "Name": "頭前",
        "Lat": 25.041731,
        "Lon": 121.46516,
        "Sequence": 32,
        "StationID": "30005"
      },
      {
        "Name": "金陵女中",
        "Lat": 25.0427471,
        "Lon": 121.4665635,
        "Sequence": 33,
        "StationID": "13207"
      },
      {
        "Name": "中興街口",
        "Lat": 25.045403,
        "Lon": 121.469408,
        "Sequence": 34,
        "StationID": "13218"
      },
      {
        "Name": "捷運先嗇宮站",
        "Lat": 25.046158,
        "Lon": 121.471374,
        "Sequence": 35,
        "StationID": "4687"
      },
      {
        "Name": "五谷王廟",
        "Lat": 25.047009,
        "Lon": 121.473986,
        "Sequence": 36,
        "StationID": "3409"
      },
      {
        "Name": "重新大橋",
        "Lat": 25.05142477,
        "Lon": 121.4876744,
        "Sequence": 37,
        "StationID": "13203"
      },
      {
        "Name": "西門國小(臺大醫院北護分院)",
        "Lat": 25.042608,
        "Lon": 121.502346,
        "Sequence": 38,
        "StationID": "70028"
      },
      {
        "Name": "臺北護理健康大學",
        "Lat": 25.041536,
        "Lon": 121.50367,
        "Sequence": 39,
        "StationID": "1842"
      },
      {
        "Name": "內江街",
        "Lat": 25.04153818,
        "Lon": 121.5051324,
        "Sequence": 40,
        "StationID": "1741"
      },
      {
        "Name": "西門市場(漢中)",
        "Lat": 25.04202065,
        "Lon": 121.507436,
        "Sequence": 41,
        "StationID": "1753"
      },
      {
        "Name": "東吳大學城中校區",
        "Lat": 25.0390539,
        "Lon": 121.5091008,
        "Sequence": 42,
        "StationID": "1936"
      },
      {
        "Name": "一女中(貴陽)",
        "Lat": 25.0385833202908,
        "Lon": 121.514486272409,
        "Sequence": 43,
        "StationID": "4612"
      },
      {
        "Name": "中正紀念堂",
        "Lat": 25.03723469016352,
        "Lon": 121.52070098538395,
        "Sequence": 44,
        "StationID": "1946"
      },
      {
        "Name": "信義杭州路口",
        "Lat": 25.03564868242583,
        "Lon": 121.52392406077344,
        "Sequence": 45,
        "StationID": "2125"
      },
      {
        "Name": "捷運東門站",
        "Lat": 25.034191768178662,
        "Lon": 121.5268262109198,
        "Sequence": 46,
        "StationID": "6940"
      },
      {
        "Name": "信義永康街口(捷運東門站)",
        "Lat": 25.03372668176573,
        "Lon": 121.52972531757206,
        "Sequence": 47,
        "StationID": "2116"
      },
      {
        "Name": "信義新生路口",
        "Lat": 25.033583332926412,
        "Lon": 121.5321735300744,
        "Sequence": 48,
        "StationID": "2133"
      },
      {
        "Name": "捷運大安森林公園站",
        "Lat": 25.03352937220551,
        "Lon": 121.53542376322785,
        "Sequence": 49,
        "StationID": "1000057"
      },
      {
        "Name": "信義建國路口",
        "Lat": 25.033444679044305,
        "Lon": 121.53906320415818,
        "Sequence": 50,
        "StationID": "2127"
      },
      {
        "Name": "捷運大安站(信義)",
        "Lat": 25.033375050631893,
        "Lon": 121.54326844618258,
        "Sequence": 51,
        "StationID": "1000109"
      },
      {
        "Name": "信義大安路口",
        "Lat": 25.03331117343357,
        "Lon": 121.54563534893852,
        "Sequence": 52,
        "StationID": "2112"
      },
      {
        "Name": "信義敦化路口",
        "Lat": 25.033281131508218,
        "Lon": 121.54820957149374,
        "Sequence": 53,
        "StationID": "2286"
      },
      {
        "Name": "捷運信義安和站(信義)",
        "Lat": 25.033180975171472,
        "Lon": 121.55122687477919,
        "Sequence": 54,
        "StationID": "2119"
      },
      {
        "Name": "信義通化街口",
        "Lat": 25.0330873803964,
        "Lon": 121.553994124674,
        "Sequence": 55,
        "StationID": "2131"
      },
      {
        "Name": "信義光復路口",
        "Lat": 25.03311,
        "Lon": 121.55687,
        "Sequence": 56,
        "StationID": "2118"
      },
      {
        "Name": "吳興街口",
        "Lat": 25.03159406,
        "Lon": 121.5586001,
        "Sequence": 57,
        "StationID": "1000294"
      },
      {
        "Name": "三興國小(臨江街觀光夜市)",
        "Lat": 25.028215,
        "Lon": 121.556522,
        "Sequence": 58,
        "StationID": "1000295"
      },
      {
        "Name": "喬治商職",
        "Lat": 25.02686,
        "Lon": 121.555194,
        "Sequence": 59,
        "StationID": "1165604825"
      },
      {
        "Name": "捷運六張犁站(和平)",
        "Lat": 25.0232432826612,
        "Lon": 121.553534505165,
        "Sequence": 60,
        "StationID": "2146"
      },
      {
        "Name": "富陽街口",
        "Lat": 25.0210340657202,
        "Lon": 121.555910878022,
        "Sequence": 61,
        "StationID": "2085"
      },
      {
        "Name": "黎忠市場",
        "Lat": 25.01926083,
        "Lon": 121.5578044,
        "Sequence": 62,
        "StationID": "2172"
      },
      {
        "Name": "捷運麟光站",
        "Lat": 25.01825,
        "Lon": 121.55853,
        "Sequence": 63,
        "StationID": "2157"
      },
      {
        "Name": "麟光站",
        "Lat": 25.015473,
        "Lon": 121.561041,
        "Sequence": 64,
        "StationID": "2182"
      },
      {
        "Name": "大我新舍",
        "Lat": 25.0138741581322,
        "Lon": 121.562466432938,
        "Sequence": 65,
        "StationID": "2194"
      }
    ]
  },
  {
    "Route": "758",
    "SubRoute": "758(五股發車)",
    "Direction": 1,
    "Stops": [
      {
        "Name": "大我新舍",
        "Lat": 25.0143745337282,
        "Lon": 121.562293962737,
        "Sequence": 1,
        "StationID": "2193"
      },
      {
        "Name": "麟光站",
        "Lat": 25.015923661863052,
        "Lon": 121.56085606375822,
        "Sequence": 2,
        "StationID": "6017"
      },
      {
        "Name": "黎忠市場",
        "Lat": 25.019475,
        "Lon": 121.557953,
        "Sequence": 3,
        "StationID": "6015"
      },
      {
        "Name": "富陽街口",
        "Lat": 25.021127,
        "Lon": 121.55616,
        "Sequence": 4,
        "StationID": "2160"
      },
      {
        "Name": "捷運六張犁站(和平)",
        "Lat": 25.022926,
        "Lon": 121.554225,
        "Sequence": 5,
        "StationID": "2147"
      },
      {
        "Name": "喬治商職",
        "Lat": 25.02628003,
        "Lon": 121.5549231,
        "Sequence": 6,
        "StationID": "2159"
      },
      {
        "Name": "三興國小(臨江街觀光夜市)",
        "Lat": 25.028593,
        "Lon": 121.557084,
        "Sequence": 7,
        "StationID": "2035"
      },
      {
        "Name": "吳興街口",
        "Lat": 25.03159637,
        "Lon": 121.5588464,
        "Sequence": 8,
        "StationID": "2080"
      },
      {
        "Name": "世貿中心(基隆路)",
        "Lat": 25.0336776976,
        "Lon": 121.5601565129,
        "Sequence": 9,
        "StationID": "15120"
      },
      {
        "Name": "信義光復路口",
        "Lat": 25.0331,
        "Lon": 121.55813,
        "Sequence": 10,
        "StationID": "2117"
      },
      {
        "Name": "信義通化街口",
        "Lat": 25.03319343,
        "Lon": 121.5546221,
        "Sequence": 11,
        "StationID": "2132"
      },
      {
        "Name": "捷運信義安和站(信義)",
        "Lat": 25.033223,
        "Lon": 121.552849,
        "Sequence": 12,
        "StationID": "1000107"
      },
      {
        "Name": "信義敦化路口",
        "Lat": 25.03337757,
        "Lon": 121.549449,
        "Sequence": 13,
        "StationID": "2329"
      },
      {
        "Name": "信義大安路口",
        "Lat": 25.0333837,
        "Lon": 121.5461666,
        "Sequence": 14,
        "StationID": "2113"
      },
      {
        "Name": "捷運大安站(信義)",
        "Lat": 25.03340442,
        "Lon": 121.5438266,
        "Sequence": 15,
        "StationID": "2282"
      },
      {
        "Name": "師大附中",
        "Lat": 25.033382,
        "Lon": 121.542275,
        "Sequence": 16,
        "StationID": "2281"
      },
      {
        "Name": "信義建國路口",
        "Lat": 25.033528900407934,
        "Lon": 121.53846436682753,
        "Sequence": 17,
        "StationID": "2128"
      },
      {
        "Name": "捷運大安森林公園站",
        "Lat": 25.0335848362393,
        "Lon": 121.536053834429,
        "Sequence": 18,
        "StationID": "1000056"
      },
      {
        "Name": "信義新生路口",
        "Lat": 25.033641163337222,
        "Lon": 121.53336986167852,
        "Sequence": 19,
        "StationID": "2134"
      },
      {
        "Name": "信義永康街口",
        "Lat": 25.033725370699948,
        "Lon": 121.53039498137659,
        "Sequence": 20,
        "StationID": "2115"
      },
      {
        "Name": "捷運東門站",
        "Lat": 25.034084364885075,
        "Lon": 121.52775567033312,
        "Sequence": 21,
        "StationID": "6939"
      },
      {
        "Name": "信義杭州路口",
        "Lat": 25.035289619677716,
        "Lon": 121.5247830381989,
        "Sequence": 22,
        "StationID": "2126"
      },
      {
        "Name": "中正紀念堂",
        "Lat": 25.03734153832383,
        "Lon": 121.52065828149863,
        "Sequence": 23,
        "StationID": "1947"
      },
      {
        "Name": "一女中(貴陽)",
        "Lat": 25.0386560843846,
        "Lon": 121.514498656168,
        "Sequence": 24,
        "StationID": "4611"
      },
      {
        "Name": "東吳大學城中校區",
        "Lat": 25.03918,
        "Lon": 121.50941,
        "Sequence": 25,
        "StationID": "4610"
      },
      {
        "Name": "西門市場(成都)",
        "Lat": 25.042689544956,
        "Lon": 121.50665358531,
        "Sequence": 26,
        "StationID": "1752"
      },
      {
        "Name": "西門國小",
        "Lat": 25.043299072488,
        "Lon": 121.50400338161,
        "Sequence": 27,
        "StationID": "1754"
      },
      {
        "Name": "重新大橋",
        "Lat": 25.05174,
        "Lon": 121.487734,
        "Sequence": 28,
        "StationID": "3446"
      },
      {
        "Name": "五谷王廟",
        "Lat": 25.04728267,
        "Lon": 121.4740976,
        "Sequence": 29,
        "StationID": "1000966"
      },
      {
        "Name": "捷運先嗇宮站",
        "Lat": 25.046125,
        "Lon": 121.47048,
        "Sequence": 30,
        "StationID": "4688"
      },
      {
        "Name": "中興街口",
        "Lat": 25.044972,
        "Lon": 121.468523,
        "Sequence": 31,
        "StationID": "3418"
      },
      {
        "Name": "金陵女中",
        "Lat": 25.043117,
        "Lon": 121.466676,
        "Sequence": 32,
        "StationID": "3436"
      },
      {
        "Name": "頭前",
        "Lat": 25.041063159,
        "Lon": 121.4636349,
        "Sequence": 33,
        "StationID": "3593"
      },
      {
        "Name": "捷運頭前庄站",
        "Lat": 25.040058,
        "Lon": 121.462079,
        "Sequence": 34,
        "StationID": "1000604"
      },
      {
        "Name": "大眾廟",
        "Lat": 25.03714826,
        "Lon": 121.4573883,
        "Sequence": 35,
        "StationID": "3493"
      },
      {
        "Name": "捷運新莊站(新莊郵局)",
        "Lat": 25.035639,
        "Lon": 121.449807,
        "Sequence": 36,
        "StationID": "3567"
      },
      {
        "Name": "新泰路口",
        "Lat": 25.035329,
        "Lon": 121.44814,
        "Sequence": 37,
        "StationID": "3565"
      },
      {
        "Name": "海山里",
        "Lat": 25.034808,
        "Lon": 121.445934,
        "Sequence": 38,
        "StationID": "3552"
      },
      {
        "Name": "盲人重建院",
        "Lat": 25.0337008431394,
        "Lon": 121.440631678538,
        "Sequence": 39,
        "StationID": "3543"
      },
      {
        "Name": "捷運輔大站",
        "Lat": 25.03275227,
        "Lon": 121.4347821,
        "Sequence": 40,
        "StationID": "3589"
      },
      {
        "Name": "營盤口",
        "Lat": 25.031456,
        "Lon": 121.43029,
        "Sequence": 41,
        "StationID": "8204"
      },
      {
        "Name": "三洋",
        "Lat": 25.030319,
        "Lon": 121.426759,
        "Sequence": 42,
        "StationID": "3490"
      },
      {
        "Name": "捷運丹鳳站",
        "Lat": 25.028858,
        "Lon": 121.422143,
        "Sequence": 43,
        "StationID": "3510"
      },
      {
        "Name": "丹鳳一",
        "Lat": 25.028728,
        "Lon": 121.420111,
        "Sequence": 44,
        "StationID": "1000986"
      },
      {
        "Name": "捷運泰山貴和站(明志路)",
        "Lat": 25.032992,
        "Lon": 121.421012,
        "Sequence": 45,
        "StationID": "50406"
      },
      {
        "Name": "下坡角",
        "Lat": 25.03488,
        "Lon": 121.421841,
        "Sequence": 46,
        "StationID": "3605"
      },
      {
        "Name": "宏泰新村",
        "Lat": 25.036664,
        "Lon": 121.422989,
        "Sequence": 47,
        "StationID": "36067"
      },
      {
        "Name": "明志科技大學",
        "Lat": 25.039702,
        "Lon": 121.424821,
        "Sequence": 48,
        "StationID": "3618"
      },
      {
        "Name": "泰山巖",
        "Lat": 25.042955,
        "Lon": 121.42495,
        "Sequence": 49,
        "StationID": "36066"
      },
      {
        "Name": "明志國小",
        "Lat": 25.045341,
        "Lon": 121.426046,
        "Sequence": 50,
        "StationID": "3619"
      },
      {
        "Name": "明志里",
        "Lat": 25.04793,
        "Lon": 121.427172,
        "Sequence": 51,
        "StationID": "3617"
      },
      {
        "Name": "文程路口",
        "Lat": 25.04923,
        "Lon": 121.42758,
        "Sequence": 52,
        "StationID": "36064"
      },
      {
        "Name": "義學里",
        "Lat": 25.051508,
        "Lon": 121.42809,
        "Sequence": 53,
        "StationID": "3633"
      },
      {
        "Name": "同榮里",
        "Lat": 25.054264,
        "Lon": 121.43054,
        "Sequence": 54,
        "StationID": "36062"
      },
      {
        "Name": "泰山高中",
        "Lat": 25.05674382,
        "Lon": 121.4308068,
        "Sequence": 55,
        "StationID": "36061"
      },
      {
        "Name": "泰山區公所",
        "Lat": 25.05829241,
        "Lon": 121.4309468,
        "Sequence": 56,
        "StationID": "3628"
      },
      {
        "Name": "下泰山巖",
        "Lat": 25.0607,
        "Lon": 121.432411,
        "Sequence": 57,
        "StationID": "3606"
      },
      {
        "Name": "泰山郵局",
        "Lat": 25.063193,
        "Lon": 121.43342,
        "Sequence": 58,
        "StationID": "36060"
      },
      {
        "Name": "明志和平路口",
        "Lat": 25.064906,
        "Lon": 121.433605,
        "Sequence": 59,
        "StationID": "1000956"
      },
      {
        "Name": "大窠橋",
        "Lat": 25.06721,
        "Lon": 121.43438,
        "Sequence": 60,
        "StationID": "36019"
      },
      {
        "Name": "遠東物流",
        "Lat": 25.069564,
        "Lon": 121.435546,
        "Sequence": 61,
        "StationID": "36018"
      },
      {
        "Name": "德音國小",
        "Lat": 25.07179,
        "Lon": 121.43576,
        "Sequence": 62,
        "StationID": "36041"
      },
      {
        "Name": "明日世界",
        "Lat": 25.074753,
        "Lon": 121.435263,
        "Sequence": 63,
        "StationID": "1000987"
      }
    ]
  },
  {
    "Route": "758",
    "SubRoute": "758(麟光發車)",
    "Direction": 1,
    "Stops": [
      {
        "Name": "大我新舍",
        "Lat": 25.0143745337282,
        "Lon": 121.562293962737,
        "Sequence": 1,
        "StationID": "2193"
      },
      {
        "Name": "麟光站",
        "Lat": 25.015923661863052,
        "Lon": 121.56085606375822,
        "Sequence": 2,
        "StationID": "6017"
      },
      {
        "Name": "黎忠市場",
        "Lat": 25.019475,
        "Lon": 121.557953,
        "Sequence": 3,
        "StationID": "6015"
      },
      {
        "Name": "富陽街口",
        "Lat": 25.021127,
        "Lon": 121.55616,
        "Sequence": 4,
        "StationID": "2160"
      },
      {
        "Name": "捷運六張犁站(和平)",
        "Lat": 25.022926,
        "Lon": 121.554225,
        "Sequence": 5,
        "StationID": "2147"
      },
      {
        "Name": "喬治商職",
        "Lat": 25.02628003,
        "Lon": 121.5549231,
        "Sequence": 6,
        "StationID": "2159"
      },
      {
        "Name": "三興國小(臨江街觀光夜市)",
        "Lat": 25.028593,
        "Lon": 121.557084,
        "Sequence": 7,
        "StationID": "2035"
      },
      {
        "Name": "吳興街口",
        "Lat": 25.03159637,
        "Lon": 121.5588464,
        "Sequence": 8,
        "StationID": "2080"
      },
      {
        "Name": "世貿中心(基隆路)",
        "Lat": 25.0336776976,
        "Lon": 121.5601565129,
        "Sequence": 9,
        "StationID": "15120"
      },
      {
        "Name": "信義光復路口",
        "Lat": 25.0331,
        "Lon": 121.55813,
        "Sequence": 10,
        "StationID": "2117"
      },
      {
        "Name": "信義通化街口",
        "Lat": 25.03319343,
        "Lon": 121.5546221,
        "Sequence": 11,
        "StationID": "2132"
      },
      {
        "Name": "捷運信義安和站(信義)",
        "Lat": 25.033223,
        "Lon": 121.552849,
        "Sequence": 12,
        "StationID": "1000107"
      },
      {
        "Name": "信義敦化路口",
        "Lat": 25.03337757,
        "Lon": 121.549449,
        "Sequence": 13,
        "StationID": "2329"
      },
      {
        "Name": "信義大安路口",
        "Lat": 25.0333837,
        "Lon": 121.5461666,
        "Sequence": 14,
        "StationID": "2113"
      },
      {
        "Name": "捷運大安站(信義)",
        "Lat": 25.03340442,
        "Lon": 121.5438266,
        "Sequence": 15,
        "StationID": "2282"
      },
      {
        "Name": "師大附中",
        "Lat": 25.033382,
        "Lon": 121.542275,
        "Sequence": 16,
        "StationID": "2281"
      },
      {
        "Name": "信義建國路口",
        "Lat": 25.033528900407934,
        "Lon": 121.53846436682753,
        "Sequence": 17,
        "StationID": "2128"
      },
      {
        "Name": "捷運大安森林公園站",
        "Lat": 25.0335848362393,
        "Lon": 121.536053834429,
        "Sequence": 18,
        "StationID": "1000056"
      },
      {
        "Name": "信義新生路口",
        "Lat": 25.033641163337222,
        "Lon": 121.53336986167852,
        "Sequence": 19,
        "StationID": "2134"
      },
      {
        "Name": "信義永康街口",
        "Lat": 25.033725370699948,
        "Lon": 121.53039498137659,
        "Sequence": 20,
        "StationID": "2115"
      },
      {
        "Name": "捷運東門站",
        "Lat": 25.034084364885075,
        "Lon": 121.52775567033312,
        "Sequence": 21,
        "StationID": "6939"
      },
      {
        "Name": "信義杭州路口",
        "Lat": 25.035289619677716,
        "Lon": 121.5247830381989,
        "Sequence": 22,
        "StationID": "2126"
      },
      {
        "Name": "中正紀念堂",
        "Lat": 25.03734153832383,
        "Lon": 121.52065828149863,
        "Sequence": 23,
        "StationID": "1947"
      },
      {
        "Name": "一女中(貴陽)",
        "Lat": 25.0386560843846,
        "Lon": 121.514498656168,
        "Sequence": 24,
        "StationID": "4611"
      },
      {
        "Name": "東吳大學城中校區",
        "Lat": 25.03918,
        "Lon": 121.50941,
        "Sequence": 25,
        "StationID": "4610"
      },
      {
        "Name": "西門市場(成都)",
        "Lat": 25.042689544956,
        "Lon": 121.50665358531,
        "Sequence": 26,
        "StationID": "1752"
      },
      {
        "Name": "西門國小",
        "Lat": 25.043299072488,
        "Lon": 121.50400338161,
        "Sequence": 27,
        "StationID": "1754"
      },
      {
        "Name": "重新大橋",
        "Lat": 25.05174,
        "Lon": 121.487734,
        "Sequence": 28,
        "StationID": "3446"
      },
      {
        "Name": "五谷王廟",
        "Lat": 25.04728267,
        "Lon": 121.4740976,
        "Sequence": 29,
        "StationID": "1000966"
      },
      {
        "Name": "捷運先嗇宮站",
        "Lat": 25.046125,
        "Lon": 121.47048,
        "Sequence": 30,
        "StationID": "4688"
      },
      {
        "Name": "中興街口",
        "Lat": 25.044972,
        "Lon": 121.468523,
        "Sequence": 31,
        "StationID": "3418"
      },
      {
        "Name": "金陵女中",
        "Lat": 25.043117,
        "Lon": 121.466676,
        "Sequence": 32,
        "StationID": "3436"
      },
      {
        "Name": "頭前",
        "Lat": 25.041063159,
        "Lon": 121.4636349,
        "Sequence": 33,
        "StationID": "3593"
      },
      {
        "Name": "捷運頭前庄站",
        "Lat": 25.040058,
        "Lon": 121.462079,
        "Sequence": 34,
        "StationID": "1000604"
      },
      {
        "Name": "大眾廟",
        "Lat": 25.03714826,
        "Lon": 121.4573883,
        "Sequence": 35,
        "StationID": "3493"
      },
      {
        "Name": "捷運新莊站(新莊郵局)",
        "Lat": 25.035639,
        "Lon": 121.449807,
        "Sequence": 36,
        "StationID": "3567"
      },
      {
        "Name": "新泰路口",
        "Lat": 25.035329,
        "Lon": 121.44814,
        "Sequence": 37,
        "StationID": "3565"
      },
      {
        "Name": "海山里",
        "Lat": 25.034808,
        "Lon": 121.445934,
        "Sequence": 38,
        "StationID": "3552"
      },
      {
        "Name": "盲人重建院",
        "Lat": 25.0337008431394,
        "Lon": 121.440631678538,
        "Sequence": 39,
        "StationID": "3543"
      },
      {
        "Name": "捷運輔大站",
        "Lat": 25.03275227,
        "Lon": 121.4347821,
        "Sequence": 40,
        "StationID": "3589"
      },
      {
        "Name": "營盤口",
        "Lat": 25.031456,
        "Lon": 121.43029,
        "Sequence": 41,
        "StationID": "8204"
      },
      {
        "Name": "三洋",
        "Lat": 25.030319,
        "Lon": 121.426759,
        "Sequence": 42,
        "StationID": "3490"
      },
      {
        "Name": "捷運丹鳳站",
        "Lat": 25.028858,
        "Lon": 121.422143,
        "Sequence": 43,
        "StationID": "3510"
      },
      {
        "Name": "丹鳳一",
        "Lat": 25.028728,
        "Lon": 121.420111,
        "Sequence": 44,
        "StationID": "1000986"
      },
      {
        "Name": "捷運泰山貴和站(明志路)",
        "Lat": 25.032992,
        "Lon": 121.421012,
        "Sequence": 45,
        "StationID": "50406"
      },
      {
        "Name": "下坡角",
        "Lat": 25.03488,
        "Lon": 121.421841,
        "Sequence": 46,
        "StationID": "3605"
      },
      {
        "Name": "宏泰新村",
        "Lat": 25.036664,
        "Lon": 121.422989,
        "Sequence": 47,
        "StationID": "36067"
      },
      {
        "Name": "明志科技大學",
        "Lat": 25.039702,
        "Lon": 121.424821,
        "Sequence": 48,
        "StationID": "3618"
      },
      {
        "Name": "泰山巖",
        "Lat": 25.042955,
        "Lon": 121.42495,
        "Sequence": 49,
        "StationID": "36066"
      },
      {
        "Name": "明志國小",
        "Lat": 25.045341,
        "Lon": 121.426046,
        "Sequence": 50,
        "StationID": "3619"
      },
      {
        "Name": "明志里",
        "Lat": 25.04793,
        "Lon": 121.427172,
        "Sequence": 51,
        "StationID": "3617"
      },
      {
        "Name": "文程路口",
        "Lat": 25.04923,
        "Lon": 121.42758,
        "Sequence": 52,
        "StationID": "36064"
      },
      {
        "Name": "義學里",
        "Lat": 25.051508,
        "Lon": 121.42809,
        "Sequence": 53,
        "StationID": "3633"
      },
      {
        "Name": "同榮里",
        "Lat": 25.054264,
        "Lon": 121.43054,
        "Sequence": 54,
        "StationID": "36062"
      },
      {
        "Name": "泰山高中",
        "Lat": 25.05674382,
        "Lon": 121.4308068,
        "Sequence": 55,
        "StationID": "36061"
      },
      {
        "Name": "泰山區公所",
        "Lat": 25.05829241,
        "Lon": 121.4309468,
        "Sequence": 56,
        "StationID": "3628"
      },
      {
        "Name": "下泰山巖",
        "Lat": 25.0607,
        "Lon": 121.432411,
        "Sequence": 57,
        "StationID": "3606"
      },
      {
        "Name": "泰山郵局",
        "Lat": 25.063193,
        "Lon": 121.43342,
        "Sequence": 58,
        "StationID": "36060"
      },
      {
        "Name": "明志和平路口",
        "Lat": 25.064906,
        "Lon": 121.433605,
        "Sequence": 59,
        "StationID": "1000956"
      },
      {
        "Name": "大窠橋",
        "Lat": 25.06721,
        "Lon": 121.43438,
        "Sequence": 60,
        "StationID": "36019"
      },
      {
        "Name": "遠東物流",
        "Lat": 25.069564,
        "Lon": 121.435546,
        "Sequence": 61,
        "StationID": "36018"
      },
      {
        "Name": "德音國小",
        "Lat": 25.07179,
        "Lon": 121.43576,
        "Sequence": 62,
        "StationID": "36041"
      },
      {
        "Name": "明日世界",
        "Lat": 25.074753,
        "Lon": 121.435263,
        "Sequence": 63,
        "StationID": "1000987"
      }
    ]
  }
]