[
  {
    "Route": "254",
    "SubRoute": "254",
    "Direction": 0,
    "Stops": [
      {
        "Name": "中正環河路口",
        "Lat": 24.9909,
        "Lon": 121.533888,
        "Sequence": 1,
        "StationID": "2865"
      },
      {
        "Name": "捷運秀朗橋站",
        "Lat": 24.990551,
        "Lon": 121.524798,
        "Sequence": 2,
        "StationID": "50850"
      },
      {
        "Name": "尖山腳",
        "Lat": 24.99076,
        "Lon": 121.52296,
        "Sequence": 3,
        "StationID": "3094"
      },
      {
        "Name": "景平路景德街口",
        "Lat": 24.99170762,
        "Lon": 121.5194886,
        "Sequence": 4,
        "StationID": "3172"
      },
      {
        "Name": "捷運景平站",
        "Lat": 24.992238,
        "Lon": 121.517362,
        "Sequence": 5,
        "StationID": "3170"
      },
      {
        "Name": "東森廣場",
        "Lat": 24.99268,
        "Lon": 121.513089,
        "Sequence": 6,
        "StationID": "1165605319"
      },
      {
        "Name": "智光商職",
        "Lat": 24.994842197716,
        "Lon": 121.513517792484,
        "Sequence": 7,
        "StationID": "4077"
      },
      {
        "Name": "中興二村",
        "Lat": 24.9964243335687,
        "Lon": 121.514859678286,
        "Sequence": 8,
        "StationID": "3001"
      },
      {
        "Name": "中興新村",
        "Lat": 24.9983765816712,
        "Lon": 121.516565619533,
        "Sequence": 9,
        "StationID": "9646"
      },
      {
        "Name": "得和路",
        "Lat": 25.000124,
        "Lon": 121.518434,
        "Sequence": 10,
        "StationID": "3027"
      },
      {
        "Name": "秀朗國小",
        "Lat": 24.999844,
        "Lon": 121.52086,
        "Sequence": 11,
        "StationID": "3020"
      },
      {
        "Name": "永元路",
        "Lat": 25.0012830070909,
        "Lon": 121.522385215721,
        "Sequence": 12,
        "StationID": "1000298"
      },
      {
        "Name": "福和橋(永元路)",
        "Lat": 25.002882,
        "Lon": 121.522833,
        "Sequence": 13,
        "StationID": "1000303"
      },
      {
        "Name": "公館",
        "Lat": 25.0120963546845,
        "Lon": 121.538530831111,
        "Sequence": 14,
        "StationID": "1000045"
      },
      {
        "Name": "臺灣科技大學",
        "Lat": 25.013398935169228,
        "Lon": 121.54013379820495,
        "Sequence": 15,
        "StationID": "1000046"
      },
      {
        "Name": "臺大癌醫(基隆路)",
        "Lat": 25.015403,
        "Lon": 121.542468,
        "Sequence": 16,
        "StationID": "2225"
      },
      {
        "Name": "基隆長興街口",
        "Lat": 25.0174253459055,
        "Lon": 121.5448494574872,
        "Sequence": 17,
        "StationID": "2245"
      },
      {
        "Name": "和平高中",
        "Lat": 25.01963,
        "Lon": 121.54746,
        "Sequence": 18,
        "StationID": "2254"
      },
      {
        "Name": "捷運六張犁站(基隆路)",
        "Lat": 25.0236369355906,
        "Lon": 121.551906976436,
        "Sequence": 19,
        "StationID": "2307"
      },
      {
        "Name": "喬治商職",
        "Lat": 25.02628003,
        "Lon": 121.5549231,
        "Sequence": 20,
        "StationID": "2159"
      },
      {
        "Name": "三興國小(臨江街觀光夜市)",
        "Lat": 25.028593,
        "Lon": 121.557084,
        "Sequence": 21,
        "StationID": "2035"
      },
      {
        "Name": "光復南路口",
        "Lat": 25.03062,
        "Lon": 121.5574,
        "Sequence": 22,
        "StationID": "60123"
      },
      {
        "Name": "三張犁",
        "Lat": 25.03377721,
        "Lon": 121.5575983,
        "Sequence": 23,
        "StationID": "2033"
      },
      {
        "Name": "市民住宅",
        "Lat": 25.03663,
        "Lon": 121.5576,
        "Sequence": 24,
        "StationID": "60124"
      },
      {
        "Name": "國父紀念館",
        "Lat": 25.0390183419661,
        "Lon": 121.557719526717,
        "Sequence": 25,
        "StationID": "2140"
      },
      {
        "Name": "捷運國父紀念館站(光復)",
        "Lat": 25.042733,
        "Lon": 121.557919,
        "Sequence": 26,
        "StationID": "2321"
      },
      {
        "Name": "臺北市區監理所(光復)",
        "Lat": 25.04698,
        "Lon": 121.5579397,
        "Sequence": 27,
        "StationID": "60137"
      },
      {
        "Name": "榮民服務處",
        "Lat": 25.04870308,
        "Lon": 121.557946,
        "Sequence": 28,
        "StationID": "1590"
      },
      {
        "Name": "南京新村",
        "Lat": 25.052989,
        "Lon": 121.556952,
        "Sequence": 29,
        "StationID": "1551"
      },
      {
        "Name": "三軍總醫院松山分院",
        "Lat": 25.05367,
        "Lon": 121.55726,
        "Sequence": 30,
        "StationID": "1563"
      },
      {
        "Name": "長壽公園",
        "Lat": 25.05381,
        "Lon": 121.55985,
        "Sequence": 31,
        "StationID": "1522"
      },
      {
        "Name": "健康新城",
        "Lat": 25.05397814,
        "Lon": 121.5626621,
        "Sequence": 32,
        "StationID": "1562"
      },
      {
        "Name": "三民健康路口(西松高中)",
        "Lat": 25.05481494,
        "Lon": 121.5638473,
        "Sequence": 33,
        "StationID": "50006"
      },
      {
        "Name": "三民路",
        "Lat": 25.05753,
        "Lon": 121.56368,
        "Sequence": 34,
        "StationID": "10404"
      },
      {
        "Name": "民生社區活動中心",
        "Lat": 25.058808540179,
        "Lon": 121.561144568697,
        "Sequence": 35,
        "StationID": "1000074"
      }
    ]
  },
  {
    "Route": "254",
    "SubRoute": "254",
    "Direction": 1,
    "Stops": [
      {
        "Name": "聯合二村",
        "Lat": 25.0586249332513,
        "Lon": 121.558923442523,
        "Sequence": 1,
        "StationID": "1000075"
      },
      {
        "Name": "介壽國中",
        "Lat": 25.058415078013,
        "Lon": 121.556044429017,
        "Sequence": 2,
        "StationID": "10408"
      },
      {
        "Name": "公教住宅",
        "Lat": 25.05813129,
        "Lon": 121.5526273,
        "Sequence": 3,
        "StationID": "10421"
      },
      {
        "Name": "富錦街口",
        "Lat": 25.05971079181516,
        "Lon": 121.55019898812432,
        "Sequence": 4,
        "StationID": "1580"
      },
      {
        "Name": "松山機場",
        "Lat": 25.063277,
        "Lon": 121.55196,
        "Sequence": 5,
        "StationID": "1536"
      },
      {
        "Name": "民生敦化路口",
        "Lat": 25.057956,
        "Lon": 121.548902,
        "Sequence": 6,
        "StationID": "13106"
      },
      {
        "Name": "長春敦化路口",
        "Lat": 25.05458,
        "Lon": 121.54883,
        "Sequence": 7,
        "StationID": "1298"
      },
      {
        "Name": "臺北小巨蛋",
        "Lat": 25.052746,
        "Lon": 121.548629,
        "Sequence": 8,
        "StationID": "1165606385"
      },
      {
        "Name": "捷運南京復興站",
        "Lat": 25.05191518176843,
        "Lon": 121.5444563164689,
        "Sequence": 9,
        "StationID": "1547"
      },
      {
        "Name": "南京龍江路口",
        "Lat": 25.051994714534274,
        "Lon": 121.54085264591662,
        "Sequence": 10,
        "StationID": "1556"
      },
      {
        "Name": "南京建國路口",
        "Lat": 25.0520896887846,
        "Lon": 121.537271345417,
        "Sequence": 11,
        "StationID": "1546"
      },
      {
        "Name": "捷運松江南京站",
        "Lat": 25.0521144980622,
        "Lon": 121.533302047123,
        "Sequence": 12,
        "StationID": "16011"
      },
      {
        "Name": "長安松江路口",
        "Lat": 25.04864879,
        "Lon": 121.5329145,
        "Sequence": 13,
        "StationID": "1280"
      },
      {
        "Name": "光華商場",
        "Lat": 25.04460839,
        "Lon": 121.5328606,
        "Sequence": 14,
        "StationID": "6684"
      },
      {
        "Name": "捷運忠孝新生站",
        "Lat": 25.040288,
        "Lon": 121.532693,
        "Sequence": 15,
        "StationID": "1000396"
      },
      {
        "Name": "仁愛新生路口",
        "Lat": 25.03851244,
        "Lon": 121.5326821,
        "Sequence": 16,
        "StationID": "6681"
      },
      {
        "Name": "信義新生路口",
        "Lat": 25.03403642,
        "Lon": 121.5325798,
        "Sequence": 17,
        "StationID": "6669"
      },
      {
        "Name": "金華新生路口",
        "Lat": 25.03087,
        "Lon": 121.53346,
        "Sequence": 18,
        "StationID": "1942"
      },
      {
        "Name": "溫州街口",
        "Lat": 25.0263548162126,
        "Lon": 121.532693859225,
        "Sequence": 19,
        "StationID": "6024"
      },
      {
        "Name": "師大綜合大樓",
        "Lat": 25.026622,
        "Lon": 121.53006,
        "Sequence": 20,
        "StationID": "2292"
      },
      {
        "Name": "師大",
        "Lat": 25.026738138642,
        "Lon": 121.527713493878,
        "Sequence": 21,
        "StationID": "6025"
      },
      {
        "Name": "捷運古亭站(和平)",
        "Lat": 25.027036,
        "Lon": 121.524516,
        "Sequence": 22,
        "StationID": "3943"
      },
      {
        "Name": "羅斯福金門街口",
        "Lat": 25.0242886,
        "Lon": 121.5243501,
        "Sequence": 23,
        "StationID": "1000044"
      },
      {
        "Name": "羅斯福浦城街口",
        "Lat": 25.0224187553298,
        "Lon": 121.526085861859,
        "Sequence": 24,
        "StationID": "2359"
      },
      {
        "Name": "捷運台電大樓站",
        "Lat": 25.020027,
        "Lon": 121.528697,
        "Sequence": 25,
        "StationID": "2353"
      },
      {
        "Name": "台電大樓",
        "Lat": 25.017546,
        "Lon": 121.531379,
        "Sequence": 26,
        "StationID": "2231"
      },
      {
        "Name": "捷運公館站",
        "Lat": 25.0143047215272,
        "Lon": 121.534517055222,
        "Sequence": 27,
        "StationID": "2309"
      },
      {
        "Name": "福和橋(林森路)",
        "Lat": 25.003877,
        "Lon": 121.523431,
        "Sequence": 28,
        "StationID": "1000297"
      },
      {
        "Name": "永元路",
        "Lat": 25.00158,
        "Lon": 121.522296,
        "Sequence": 29,
        "StationID": "1000296"
      },
      {
        "Name": "秀朗國小",
        "Lat": 25.00002,
        "Lon": 121.5208,
        "Sequence": 30,
        "StationID": "1001136"
      },
      {
        "Name": "得和路",
        "Lat": 25.000223,
        "Lon": 121.519428,
        "Sequence": 31,
        "StationID": "1165608395"
      },
      {
        "Name": "中興新村",
        "Lat": 24.99862597,
        "Lon": 121.5165323,
        "Sequence": 32,
        "StationID": "3003"
      },
      {
        "Name": "中興二村",
        "Lat": 24.9970684513473,
        "Lon": 121.515268767725,
        "Sequence": 33,
        "StationID": "9655"
      },
      {
        "Name": "智光商職",
        "Lat": 24.99403299,
        "Lon": 121.5125768,
        "Sequence": 34,
        "StationID": "3037"
      },
      {
        "Name": "南勢角(景平路)",
        "Lat": 24.992332,
        "Lon": 121.512965,
        "Sequence": 35,
        "StationID": "1001137"
      },
      {
        "Name": "捷運景平站",
        "Lat": 24.991961,
        "Lon": 121.516141,
        "Sequence": 36,
        "StationID": "50848"
      },
      {
        "Name": "景平路景德街口",
        "Lat": 24.991327,
        "Lon": 121.519446,
        "Sequence": 37,
        "StationID": "50849"
      },
      {
        "Name": "捷運秀朗橋站",
        "Lat": 24.990204,
        "Lon": 121.524836,
        "Sequence": 38,
        "StationID": "3099"
      },
      {
        "Name": "中正環河路口",
        "Lat": 24.990206,
        "Lon": 121.53405,
        "Sequence": 39,
        "StationID": "2864"
      }
    ]
  }
]