[
  {
    "Route": "652",
    "SubRoute": "652",
    "Direction": 0,
    "Stops": [
      {
        "Name": "中央昌平街口",
        "Lat": 25.058964,
        "Lon": 121.452455,
        "Sequence": 1,
        "StationID": "1165606585"
      },
      {
        "Name": "中港大排願景館",
        "Lat": 25.05898,
        "Lon": 121.450887,
        "Sequence": 2,
        "StationID": "1165603340"
      },
      {
        "Name": "捷運新莊副都心站(中央路)",
        "Lat": 25.057744,
        "Lon": 121.446968,
        "Sequence": 3,
        "StationID": "1165603329"
      },
      {
        "Name": "中平路一",
        "Lat": 25.055211,
        "Lon": 121.444421,
        "Sequence": 4,
        "StationID": "1165606925"
      },
      {
        "Name": "中平國中",
        "Lat": 25.05186,
        "Lon": 121.44468,
        "Sequence": 5,
        "StationID": "3497"
      },
      {
        "Name": "新莊高中(新莊文藝中心)",
        "Lat": 25.04961766,
        "Lon": 121.4446583,
        "Sequence": 6,
        "StationID": "3573"
      },
      {
        "Name": "新莊高中(幸福路)",
        "Lat": 25.0490066229995,
        "Lon": 121.445379037224,
        "Sequence": 7,
        "StationID": "8207"
      },
      {
        "Name": "中和街",
        "Lat": 25.04989,
        "Lon": 121.447493,
        "Sequence": 8,
        "StationID": "4137"
      },
      {
        "Name": "榮富國小",
        "Lat": 25.05258347,
        "Lon": 121.4480587,
        "Sequence": 9,
        "StationID": "4140"
      },
      {
        "Name": "中原里",
        "Lat": 25.05424253,
        "Lon": 121.4499383,
        "Sequence": 10,
        "StationID": "3501"
      },
      {
        "Name": "中原路一",
        "Lat": 25.054271,
        "Lon": 121.454002,
        "Sequence": 11,
        "StationID": "3505"
      },
      {
        "Name": "頭前國中(中原路)",
        "Lat": 25.05425,
        "Lon": 121.457564,
        "Sequence": 12,
        "StationID": "3599"
      },
      {
        "Name": "頭前國中",
        "Lat": 25.055056,
        "Lon": 121.4601,
        "Sequence": 13,
        "StationID": "3600"
      },
      {
        "Name": "思源新北大道路口",
        "Lat": 25.059334,
        "Lon": 121.460104,
        "Sequence": 14,
        "StationID": "3733"
      },
      {
        "Name": "新北大道思源路口",
        "Lat": 25.0605,
        "Lon": 121.46151,
        "Sequence": 15,
        "StationID": "1000962"
      },
      {
        "Name": "新北大道化成路口",
        "Lat": 25.061164,
        "Lon": 121.465274,
        "Sequence": 16,
        "StationID": "1000842"
      },
      {
        "Name": "新北大道中興路口",
        "Lat": 25.0613446467768,
        "Lon": 121.468148097399,
        "Sequence": 17,
        "StationID": "3495"
      },
      {
        "Name": "新北大道中華路口",
        "Lat": 25.0613696251157,
        "Lon": 121.483061607875,
        "Sequence": 18,
        "StationID": "3978"
      },
      {
        "Name": "臺北車站(忠孝)",
        "Lat": 25.0465635496954,
        "Lon": 121.515689438859,
        "Sequence": 20,
        "StationID": "1882"
      },
      {
        "Name": "行政院",
        "Lat": 25.046578538214,
        "Lon": 121.520239869754,
        "Sequence": 21,
        "StationID": "1919"
      },
      {
        "Name": "中山市場",
        "Lat": 25.050519,
        "Lon": 121.522081,
        "Sequence": 22,
        "StationID": "1000712"
      },
      {
        "Name": "南京林森路口",
        "Lat": 25.052069472359,
        "Lon": 121.525060474751,
        "Sequence": 23,
        "StationID": "16022"
      },
      {
        "Name": "南京吉林路口",
        "Lat": 25.0520078098529,
        "Lon": 121.529855025946,
        "Sequence": 24,
        "StationID": "16023"
      },
      {
        "Name": "捷運松江南京站",
        "Lat": 25.0519912439505,
        "Lon": 121.532641149751,
        "Sequence": 25,
        "StationID": "16024"
      },
      {
        "Name": "南京建國路口",
        "Lat": 25.0519389515979,
        "Lon": 121.53627250499,
        "Sequence": 26,
        "StationID": "50005"
      },
      {
        "Name": "南京龍江路口",
        "Lat": 25.05189813653983,
        "Lon": 121.54002052720857,
        "Sequence": 27,
        "StationID": "50002"
      },
      {
        "Name": "捷運南京復興站",
        "Lat": 25.0518040049938,
        "Lon": 121.543561439976,
        "Sequence": 28,
        "StationID": "50004"
      },
      {
        "Name": "南京敦化路口(小巨蛋)",
        "Lat": 25.0517035084006,
        "Lon": 121.548353475095,
        "Sequence": 29,
        "StationID": "50001"
      },
      {
        "Name": "南京寧安街口",
        "Lat": 25.051594154729063,
        "Lon": 121.55469770362868,
        "Sequence": 30,
        "StationID": "16029"
      },
      {
        "Name": "南京新村",
        "Lat": 25.05298738,
        "Lon": 121.5570658,
        "Sequence": 31,
        "StationID": "1551"
      },
      {
        "Name": "松山新城",
        "Lat": 25.05527186,
        "Lon": 121.5558427,
        "Sequence": 32,
        "StationID": "60138"
      },
      {
        "Name": "介壽國中",
        "Lat": 25.058201423962956,
        "Lon": 121.55569442816517,
        "Sequence": 33,
        "StationID": "1497"
      },
      {
        "Name": "聯合二村",
        "Lat": 25.0585017739443,
        "Lon": 121.559216750962,
        "Sequence": 34,
        "StationID": "1597"
      },
      {
        "Name": "民生社區活動中心",
        "Lat": 25.0586405271738,
        "Lon": 121.560927032747,
        "Sequence": 35,
        "StationID": "1506"
      },
      {
        "Name": "新東街口",
        "Lat": 25.05902066,
        "Lon": 121.5664423,
        "Sequence": 36,
        "StationID": "1588"
      },
      {
        "Name": "民生國中",
        "Lat": 25.06018904,
        "Lon": 121.5676949,
        "Sequence": 37,
        "StationID": "1000026"
      },
      {
        "Name": "新益里",
        "Lat": 25.062445,
        "Lon": 121.566269,
        "Sequence": 38,
        "StationID": "1504"
      },
      {
        "Name": "民權大橋",
        "Lat": 25.066876801458,
        "Lon": 121.579477870198,
        "Sequence": 39,
        "StationID": "1017"
      },
      {
        "Name": "時報廣場",
        "Lat": 25.0680848776157,
        "Lon": 121.58212115754,
        "Sequence": 40,
        "StationID": "1077"
      },
      {
        "Name": "三民國中",
        "Lat": 25.06881463274073,
        "Lon": 121.58543789167122,
        "Sequence": 41,
        "StationID": "966"
      },
      {
        "Name": "內湖行政大樓",
        "Lat": 25.068895529659475,
        "Lon": 121.58896238097387,
        "Sequence": 42,
        "StationID": "991"
      },
      {
        "Name": "國防醫學中心",
        "Lat": 25.0712104683315,
        "Lon": 121.590031196316,
        "Sequence": 43,
        "StationID": "339"
      },
      {
        "Name": "將軍嶺",
        "Lat": 25.0738091792986,
        "Lon": 121.590016770287,
        "Sequence": 44,
        "StationID": "50500"
      },
      {
        "Name": "方濟中學",
        "Lat": 25.0768845629687,
        "Lon": 121.590231346227,
        "Sequence": 45,
        "StationID": "3996"
      }
    ]
  },
  {
    "Route": "652",
    "SubRoute": "652",
    "Direction": 1,
    "Stops": [
      {
        "Name": "內湖高中",
        "Lat": 25.07901319,
        "Lon": 121.5883097,
        "Sequence": 1,
        "StationID": "8523"
      },
      {
        "Name": "捷運文德站(碧湖公園)",
        "Lat": 25.078655,
        "Lon": 121.584351,
        "Sequence": 2,
        "StationID": "1109"
      },
      {
        "Name": "湖光國宅",
        "Lat": 25.07859,
        "Lon": 121.58078,
        "Sequence": 3,
        "StationID": "8415"
      },
      {
        "Name": "西湖圖書館(湖光教會)",
        "Lat": 25.07889,
        "Lon": 121.578499,
        "Sequence": 4,
        "StationID": "1165604812"
      },
      {
        "Name": "港墘派出所",
        "Lat": 25.078636,
        "Lon": 121.57619,
        "Sequence": 5,
        "StationID": "4657"
      },
      {
        "Name": "瑞光路",
        "Lat": 25.074821,
        "Lon": 121.577343,
        "Sequence": 6,
        "StationID": "1132"
      },
      {
        "Name": "公館山",
        "Lat": 25.07198833,
        "Lon": 121.5809507,
        "Sequence": 7,
        "StationID": "1006"
      },
      {
        "Name": "麗寶大樓",
        "Lat": 25.070313,
        "Lon": 121.582591,
        "Sequence": 8,
        "StationID": "1156"
      },
      {
        "Name": "時報廣場",
        "Lat": 25.0685609459737,
        "Lon": 121.583129808238,
        "Sequence": 9,
        "StationID": "8601"
      },
      {
        "Name": "民權大橋",
        "Lat": 25.066982973174284,
        "Lon": 121.57895384595646,
        "Sequence": 10,
        "StationID": "8602"
      },
      {
        "Name": "新益里",
        "Lat": 25.062286,
        "Lon": 121.566155,
        "Sequence": 11,
        "StationID": "1503"
      },
      {
        "Name": "民生國中",
        "Lat": 25.05966141,
        "Lon": 121.5679233,
        "Sequence": 12,
        "StationID": "1507"
      },
      {
        "Name": "新東街口",
        "Lat": 25.0591755,
        "Lon": 121.5663295,
        "Sequence": 13,
        "StationID": "60133"
      },
      {
        "Name": "民生社區活動中心",
        "Lat": 25.058808540179,
        "Lon": 121.561144568697,
        "Sequence": 14,
        "StationID": "1000074"
      },
      {
        "Name": "聯合二村",
        "Lat": 25.0586249332513,
        "Lon": 121.558923442523,
        "Sequence": 15,
        "StationID": "1000075"
      },
      {
        "Name": "介壽國中",
        "Lat": 25.058415078013,
        "Lon": 121.556044429017,
        "Sequence": 16,
        "StationID": "10408"
      },
      {
        "Name": "松山新城",
        "Lat": 25.05562,
        "Lon": 121.55556,
        "Sequence": 17,
        "StationID": "1533"
      },
      {
        "Name": "南京新村",
        "Lat": 25.05277814,
        "Lon": 121.5568095,
        "Sequence": 18,
        "StationID": "60135"
      },
      {
        "Name": "南京寧安街口",
        "Lat": 25.0516596699759,
        "Lon": 121.555516323112,
        "Sequence": 19,
        "StationID": "16006"
      },
      {
        "Name": "南京敦化路口(小巨蛋)",
        "Lat": 25.0517934820293,
        "Lon": 121.549520919642,
        "Sequence": 20,
        "StationID": "1548"
      },
      {
        "Name": "捷運南京復興站",
        "Lat": 25.05191518176843,
        "Lon": 121.5444563164689,
        "Sequence": 21,
        "StationID": "1547"
      },
      {
        "Name": "南京龍江路口",
        "Lat": 25.051994714534274,
        "Lon": 121.54085264591662,
        "Sequence": 22,
        "StationID": "1556"
      },
      {
        "Name": "南京建國路口",
        "Lat": 25.0520896887846,
        "Lon": 121.537271345417,
        "Sequence": 23,
        "StationID": "1546"
      },
      {
        "Name": "捷運松江南京站",
        "Lat": 25.0521144980622,
        "Lon": 121.533302047123,
        "Sequence": 24,
        "StationID": "16011"
      },
      {
        "Name": "南京吉林路口",
        "Lat": 25.0521129968997,
        "Lon": 121.530332504829,
        "Sequence": 25,
        "StationID": "16012"
      },
      {
        "Name": "南京林森路口",
        "Lat": 25.0521676118001,
        "Lon": 121.525717467074,
        "Sequence": 26,
        "StationID": "16013"
      },
      {
        "Name": "中山市場",
        "Lat": 25.05126405386,
        "Lon": 121.52202112765,
        "Sequence": 27,
        "StationID": "1000064"
      },
      {
        "Name": "行政院",
        "Lat": 25.046484462941,
        "Lon": 121.519759690546,
        "Sequence": 28,
        "StationID": "50688"
      },
      {
        "Name": "臺北車站(忠孝)",
        "Lat": 25.0474098159326,
        "Lon": 121.513985270577,
        "Sequence": 29,
        "StationID": "1165604589"
      },
      {
        "Name": "新北大道中華路口",
        "Lat": 25.061616,
        "Lon": 121.483074,
        "Sequence": 31,
        "StationID": "3979"
      },
      {
        "Name": "新北大道重光街口",
        "Lat": 25.0616455497332,
        "Lon": 121.466776101293,
        "Sequence": 32,
        "StationID": "3494"
      },
      {
        "Name": "新北大道化成路口",
        "Lat": 25.061176,
        "Lon": 121.464221,
        "Sequence": 33,
        "StationID": "4141"
      },
      {
        "Name": "思源新北大道路口",
        "Lat": 25.05944269,
        "Lon": 121.4595888,
        "Sequence": 34,
        "StationID": "3551"
      },
      {
        "Name": "頭前國中",
        "Lat": 25.0553,
        "Lon": 121.45958,
        "Sequence": 35,
        "StationID": "3598"
      },
      {
        "Name": "頭前國中(中原路)",
        "Lat": 25.054455,
        "Lon": 121.458557,
        "Sequence": 36,
        "StationID": "50607"
      },
      {
        "Name": "中原路一",
        "Lat": 25.054408,
        "Lon": 121.454085,
        "Sequence": 37,
        "StationID": "3506"
      },
      {
        "Name": "中原里",
        "Lat": 25.054415479901,
        "Lon": 121.450407314483,
        "Sequence": 38,
        "StationID": "8211"
      },
      {
        "Name": "榮富國小",
        "Lat": 25.05259563,
        "Lon": 121.4478902,
        "Sequence": 39,
        "StationID": "4139"
      },
      {
        "Name": "中和街",
        "Lat": 25.049613,
        "Lon": 121.447295,
        "Sequence": 40,
        "StationID": "4138"
      },
      {
        "Name": "新莊高中(幸福路)",
        "Lat": 25.049113403307,
        "Lon": 121.445371964966,
        "Sequence": 41,
        "StationID": "3572"
      },
      {
        "Name": "新莊高中(新莊文藝中心)",
        "Lat": 25.049549,
        "Lon": 121.444921,
        "Sequence": 42,
        "StationID": "8206"
      },
      {
        "Name": "中平國中",
        "Lat": 25.051888,
        "Lon": 121.444782,
        "Sequence": 43,
        "StationID": "8205"
      },
      {
        "Name": "行政院新莊聯合辦公大樓(中央路)",
        "Lat": 25.056756,
        "Lon": 121.445677,
        "Sequence": 44,
        "StationID": "73616"
      },
      {
        "Name": "捷運新莊副都心站(中央路)",
        "Lat": 25.057725,
        "Lon": 121.447343,
        "Sequence": 45,
        "StationID": "1165603246"
      },
      {
        "Name": "中港大排願景館",
        "Lat": 25.058789,
        "Lon": 121.451089,
        "Sequence": 46,
        "StationID": "1165603247"
      }
    ]
  },
  {
    "Route": "652",
    "SubRoute": "652去程半",
    "Direction": 0,
    "Stops": [
      {
        "Name": "中央昌平街口",
        "Lat": 25.058964,
        "Lon": 121.452455,
        "Sequence": 1,
        "StationID": "1165606585"
      },
      {
        "Name": "中港大排願景館",
        "Lat": 25.05898,
        "Lon": 121.450887,
        "Sequence": 2,
        "StationID": "1165603340"
      },
      {
        "Name": "捷運新莊副都心站(中央路)",
        "Lat": 25.057744,
        "Lon": 121.446968,
        "Sequence": 3,
        "StationID": "1165603329"
      },
      {
        "Name": "中平路一",
        "Lat": 25.055211,
        "Lon": 121.444421,
        "Sequence": 4,
        "StationID": "1165606925"
      },
      {
        "Name": "中平國中",
        "Lat": 25.05186,
        "Lon": 121.44468,
        "Sequence": 5,
        "StationID": "3497"
      },
      {
        "Name": "新莊高中(新莊文藝中心)",
        "Lat": 25.04961766,
        "Lon": 121.4446583,
        "Sequence": 6,
        "StationID": "3573"
      },
      {
        "Name": "新莊高中(幸福路)",
        "Lat": 25.0490066229995,
        "Lon": 121.445379037224,
        "Sequence": 7,
        "StationID": "8207"
      },
      {
        "Name": "中和街",
        "Lat": 25.04989,
        "Lon": 121.447493,
        "Sequence": 8,
        "StationID": "4137"
      },
      {
        "Name": "榮富國小",
        "Lat": 25.05258347,
        "Lon": 121.4480587,
        "Sequence": 9,
        "StationID": "4140"
      },
      {
        "Name": "中原里",
        "Lat": 25.05424253,
        "Lon": 121.4499383,
        "Sequence": 10,
        "StationID": "3501"
      },
      {
        "Name": "中原路一",
        "Lat": 25.054271,
        "Lon": 121.454002,
        "Sequence": 11,
        "StationID": "3505"
      },
      {
        "Name": "頭前國中(中原路)",
        "Lat": 25.05425,
        "Lon": 121.457564,
        "Sequence": 12,
        "StationID": "3599"
      },
      {
        "Name": "頭前國中",
        "Lat": 25.055056,
        "Lon": 121.4601,
        "Sequence": 13,
        "StationID": "3600"
      },
      {
        "Name": "思源新北大道路口",
        "Lat": 25.059334,
        "Lon": 121.460104,
        "Sequence": 14,
        "StationID": "3733"
      },
      {
        "Name": "新北大道思源路口",
        "Lat": 25.0605,
        "Lon": 121.46151,
        "Sequence": 15,
        "StationID": "1000962"
      },
      {
        "Name": "新北大道化成路口",
        "Lat": 25.061164,
        "Lon": 121.465274,
        "Sequence": 16,
        "StationID": "1000842"
      },
      {
        "Name": "新北大道中興路口",
        "Lat": 25.0613446467768,
        "Lon": 121.468148097399,
        "Sequence": 17,
        "StationID": "3495"
      },
      {
        "Name": "新北大道中華路口",
        "Lat": 25.0613696251157,
        "Lon": 121.483061607875,
        "Sequence": 18,
        "StationID": "3978"
      },
      {
        "Name": "臺北車站(忠孝)",
        "Lat": 25.0465635496954,
        "Lon": 121.515689438859,
        "Sequence": 20,
        "StationID": "1882"
      },
      {
        "Name": "行政院",
        "Lat": 25.046578538214,
        "Lon": 121.520239869754,
        "Sequence": 21,
        "StationID": "1919"
      },
      {
        "Name": "中山市場",
        "Lat": 25.050519,
        "Lon": 121.522081,
        "Sequence": 22,
        "StationID": "1000712"
      },
      {
        "Name": "南京林森路口",
        "Lat": 25.052069472359,
        "Lon": 121.525060474751,
        "Sequence": 23,
        "StationID": "16022"
      },
      {
        "Name": "南京吉林路口",
        "Lat": 25.0520078098529,
        "Lon": 121.529855025946,
        "Sequence": 24,
        "StationID": "16023"
      },
      {
        "Name": "捷運松江南京站",
        "Lat": 25.0519912439505,
        "Lon": 121.532641149751,
        "Sequence": 25,
        "StationID": "16024"
      },
      {
        "Name": "南京建國路口",
        "Lat": 25.0519389515979,
        "Lon": 121.53627250499,
        "Sequence": 26,
        "StationID": "50005"
      },
      {
        "Name": "南京龍江路口",
        "Lat": 25.05189813653983,
        "Lon": 121.54002052720857,
        "Sequence": 27,
        "StationID": "50002"
      },
      {
        "Name": "捷運南京復興站",
        "Lat": 25.0518040049938,
        "Lon": 121.543561439976,
        "Sequence": 28,
        "StationID": "50004"
      },
      {
        "Name": "南京敦化路口(小巨蛋)",
        "Lat": 25.0517035084006,
        "Lon": 121.548353475095,
        "Sequence": 29,
        "StationID": "50001"
      },
      {
        "Name": "南京寧安街口",
        "Lat": 25.051594154729063,
        "Lon": 121.55469770362868,
        "Sequence": 30,
        "StationID": "16029"
      },
      {
        "Name": "南京新村",
        "Lat": 25.05298738,
        "Lon": 121.5570658,
        "Sequence": 31,
        "StationID": "1551"
      },
      {
        "Name": "松山新城",
        "Lat": 25.05527186,
        "Lon": 121.5558427,
        "Sequence": 32,
        "StationID": "60138"
      },
      {
        "Name": "介壽國中",
        "Lat": 25.058201423962956,
        "Lon": 121.55569442816517,
        "Sequence": 33,
        "StationID": "1497"
      },
      {
        "Name": "聯合二村",
        "Lat": 25.0585017739443,
        "Lon": 121.559216750962,
        "Sequence": 34,
        "StationID": "1597"
      },
      {
        "Name": "民生社區活動中心",
        "Lat": 25.0586405271738,
        "Lon": 121.560927032747,
        "Sequence": 35,
        "StationID": "1506"
      },
      {
        "Name": "新東街口",
        "Lat": 25.05902066,
        "Lon": 121.5664423,
        "Sequence": 36,
        "StationID": "1588"
      },
      {
        "Name": "民生國中",
        "Lat": 25.06018904,
        "Lon": 121.5676949,
        "Sequence": 37,
        "StationID": "1000026"
      },
      {
        "Name": "新益里",
        "Lat": 25.062445,
        "Lon": 121.566269,
        "Sequence": 38,
        "StationID": "1504"
      },
      {
        "Name": "民權大橋",
        "Lat": 25.066876801458,
        "Lon": 121.579477870198,
        "Sequence": 39,
        "StationID": "1017"
      },
      {
        "Name": "時報廣場",
        "Lat": 25.0680848776157,
        "Lon": 121.58212115754,
        "Sequence": 40,
        "StationID": "1077"
      },
      {
        "Name": "三民國中",
        "Lat": 25.06881463274073,
        "Lon": 121.58543789167122,
        "Sequence": 41,
        "StationID": "966"
      },
      {
        "Name": "內湖行政大樓",
        "Lat": 25.068895529659475,
        "Lon": 121.58896238097387,
        "Sequence": 42,
        "StationID": "991"
      },
      {
        "Name": "國防醫學中心",
        "Lat": 25.0712104683315,
        "Lon": 121.590031196316,
        "Sequence": 43,
        "StationID": "339"
      },
      {
        "Name": "將軍嶺",
        "Lat": 25.0738091792986,
        "Lon": 121.590016770287,
        "Sequence": 44,
        "StationID": "50500"
      },
      {
        "Name": "方濟中學",
        "Lat": 25.0768845629687,
        "Lon": 121.590231346227,
        "Sequence": 45,
        "StationID": "3996"
      }
    ]
  },
  {
    "Route": "652",
    "SubRoute": "652返程半",
    "Direction": 1,
    "Stops": [
      {
        "Name": "內湖高中",
        "Lat": 25.07901319,
        "Lon": 121.5883097,
        "Sequence": 1,
        "StationID": "8523"
      },
      {
        "Name": "捷運文德站(碧湖公園)",
        "Lat": 25.078655,
        "Lon": 121.584351,
        "Sequence": 2,
        "StationID": "1109"
      },
      {
        "Name": "湖光國宅",
        "Lat": 25.07859,
        "Lon": 121.58078,
        "Sequence": 3,
        "StationID": "8415"
      },
      {
        "Name": "西湖圖書館(湖光教會)",
        "Lat": 25.07889,
        "Lon": 121.578499,
        "Sequence": 4,
        "StationID": "1165604812"
      },
      {
        "Name": "港墘派出所",
        "Lat": 25.078636,
        "Lon": 121.57619,
        "Sequence": 5,
        "StationID": "4657"
      },
      {
        "Name": "瑞光路",
        "Lat": 25.074821,
        "Lon": 121.577343,
        "Sequence": 6,
        "StationID": "1132"
      },
      {
        "Name": "公館山",
        "Lat": 25.07198833,
        "Lon": 121.5809507,
        "Sequence": 7,
        "StationID": "1006"
      },
      {
        "Name": "麗寶大樓",
        "Lat": 25.070313,
        "Lon": 121.582591,
        "Sequence": 8,
        "StationID": "1156"
      },
      {
        "Name": "時報廣場",
        "Lat": 25.0685609459737,
        "Lon": 121.583129808238,
        "Sequence": 9,
        "StationID": "8601"
      },
      {
        "Name": "民權大橋",
        "Lat": 25.066982973174284,
        "Lon": 121.57895384595646,
        "Sequence": 10,
        "StationID": "8602"
      },
      {
        "Name": "新益里",
        "Lat": 25.062286,
        "Lon": 121.566155,
        "Sequence": 11,
        "StationID": "1503"
      },
      {
        "Name": "民生國中",
        "Lat": 25.05966141,
        "Lon": 121.5679233,
        "Sequence": 12,
        "StationID": "1507"
      },
      {
        "Name": "新東街口",
        "Lat": 25.0591755,
        "Lon": 121.5663295,
        "Sequence": 13,
        "StationID": "60133"
      },
      {
        "Name": "民生社區活動中心",
        "Lat": 25.058808540179,
        "Lon": 121.561144568697,
        "Sequence": 14,
        "StationID": "1000074"
      },
      {
        "Name": "聯合二村",
        "Lat": 25.0586249332513,
        "Lon": 121.558923442523,
        "Sequence": 15,
        "StationID": "1000075"
      },
      {
        "Name": "介壽國中",
        "Lat": 25.058415078013,
        "Lon": 121.556044429017,
        "Sequence": 16,
        "StationID": "10408"
      },
      {
        "Name": "松山新城",
        "Lat": 25.05562,
        "Lon": 121.55556,
        "Sequence": 17,
        "StationID": "1533"
      },
      {
        "Name": "南京新村",
        "Lat": 25.05277814,
        "Lon": 121.5568095,
        "Sequence": 18,
        "StationID": "60135"
      },
      {
        "Name": "南京寧安街口",
        "Lat": 25.0516596699759,
        "Lon": 121.555516323112,
        "Sequence": 19,
        "StationID": "16006"
      },
      {
        "Name": "南京敦化路口(小巨蛋)",
        "Lat": 25.0517934820293,
        "Lon": 121.549520919642,
        "Sequence": 20,
        "StationID": "1548"
      },
      {
        "Name": "捷運南京復興站",
        "Lat": 25.05191518176843,
        "Lon": 121.5444563164689,
        "Sequence": 21,
        "StationID": "1547"
      },
      {
        "Name": "南京龍江路口",
        "Lat": 25.051994714534274,
        "Lon": 121.54085264591662,
        "Sequence": 22,
        "StationID": "1556"
      },
      {
        "Name": "南京建國路口",
        "Lat": 25.0520896887846,
        "Lon": 121.537271345417,
        "Sequence": 23,
        "StationID": "1546"
      },
      {
        "Name": "捷運松江南京站",
        "Lat": 25.0521144980622,
        "Lon": 121.533302047123,
        "Sequence": 24,
        "StationID": "16011"
      },
      {
        "Name": "南京吉林路口",
        "Lat": 25.0521129968997,
        "Lon": 121.530332504829,
        "Sequence": 25,
        "StationID": "16012"
      },
      {
        "Name": "南京林森路口",
        "Lat": 25.0521676118001,
        "Lon": 121.525717467074,
        "Sequence": 26,
        "StationID": "16013"
      },
      {
        "Name": "中山市場",
        "Lat": 25.05126405386,
        "Lon": 121.52202112765,
        "Sequence": 27,
        "StationID": "1000064"
      },
      {
        "Name": "行政院",
        "Lat": 25.046484462941,
        "Lon": 121.519759690546,
        "Sequence": 28,
        "StationID": "50688"
      },
      {
        "Name": "臺北車站(忠孝)",
        "Lat": 25.0474098159326,
        "Lon": 121.513985270577,
        "Sequence": 29,
        "StationID": "1165604589"
      },
      {
        "Name": "新北大道中華路口",
        "Lat": 25.061616,
        "Lon": 121.483074,
        "Sequence": 31,
        "StationID": "3979"
      },
      {
        "Name": "新北大道重光街口",
        "Lat": 25.0616455497332,
        "Lon": 121.466776101293,
        "Sequence": 32,
        "StationID": "3494"
      },
      {
        "Name": "新北大道化成路口",
        "Lat": 25.061176,
        "Lon": 121.464221,
        "Sequence": 33,
        "StationID": "4141"
      },
      {
        "Name": "思源新北大道路口",
        "Lat": 25.05944269,
        "Lon": 121.4595888,
        "Sequence": 34,
        "StationID": "3551"
      },
      {
        "Name": "頭前國中",
        "Lat": 25.0553,
        "Lon": 121.45958,
        "Sequence": 35,
        "StationID": "3598"
      },
      {
        "Name": "頭前國中(中原路)",
        "Lat": 25.054455,
        "Lon": 121.458557,
        "Sequence": 36,
        "StationID": "50607"
      },
      {
        "Name": "中原路一",
        "Lat": 25.054408,
        "Lon": 121.454085,
        "Sequence": 37,
        "StationID": "3506"
      },
      {
        "Name": "中原里",
        "Lat": 25.054415479901,
        "Lon": 121.450407314483,
        "Sequence": 38,
        "StationID": "8211"
      },
      {
        "Name": "榮富國小",
        "Lat": 25.05259563,
        "Lon": 121.4478902,
        "Sequence": 39,
        "StationID": "4139"
      },
      {
        "Name": "中和街",
        "Lat": 25.049613,
        "Lon": 121.447295,
        "Sequence": 40,
        "StationID": "4138"
      },
      {
        "Name": "新莊高中(幸福路)",
        "Lat": 25.049113403307,
        "Lon": 121.445371964966,
        "Sequence": 41,
        "StationID": "3572"
      },
      {
        "Name": "新莊高中(新莊文藝中心)",
        "Lat": 25.049549,
        "Lon": 121.444921,
        "Sequence": 42,
        "StationID": "8206"
      },
      {
        "Name": "中平國中",
        "Lat": 25.051888,
        "Lon": 121.444782,
        "Sequence": 43,
        "StationID": "8205"
      },
      {
        "Name": "行政院新莊聯合辦公大樓(中央路)",
        "Lat": 25.056756,
        "Lon": 121.445677,
        "Sequence": 44,
        "StationID": "73616"
      },
      {
        "Name": "捷運新莊副都心站(中央路)",
        "Lat": 25.057725,
        "Lon": 121.447343,
        "Sequence": 45,
        "StationID": "1165603246"
      },
      {
        "Name": "中港大排願景館",
        "Lat": 25.058789,
        "Lon": 121.451089,
        "Sequence": 46,
        "StationID": "1165603247"
      }
    ]
  }
]