[
  {
    "Route": "懷恩專車S34",
    "SubRoute": "懷恩專車S34",
    "Direction": 0,
    "Stops": [
      {
        "Name": "捷運古亭站(和平)",
        "Lat": 25.026842,
        "Lon": 121.523591,
        "Sequence": 1,
        "StationID": "1165603341"
      },
      {
        "Name": "師大",
        "Lat": 25.02650071684031,
        "Lon": 121.5278634988405,
        "Sequence": 2,
        "StationID": "2289"
      },
      {
        "Name": "溫州街口",
        "Lat": 25.0260973914545,
        "Lon": 121.533012542409,
        "Sequence": 3,
        "StationID": "3914"
      },
      {
        "Name": "龍門國中(辛亥路口)",
        "Lat": 25.0241,
        "Lon": 121.53742,
        "Sequence": 4,
        "StationID": "6675"
      },
      {
        "Name": "青峰活動中心",
        "Lat": 25.015144865886427,
        "Lon": 121.5513423711172,
        "Sequence": 7,
        "StationID": "15109"
      },
      {
        "Name": "臺北市懷愛館",
        "Lat": 25.013699726936505,
        "Lon": 121.55319791903287,
        "Sequence": 8,
        "StationID": "1165604471"
      }
    ]
  },
  {
    "Route": "懷恩專車S34",
    "SubRoute": "懷恩專車S34",
    "Direction": 1,
    "Stops": [
      {
        "Name": "青峰活動中心",
        "Lat": 25.016039021546764,
        "Lon": 121.55075149283692,
        "Sequence": 1,
        "StationID": "2275"
      },
      {
        "Name": "捷運古亭站(和平)",
        "Lat": 25.026842,
        "Lon": 121.523591,
        "Sequence": 4,
        "StationID": "1165603341"
      }
    ]
  }
]