[
  {
    "Route": "670",
    "SubRoute": "670",
    "Direction": 0,
    "Stops": [
      {
        "Name": "無極宮",
        "Lat": 24.977984,
        "Lon": 121.49673,
        "Sequence": 1,
        "StationID": "1000519"
      },
      {
        "Name": "烘爐地",
        "Lat": 24.979722,
        "Lon": 121.49882,
        "Sequence": 2,
        "StationID": "3126"
      },
      {
        "Name": "北一游泳池",
        "Lat": 24.980249,
        "Lon": 121.500808,
        "Sequence": 3,
        "StationID": "3081"
      },
      {
        "Name": "湖山巖",
        "Lat": 24.98205364,
        "Lon": 121.5031916,
        "Sequence": 4,
        "StationID": "1000517"
      },
      {
        "Name": "內南里",
        "Lat": 24.982892,
        "Lon": 121.504014,
        "Sequence": 5,
        "StationID": "72460"
      },
      {
        "Name": "內南里一",
        "Lat": 24.983668,
        "Lon": 121.504585,
        "Sequence": 6,
        "StationID": "1165603428"
      },
      {
        "Name": "華新街口",
        "Lat": 24.985024,
        "Lon": 121.506781,
        "Sequence": 7,
        "StationID": "20409"
      },
      {
        "Name": "華新街",
        "Lat": 24.98406358,
        "Lon": 121.5079595,
        "Sequence": 8,
        "StationID": "3148"
      },
      {
        "Name": "臺科大華夏校區",
        "Lat": 24.98292064,
        "Lon": 121.5092408,
        "Sequence": 9,
        "StationID": "3144"
      },
      {
        "Name": "飛駝二村",
        "Lat": 24.98355304,
        "Lon": 121.5113314,
        "Sequence": 10,
        "StationID": "3121"
      },
      {
        "Name": "放生寺",
        "Lat": 24.98513725,
        "Lon": 121.5121424,
        "Sequence": 11,
        "StationID": "9622"
      },
      {
        "Name": "四維街",
        "Lat": 24.986939,
        "Lon": 121.5126,
        "Sequence": 12,
        "StationID": "3085"
      },
      {
        "Name": "三介廟",
        "Lat": 24.988375,
        "Lon": 121.513308,
        "Sequence": 13,
        "StationID": "50846"
      },
      {
        "Name": "景新街",
        "Lat": 24.989999,
        "Lon": 121.512485,
        "Sequence": 14,
        "StationID": "9619"
      },
      {
        "Name": "智光商職",
        "Lat": 24.994533,
        "Lon": 121.513228,
        "Sequence": 15,
        "StationID": "72406"
      },
      {
        "Name": "中興二村",
        "Lat": 24.9964243335687,
        "Lon": 121.514859678286,
        "Sequence": 16,
        "StationID": "3001"
      },
      {
        "Name": "中興新村",
        "Lat": 24.9983765816712,
        "Lon": 121.516565619533,
        "Sequence": 17,
        "StationID": "9646"
      },
      {
        "Name": "得和路口",
        "Lat": 25.00054939,
        "Lon": 121.5177138,
        "Sequence": 18,
        "StationID": "3028"
      },
      {
        "Name": "永和國小",
        "Lat": 25.0024569,
        "Lon": 121.5175452,
        "Sequence": 19,
        "StationID": "3013"
      },
      {
        "Name": "福和里",
        "Lat": 25.006519,
        "Lon": 121.517121,
        "Sequence": 20,
        "StationID": "9652"
      },
      {
        "Name": "福和路",
        "Lat": 25.007465,
        "Lon": 121.51865,
        "Sequence": 21,
        "StationID": "1000324"
      },
      {
        "Name": "永和區公所(竹林路)",
        "Lat": 25.00879945,
        "Lon": 121.5207753,
        "Sequence": 22,
        "StationID": "9661"
      },
      {
        "Name": "網溪國小一",
        "Lat": 25.011264,
        "Lon": 121.520115,
        "Sequence": 23,
        "StationID": "9663"
      },
      {
        "Name": "網溪國小",
        "Lat": 25.013451,
        "Lon": 121.518655,
        "Sequence": 24,
        "StationID": "1000471"
      },
      {
        "Name": "竹林路口",
        "Lat": 25.014315,
        "Lon": 121.517667,
        "Sequence": 25,
        "StationID": "3019"
      },
      {
        "Name": "中正橋頭",
        "Lat": 25.01604284,
        "Lon": 121.5162239,
        "Sequence": 26,
        "StationID": "50809"
      },
      {
        "Name": "重慶南路三段(中正橋)",
        "Lat": 25.0242546637841,
        "Lon": 121.516898839078,
        "Sequence": 27,
        "StationID": "1000325"
      },
      {
        "Name": "福州街",
        "Lat": 25.028027,
        "Lon": 121.517445,
        "Sequence": 28,
        "StationID": "2010"
      },
      {
        "Name": "和平西路一段",
        "Lat": 25.02712551,
        "Lon": 121.5172482,
        "Sequence": 29,
        "StationID": "1925"
      },
      {
        "Name": "崁頂",
        "Lat": 25.02546189,
        "Lon": 121.5131483,
        "Sequence": 30,
        "StationID": "1000520"
      },
      {
        "Name": "古亭國中",
        "Lat": 25.02479555,
        "Lon": 121.5098376,
        "Sequence": 31,
        "StationID": "4601"
      },
      {
        "Name": "國興路口",
        "Lat": 25.025757,
        "Lon": 121.508379,
        "Sequence": 32,
        "StationID": "4602"
      },
      {
        "Name": "中華南海路口",
        "Lat": 25.0272364792619,
        "Lon": 121.506661163485,
        "Sequence": 33,
        "StationID": "4603"
      },
      {
        "Name": "南機場公寓",
        "Lat": 25.0285917595947,
        "Lon": 121.50540777894,
        "Sequence": 34,
        "StationID": "4604"
      },
      {
        "Name": "廈安里",
        "Lat": 25.0306970667598,
        "Lon": 121.504168146781,
        "Sequence": 35,
        "StationID": "4605"
      },
      {
        "Name": "大埔街",
        "Lat": 25.03268103989999,
        "Lon": 121.50499126498305,
        "Sequence": 36,
        "StationID": "1737"
      },
      {
        "Name": "聯合醫院和平院區",
        "Lat": 25.03501116,
        "Lon": 121.5062837,
        "Sequence": 37,
        "StationID": "1165610495"
      },
      {
        "Name": "捷運西門站",
        "Lat": 25.041730058378,
        "Lon": 121.508285900629,
        "Sequence": 38,
        "StationID": "1793"
      },
      {
        "Name": "中華路北站",
        "Lat": 25.0456964941835,
        "Lon": 121.509380726049,
        "Sequence": 39,
        "StationID": "1744"
      },
      {
        "Name": "臺北車站(重慶)",
        "Lat": 25.046552005302367,
        "Lon": 121.51316241098594,
        "Sequence": 40,
        "StationID": "1891"
      }
    ]
  },
  {
    "Route": "670",
    "SubRoute": "670",
    "Direction": 1,
    "Stops": [
      {
        "Name": "重慶南路一段",
        "Lat": 25.04469193,
        "Lon": 121.5131649,
        "Sequence": 1,
        "StationID": "1963"
      },
      {
        "Name": "博物館(襄陽)",
        "Lat": 25.04337336,
        "Lon": 121.5146668,
        "Sequence": 2,
        "StationID": "2000"
      },
      {
        "Name": "捷運台大醫院站",
        "Lat": 25.0419357569938,
        "Lon": 121.516148167061,
        "Sequence": 3,
        "StationID": "1994"
      },
      {
        "Name": "中正紀念堂",
        "Lat": 25.03723469016352,
        "Lon": 121.52070098538395,
        "Sequence": 4,
        "StationID": "1946"
      },
      {
        "Name": "信義杭州路口",
        "Lat": 25.03564868242583,
        "Lon": 121.52392406077344,
        "Sequence": 5,
        "StationID": "2125"
      },
      {
        "Name": "捷運東門站(金山)",
        "Lat": 25.033164,
        "Lon": 121.526979,
        "Sequence": 6,
        "StationID": "2280"
      },
      {
        "Name": "公企中心",
        "Lat": 25.03119392732057,
        "Lon": 121.52661106566782,
        "Sequence": 7,
        "StationID": "2196"
      },
      {
        "Name": "金山潮州街口",
        "Lat": 25.028247,
        "Lon": 121.526085,
        "Sequence": 8,
        "StationID": "2269"
      },
      {
        "Name": "捷運古亭站(和平)",
        "Lat": 25.027036,
        "Lon": 121.524516,
        "Sequence": 9,
        "StationID": "3943"
      },
      {
        "Name": "南福板溪(南昌公園)",
        "Lat": 25.02681,
        "Lon": 121.52053,
        "Sequence": 10,
        "StationID": "3905"
      },
      {
        "Name": "和平西路一段",
        "Lat": 25.026994,
        "Lon": 121.517263,
        "Sequence": 11,
        "StationID": "1925"
      },
      {
        "Name": "重慶南路三段(中正橋)",
        "Lat": 25.024804,
        "Lon": 121.516528,
        "Sequence": 12,
        "StationID": "1920"
      },
      {
        "Name": "捷運頂溪站",
        "Lat": 25.013998,
        "Lon": 121.515471,
        "Sequence": 13,
        "StationID": "4022"
      },
      {
        "Name": "中興街口",
        "Lat": 25.0115956,
        "Lon": 121.5147464,
        "Sequence": 14,
        "StationID": "3002"
      },
      {
        "Name": "豫溪街口(中正路)",
        "Lat": 25.010002,
        "Lon": 121.515573,
        "Sequence": 15,
        "StationID": "3018"
      },
      {
        "Name": "大新街",
        "Lat": 25.00843234,
        "Lon": 121.5167282,
        "Sequence": 16,
        "StationID": "2992"
      },
      {
        "Name": "福和里",
        "Lat": 25.006393,
        "Lon": 121.516986,
        "Sequence": 17,
        "StationID": "1165608705"
      },
      {
        "Name": "永和國小",
        "Lat": 25.00304399,
        "Lon": 121.5172544,
        "Sequence": 18,
        "StationID": "3012"
      },
      {
        "Name": "得和路口",
        "Lat": 25.000946,
        "Lon": 121.517563,
        "Sequence": 19,
        "StationID": "3029"
      },
      {
        "Name": "中興新村",
        "Lat": 24.99862597,
        "Lon": 121.5165323,
        "Sequence": 20,
        "StationID": "3003"
      },
      {
        "Name": "中興二村",
        "Lat": 24.9970684513473,
        "Lon": 121.515268767725,
        "Sequence": 21,
        "StationID": "9655"
      },
      {
        "Name": "智光商職",
        "Lat": 24.99403299,
        "Lon": 121.5125768,
        "Sequence": 22,
        "StationID": "3037"
      },
      {
        "Name": "景新街",
        "Lat": 24.989796,
        "Lon": 121.512387,
        "Sequence": 23,
        "StationID": "3138"
      },
      {
        "Name": "幸福市場",
        "Lat": 24.9875,
        "Lon": 121.51252,
        "Sequence": 24,
        "StationID": "3102"
      },
      {
        "Name": "放生寺",
        "Lat": 24.98523881,
        "Lon": 121.5120524,
        "Sequence": 25,
        "StationID": "3104"
      },
      {
        "Name": "飛駝二村",
        "Lat": 24.983578,
        "Lon": 121.511239,
        "Sequence": 26,
        "StationID": "9623"
      },
      {
        "Name": "臺科大華夏校區",
        "Lat": 24.983,
        "Lon": 121.50937,
        "Sequence": 27,
        "StationID": "431"
      },
      {
        "Name": "華新街",
        "Lat": 24.98420596,
        "Lon": 121.5079934,
        "Sequence": 28,
        "StationID": "9626"
      },
      {
        "Name": "華新街口",
        "Lat": 24.985282,
        "Lon": 121.506863,
        "Sequence": 29,
        "StationID": "20408"
      },
      {
        "Name": "壽南橋",
        "Lat": 24.98456193,
        "Lon": 121.5056504,
        "Sequence": 30,
        "StationID": "3152"
      },
      {
        "Name": "內南里一",
        "Lat": 24.983724,
        "Lon": 121.504398,
        "Sequence": 31,
        "StationID": "1165603427"
      },
      {
        "Name": "湖山巖",
        "Lat": 24.98242433,
        "Lon": 121.5033889,
        "Sequence": 32,
        "StationID": "3141"
      },
      {
        "Name": "北一游泳池",
        "Lat": 24.98035808,
        "Lon": 121.500605,
        "Sequence": 33,
        "StationID": "9628"
      },
      {
        "Name": "烘爐地",
        "Lat": 24.97990376,
        "Lon": 121.4988027,
        "Sequence": 34,
        "StationID": "9629"
      },
      {
        "Name": "無極宮",
        "Lat": 24.97803,
        "Lon": 121.496476,
        "Sequence": 35,
        "StationID": "3137"
      }
    ]
  }
]