[
  {
    "Route": "內科快線2",
    "SubRoute": "內快2(上午)(三重)",
    "Direction": 0,
    "Stops": [
      {
        "Name": "捷運市政府站",
        "Lat": 25.040991,
        "Lon": 121.565249,
        "Sequence": 1,
        "StationID": "2150"
      },
      {
        "Name": "陽光抽水站",
        "Lat": 25.07204,
        "Lon": 121.57446,
        "Sequence": 3,
        "StationID": "8661"
      },
      {
        "Name": "金泰公園",
        "Lat": 25.07803318,
        "Lon": 121.5674816,
        "Sequence": 4,
        "StationID": "1000864"
      },
      {
        "Name": "基湖站",
        "Lat": 25.0801,
        "Lon": 121.56489,
        "Sequence": 5,
        "StationID": "8405"
      },
      {
        "Name": "基湖路口",
        "Lat": 25.08025003,
        "Lon": 121.5662362,
        "Sequence": 7,
        "StationID": "8404"
      },
      {
        "Name": "仁寶大樓",
        "Lat": 25.07921316,
        "Lon": 121.5684974,
        "Sequence": 8,
        "StationID": "1007"
      },
      {
        "Name": "瑞光港墘路口",
        "Lat": 25.077753,
        "Lon": 121.571868,
        "Sequence": 9,
        "StationID": "1013"
      },
      {
        "Name": "瑞光路",
        "Lat": 25.074821,
        "Lon": 121.577343,
        "Sequence": 10,
        "StationID": "1132"
      },
      {
        "Name": "公館山",
        "Lat": 25.07198833,
        "Lon": 121.5809507,
        "Sequence": 11,
        "StationID": "1006"
      },
      {
        "Name": "麗寶大樓",
        "Lat": 25.070960172287336,
        "Lon": 121.5820136022182,
        "Sequence": 12,
        "StationID": "1165610352"
      },
      {
        "Name": "時報廣場",
        "Lat": 25.0685609459737,
        "Lon": 121.583129808238,
        "Sequence": 13,
        "StationID": "8601"
      },
      {
        "Name": "民權大橋",
        "Lat": 25.066982973174284,
        "Lon": 121.57895384595646,
        "Sequence": 14,
        "StationID": "8602"
      }
    ]
  },
  {
    "Route": "內科快線2",
    "SubRoute": "內快2(上午)(東南)",
    "Direction": 0,
    "Stops": [
      {
        "Name": "捷運市政府站",
        "Lat": 25.040991,
        "Lon": 121.565249,
        "Sequence": 1,
        "StationID": "2150"
      },
      {
        "Name": "陽光抽水站",
        "Lat": 25.07204,
        "Lon": 121.57446,
        "Sequence": 3,
        "StationID": "8661"
      },
      {
        "Name": "金泰公園",
        "Lat": 25.07803318,
        "Lon": 121.5674816,
        "Sequence": 4,
        "StationID": "1000864"
      },
      {
        "Name": "基湖站",
        "Lat": 25.0801,
        "Lon": 121.56489,
        "Sequence": 5,
        "StationID": "8405"
      },
      {
        "Name": "基湖路口",
        "Lat": 25.08025003,
        "Lon": 121.5662362,
        "Sequence": 7,
        "StationID": "8404"
      },
      {
        "Name": "仁寶大樓",
        "Lat": 25.07921316,
        "Lon": 121.5684974,
        "Sequence": 8,
        "StationID": "1007"
      },
      {
        "Name": "瑞光港墘路口",
        "Lat": 25.077753,
        "Lon": 121.571868,
        "Sequence": 9,
        "StationID": "1013"
      },
      {
        "Name": "瑞光路",
        "Lat": 25.074821,
        "Lon": 121.577343,
        "Sequence": 10,
        "StationID": "1132"
      },
      {
        "Name": "公館山",
        "Lat": 25.07198833,
        "Lon": 121.5809507,
        "Sequence": 11,
        "StationID": "1006"
      },
      {
        "Name": "麗寶大樓",
        "Lat": 25.070960172287336,
        "Lon": 121.5820136022182,
        "Sequence": 12,
        "StationID": "1165610352"
      }
    ]
  },
  {
    "Route": "內科快線2",
    "SubRoute": "內快2(上午)(大南)",
    "Direction": 0,
    "Stops": [
      {
        "Name": "捷運市政府站",
        "Lat": 25.040991,
        "Lon": 121.565249,
        "Sequence": 1,
        "StationID": "2150"
      },
      {
        "Name": "陽光抽水站",
        "Lat": 25.07204,
        "Lon": 121.57446,
        "Sequence": 3,
        "StationID": "8661"
      },
      {
        "Name": "金泰公園",
        "Lat": 25.07803318,
        "Lon": 121.5674816,
        "Sequence": 4,
        "StationID": "1000864"
      },
      {
        "Name": "基湖站",
        "Lat": 25.0801,
        "Lon": 121.56489,
        "Sequence": 5,
        "StationID": "8405"
      },
      {
        "Name": "基湖路口",
        "Lat": 25.08025003,
        "Lon": 121.5662362,
        "Sequence": 7,
        "StationID": "8404"
      },
      {
        "Name": "仁寶大樓",
        "Lat": 25.07921316,
        "Lon": 121.5684974,
        "Sequence": 8,
        "StationID": "1007"
      },
      {
        "Name": "瑞光港墘路口",
        "Lat": 25.077753,
        "Lon": 121.571868,
        "Sequence": 9,
        "StationID": "1013"
      },
      {
        "Name": "瑞光路",
        "Lat": 25.074821,
        "Lon": 121.577343,
        "Sequence": 10,
        "StationID": "1132"
      },
      {
        "Name": "公館山",
        "Lat": 25.07198833,
        "Lon": 121.5809507,
        "Sequence": 11,
        "StationID": "1006"
      },
      {
        "Name": "麗寶大樓",
        "Lat": 25.070960172287336,
        "Lon": 121.5820136022182,
        "Sequence": 12,
        "StationID": "1165610352"
      }
    ]
  },
  {
    "Route": "內科快線2",
    "SubRoute": "內快2(上午)(光華、中興)",
    "Direction": 0,
    "Stops": [
      {
        "Name": "捷運市政府站",
        "Lat": 25.040991,
        "Lon": 121.565249,
        "Sequence": 1,
        "StationID": "2150"
      },
      {
        "Name": "陽光抽水站",
        "Lat": 25.07204,
        "Lon": 121.57446,
        "Sequence": 3,
        "StationID": "8661"
      },
      {
        "Name": "金泰公園",
        "Lat": 25.07803318,
        "Lon": 121.5674816,
        "Sequence": 4,
        "StationID": "1000864"
      },
      {
        "Name": "基湖站",
        "Lat": 25.0801,
        "Lon": 121.56489,
        "Sequence": 5,
        "StationID": "8405"
      },
      {
        "Name": "基湖路口",
        "Lat": 25.08025003,
        "Lon": 121.5662362,
        "Sequence": 7,
        "StationID": "8404"
      },
      {
        "Name": "仁寶大樓",
        "Lat": 25.07921316,
        "Lon": 121.5684974,
        "Sequence": 8,
        "StationID": "1007"
      },
      {
        "Name": "瑞光港墘路口",
        "Lat": 25.077753,
        "Lon": 121.571868,
        "Sequence": 9,
        "StationID": "1013"
      },
      {
        "Name": "瑞光路",
        "Lat": 25.074821,
        "Lon": 121.577343,
        "Sequence": 10,
        "StationID": "1132"
      },
      {
        "Name": "公館山",
        "Lat": 25.07198833,
        "Lon": 121.5809507,
        "Sequence": 11,
        "StationID": "1006"
      },
      {
        "Name": "麗寶大樓",
        "Lat": 25.070960172287336,
        "Lon": 121.5820136022182,
        "Sequence": 12,
        "StationID": "1165610352"
      }
    ]
  },
  {
    "Route": "內科快線2",
    "SubRoute": "內快2(下午)(大南)",
    "Direction": 1,
    "Stops": [
      {
        "Name": "基湖站",
        "Lat": 25.0801,
        "Lon": 121.5649,
        "Sequence": 1,
        "StationID": "8405"
      },
      {
        "Name": "基湖路口",
        "Lat": 25.08025003,
        "Lon": 121.5662362,
        "Sequence": 3,
        "StationID": "8404"
      },
      {
        "Name": "仁寶大樓",
        "Lat": 25.07921316,
        "Lon": 121.5684974,
        "Sequence": 5,
        "StationID": "1007"
      },
      {
        "Name": "瑞光港墘路口",
        "Lat": 25.077753,
        "Lon": 121.571868,
        "Sequence": 7,
        "StationID": "1013"
      },
      {
        "Name": "瑞光路",
        "Lat": 25.074821,
        "Lon": 121.577343,
        "Sequence": 8,
        "StationID": "1132"
      },
      {
        "Name": "公館山",
        "Lat": 25.07199,
        "Lon": 121.581,
        "Sequence": 9,
        "StationID": "1006"
      },
      {
        "Name": "麗寶大樓",
        "Lat": 25.070960172287336,
        "Lon": 121.5820136022182,
        "Sequence": 10,
        "StationID": "1165610352"
      },
      {
        "Name": "捷運市政府站",
        "Lat": 25.040991,
        "Lon": 121.565249,
        "Sequence": 12,
        "StationID": "2150"
      }
    ]
  },
  {
    "Route": "內科快線2",
    "SubRoute": "內快2(下午)(光華、中興)",
    "Direction": 1,
    "Stops": [
      {
        "Name": "基湖站",
        "Lat": 25.0801,
        "Lon": 121.5649,
        "Sequence": 1,
        "StationID": "8405"
      },
      {
        "Name": "基湖路口",
        "Lat": 25.08025003,
        "Lon": 121.5662362,
        "Sequence": 3,
        "StationID": "8404"
      },
      {
        "Name": "仁寶大樓",
        "Lat": 25.07921316,
        "Lon": 121.5684974,
        "Sequence": 5,
        "StationID": "1007"
      },
      {
        "Name": "瑞光港墘路口",
        "Lat": 25.077753,
        "Lon": 121.571868,
        "Sequence": 7,
        "StationID": "1013"
      },
      {
        "Name": "瑞光路",
        "Lat": 25.074821,
        "Lon": 121.577343,
        "Sequence": 8,
        "StationID": "1132"
      },
      {
        "Name": "公館山",
        "Lat": 25.07199,
        "Lon": 121.581,
        "Sequence": 9,
        "StationID": "1006"
      },
      {
        "Name": "麗寶大樓",
        "Lat": 25.070960172287336,
        "Lon": 121.5820136022182,
        "Sequence": 10,
        "StationID": "1165610352"
      },
      {
        "Name": "時報廣場",
        "Lat": 25.0685609459737,
        "Lon": 121.583129808238,
        "Sequence": 11,
        "StationID": "8601"
      },
      {
        "Name": "民權大橋",
        "Lat": 25.066982973174284,
        "Lon": 121.57895384595646,
        "Sequence": 12,
        "StationID": "8602"
      },
      {
        "Name": "捷運市政府站",
        "Lat": 25.040991,
        "Lon": 121.565249,
        "Sequence": 14,
        "StationID": "2150"
      }
    ]
  },
  {
    "Route": "內科快線2",
    "SubRoute": "內快2(下午)(三重)",
    "Direction": 1,
    "Stops": [
      {
        "Name": "基湖站",
        "Lat": 25.0801,
        "Lon": 121.5649,
        "Sequence": 1,
        "StationID": "8405"
      },
      {
        "Name": "基湖路口",
        "Lat": 25.08025003,
        "Lon": 121.5662362,
        "Sequence": 3,
        "StationID": "8404"
      },
      {
        "Name": "仁寶大樓",
        "Lat": 25.07921316,
        "Lon": 121.5684974,
        "Sequence": 5,
        "StationID": "1007"
      },
      {
        "Name": "瑞光港墘路口",
        "Lat": 25.077753,
        "Lon": 121.571868,
        "Sequence": 7,
        "StationID": "1013"
      },
      {
        "Name": "瑞光路",
        "Lat": 25.074821,
        "Lon": 121.577343,
        "Sequence": 8,
        "StationID": "1132"
      },
      {
        "Name": "公館山",
        "Lat": 25.07199,
        "Lon": 121.581,
        "Sequence": 9,
        "StationID": "1006"
      },
      {
        "Name": "麗寶大樓",
        "Lat": 25.070960172287336,
        "Lon": 121.5820136022182,
        "Sequence": 10,
        "StationID": "1165610352"
      },
      {
        "Name": "時報廣場",
        "Lat": 25.0685609459737,
        "Lon": 121.583129808238,
        "Sequence": 11,
        "StationID": "8601"
      },
      {
        "Name": "民權大橋",
        "Lat": 25.066982973174284,
        "Lon": 121.57895384595646,
        "Sequence": 12,
        "StationID": "8602"
      },
      {
        "Name": "捷運市政府站",
        "Lat": 25.040991,
        "Lon": 121.565249,
        "Sequence": 14,
        "StationID": "2150"
      }
    ]
  },
  {
    "Route": "內科快線2",
    "SubRoute": "內快2(上午)(北客)",
    "Direction": 0,
    "Stops": [
      {
        "Name": "捷運市政府站",
        "Lat": 25.040991,
        "Lon": 121.565249,
        "Sequence": 1,
        "StationID": "2150"
      },
      {
        "Name": "陽光抽水站",
        "Lat": 25.07204,
        "Lon": 121.57446,
        "Sequence": 3,
        "StationID": "8661"
      },
      {
        "Name": "金泰公園",
        "Lat": 25.07803318,
        "Lon": 121.5674816,
        "Sequence": 4,
        "StationID": "1000864"
      },
      {
        "Name": "基湖站",
        "Lat": 25.0801,
        "Lon": 121.56489,
        "Sequence": 5,
        "StationID": "8405"
      },
      {
        "Name": "基湖路口",
        "Lat": 25.08025003,
        "Lon": 121.5662362,
        "Sequence": 7,
        "StationID": "8404"
      },
      {
        "Name": "仁寶大樓",
        "Lat": 25.07921316,
        "Lon": 121.5684974,
        "Sequence": 8,
        "StationID": "1007"
      },
      {
        "Name": "瑞光港墘路口",
        "Lat": 25.077753,
        "Lon": 121.571868,
        "Sequence": 9,
        "StationID": "1013"
      },
      {
        "Name": "瑞光路",
        "Lat": 25.074821,
        "Lon": 121.577343,
        "Sequence": 10,
        "StationID": "1132"
      },
      {
        "Name": "公館山",
        "Lat": 25.07198833,
        "Lon": 121.5809507,
        "Sequence": 11,
        "StationID": "1006"
      },
      {
        "Name": "麗寶大樓",
        "Lat": 25.070960172287336,
        "Lon": 121.5820136022182,
        "Sequence": 12,
        "StationID": "1165610352"
      },
      {
        "Name": "時報廣場",
        "Lat": 25.0685609459737,
        "Lon": 121.583129808238,
        "Sequence": 13,
        "StationID": "8601"
      },
      {
        "Name": "民權大橋",
        "Lat": 25.066982973174284,
        "Lon": 121.57895384595646,
        "Sequence": 14,
        "StationID": "8602"
      }
    ]
  }
]