[
  {
    "Route": "280直",
    "SubRoute": "280直",
    "Direction": 0,
    "Stops": [
      {
        "Name": "職能發展學院二",
        "Lat": 25.11296710251853,
        "Lon": 121.53938898702161,
        "Sequence": 1,
        "StationID": "949"
      },
      {
        "Name": "忠孝新村",
        "Lat": 25.11119,
        "Lon": 121.53973,
        "Sequence": 2,
        "StationID": "715"
      },
      {
        "Name": "芝山國小",
        "Lat": 25.110333,
        "Lon": 121.537252,
        "Sequence": 3,
        "StationID": "50664"
      },
      {
        "Name": "德行芝玉路口",
        "Lat": 25.109595,
        "Lon": 121.533503,
        "Sequence": 4,
        "StationID": "59004"
      },
      {
        "Name": "德行東路",
        "Lat": 25.108980959639226,
        "Lon": 121.53168417722993,
        "Sequence": 5,
        "StationID": "1000288"
      },
      {
        "Name": "德行忠誠路口",
        "Lat": 25.1082539636723,
        "Lon": 121.52972,
        "Sequence": 6,
        "StationID": "4710"
      },
      {
        "Name": "忠義新城",
        "Lat": 25.10762151,
        "Lon": 121.5279725,
        "Sequence": 7,
        "StationID": "50660"
      },
      {
        "Name": "石油新村",
        "Lat": 25.1070703,
        "Lon": 121.5262961,
        "Sequence": 8,
        "StationID": "50654"
      },
      {
        "Name": "士林電機(中山德行路口)",
        "Lat": 25.105356,
        "Lon": 121.524661,
        "Sequence": 9,
        "StationID": "50633"
      },
      {
        "Name": "捷運芝山站(福國)",
        "Lat": 25.102215676833303,
        "Lon": 121.52415752169912,
        "Sequence": 10,
        "StationID": "50667"
      },
      {
        "Name": "捷運芝山站一",
        "Lat": 25.1008497293525,
        "Lon": 121.522307508871,
        "Sequence": 11,
        "StationID": "1000347"
      },
      {
        "Name": "士林",
        "Lat": 25.0959118891448,
        "Lon": 121.524279381093,
        "Sequence": 12,
        "StationID": "569"
      },
      {
        "Name": "小北街",
        "Lat": 25.090999,
        "Lon": 121.526725,
        "Sequence": 13,
        "StationID": "1165604808"
      },
      {
        "Name": "捷運劍潭站(中山)",
        "Lat": 25.085353,
        "Lon": 121.525327,
        "Sequence": 14,
        "StationID": "803"
      },
      {
        "Name": "劍潭",
        "Lat": 25.0817595131148,
        "Lon": 121.524712226022,
        "Sequence": 15,
        "StationID": "1000266"
      },
      {
        "Name": "民族東路口",
        "Lat": 25.06731,
        "Lon": 121.52756,
        "Sequence": 16,
        "StationID": "1233"
      },
      {
        "Name": "稻江護校",
        "Lat": 25.0650407,
        "Lon": 121.5276297,
        "Sequence": 17,
        "StationID": "1388"
      },
      {
        "Name": "中山國小(新生)",
        "Lat": 25.06333,
        "Lon": 121.52748,
        "Sequence": 18,
        "StationID": "6660"
      },
      {
        "Name": "民權吉林路口",
        "Lat": 25.06254664,
        "Lon": 121.5300637,
        "Sequence": 19,
        "StationID": "1000112"
      },
      {
        "Name": "捷運行天宮站(松江路)",
        "Lat": 25.060643374791923,
        "Lon": 121.53313278818085,
        "Sequence": 20,
        "StationID": "6707"
      },
      {
        "Name": "長春松江路口",
        "Lat": 25.05500621,
        "Lon": 121.533011,
        "Sequence": 21,
        "StationID": "1294"
      },
      {
        "Name": "捷運松江南京站",
        "Lat": 25.05228153,
        "Lon": 121.5329812,
        "Sequence": 22,
        "StationID": "1000806"
      },
      {
        "Name": "長安松江路口",
        "Lat": 25.04864879,
        "Lon": 121.5329145,
        "Sequence": 23,
        "StationID": "1280"
      },
      {
        "Name": "光華商場",
        "Lat": 25.04460839,
        "Lon": 121.5328606,
        "Sequence": 24,
        "StationID": "6684"
      },
      {
        "Name": "捷運忠孝新生站",
        "Lat": 25.040288,
        "Lon": 121.532693,
        "Sequence": 25,
        "StationID": "1000396"
      },
      {
        "Name": "仁愛新生路口",
        "Lat": 25.03851244,
        "Lon": 121.5326821,
        "Sequence": 26,
        "StationID": "6681"
      },
      {
        "Name": "信義新生路口",
        "Lat": 25.03403642,
        "Lon": 121.5325798,
        "Sequence": 27,
        "StationID": "6669"
      },
      {
        "Name": "金華新生路口",
        "Lat": 25.03087,
        "Lon": 121.53346,
        "Sequence": 28,
        "StationID": "1942"
      },
      {
        "Name": "和平新生路口",
        "Lat": 25.02639,
        "Lon": 121.53478,
        "Sequence": 29,
        "StationID": "2256"
      },
      {
        "Name": "龍安國小(公務人力發展學院)",
        "Lat": 25.02466421,
        "Lon": 121.5345198,
        "Sequence": 30,
        "StationID": "2344"
      },
      {
        "Name": "臺大綜合體育館",
        "Lat": 25.0215502113013,
        "Lon": 121.534113646475,
        "Sequence": 31,
        "StationID": "2199"
      },
      {
        "Name": "臺大",
        "Lat": 25.018246284477,
        "Lon": 121.533425339383,
        "Sequence": 32,
        "StationID": "2224"
      },
      {
        "Name": "捷運公館站",
        "Lat": 25.0143047215272,
        "Lon": 121.534517055222,
        "Sequence": 33,
        "StationID": "2309"
      },
      {
        "Name": "師大分部",
        "Lat": 25.0084374367022,
        "Lon": 121.537808,
        "Sequence": 34,
        "StationID": "1165603295"
      }
    ]
  },
  {
    "Route": "280直",
    "SubRoute": "280直",
    "Direction": 1,
    "Stops": [
      {
        "Name": "捷運公館站",
        "Lat": 25.013993,
        "Lon": 121.535185,
        "Sequence": 1,
        "StationID": "1990"
      },
      {
        "Name": "臺大",
        "Lat": 25.01800299,
        "Lon": 121.5337036,
        "Sequence": 2,
        "StationID": "6667"
      },
      {
        "Name": "臺大綜合體育館",
        "Lat": 25.0214053337175,
        "Lon": 121.534388191196,
        "Sequence": 3,
        "StationID": "2197"
      },
      {
        "Name": "龍安國小(公務人力發展學院)",
        "Lat": 25.02527096,
        "Lon": 121.5349231,
        "Sequence": 4,
        "StationID": "2255"
      },
      {
        "Name": "金華新生路口",
        "Lat": 25.03048,
        "Lon": 121.53384,
        "Sequence": 5,
        "StationID": "1943"
      },
      {
        "Name": "信義新生路口",
        "Lat": 25.03320526,
        "Lon": 121.5329027,
        "Sequence": 6,
        "StationID": "6670"
      },
      {
        "Name": "仁愛新生路口",
        "Lat": 25.03779674,
        "Lon": 121.5328703,
        "Sequence": 7,
        "StationID": "6682"
      },
      {
        "Name": "捷運忠孝新生站",
        "Lat": 25.04198981,
        "Lon": 121.5328758,
        "Sequence": 8,
        "StationID": "2264"
      },
      {
        "Name": "光華商場",
        "Lat": 25.045,
        "Lon": 121.53299,
        "Sequence": 9,
        "StationID": "6683"
      },
      {
        "Name": "長安松江路口",
        "Lat": 25.0482736559236,
        "Lon": 121.532997019655,
        "Sequence": 10,
        "StationID": "1281"
      },
      {
        "Name": "捷運松江南京站",
        "Lat": 25.0517997,
        "Lon": 121.533087,
        "Sequence": 11,
        "StationID": "6702"
      },
      {
        "Name": "長春松江路口",
        "Lat": 25.05453652,
        "Lon": 121.5331386,
        "Sequence": 12,
        "StationID": "1270"
      },
      {
        "Name": "捷運行天宮站(松江路)",
        "Lat": 25.057613818954,
        "Lon": 121.533176617617,
        "Sequence": 13,
        "StationID": "6704"
      },
      {
        "Name": "民權松江路口",
        "Lat": 25.062118989233,
        "Lon": 121.53321393502,
        "Sequence": 14,
        "StationID": "6705"
      },
      {
        "Name": "民權吉林路口",
        "Lat": 25.062636,
        "Lon": 121.529148,
        "Sequence": 15,
        "StationID": "1000162"
      },
      {
        "Name": "中山國小(新生)",
        "Lat": 25.06385884449781,
        "Lon": 121.52798329556133,
        "Sequence": 16,
        "StationID": "6663"
      },
      {
        "Name": "稻江護校",
        "Lat": 25.066076,
        "Lon": 121.528089,
        "Sequence": 17,
        "StationID": "1387"
      },
      {
        "Name": "民族東路口",
        "Lat": 25.06761882553957,
        "Lon": 121.52804750361558,
        "Sequence": 18,
        "StationID": "1165608795"
      },
      {
        "Name": "劍潭",
        "Lat": 25.0805889011559,
        "Lon": 121.524381872313,
        "Sequence": 19,
        "StationID": "50629"
      },
      {
        "Name": "銘傳大學",
        "Lat": 25.08697,
        "Lon": 121.52663,
        "Sequence": 20,
        "StationID": "50630"
      },
      {
        "Name": "台電台北北區營業處",
        "Lat": 25.091209,
        "Lon": 121.527703,
        "Sequence": 21,
        "StationID": "1218"
      },
      {
        "Name": "士林官邸(中山)",
        "Lat": 25.0947774592454,
        "Lon": 121.528319753964,
        "Sequence": 22,
        "StationID": "576"
      },
      {
        "Name": "福林橋",
        "Lat": 25.097204,
        "Lon": 121.527715,
        "Sequence": 23,
        "StationID": "1165606095"
      },
      {
        "Name": "士林電機(中山德行路口)",
        "Lat": 25.105464036905595,
        "Lon": 121.52496462789321,
        "Sequence": 24,
        "StationID": "589"
      },
      {
        "Name": "石油新村",
        "Lat": 25.10679142,
        "Lon": 121.5259541,
        "Sequence": 25,
        "StationID": "684"
      },
      {
        "Name": "忠義新城",
        "Lat": 25.10740411,
        "Lon": 121.5277039,
        "Sequence": 26,
        "StationID": "717"
      },
      {
        "Name": "德行忠誠路口",
        "Lat": 25.10812,
        "Lon": 121.52965,
        "Sequence": 27,
        "StationID": "926"
      },
      {
        "Name": "德行東路",
        "Lat": 25.10882301,
        "Lon": 121.5316696,
        "Sequence": 28,
        "StationID": "1000292"
      },
      {
        "Name": "德行芝玉路口",
        "Lat": 25.109549,
        "Lon": 121.533752,
        "Sequence": 29,
        "StationID": "746"
      },
      {
        "Name": "芝山國小",
        "Lat": 25.110221679734863,
        "Lon": 121.53723045493302,
        "Sequence": 30,
        "StationID": "748"
      },
      {
        "Name": "忠孝新村",
        "Lat": 25.1112,
        "Lon": 121.5398,
        "Sequence": 31,
        "StationID": "50650"
      },
      {
        "Name": "職能發展學院二",
        "Lat": 25.113281,
        "Lon": 121.539439,
        "Sequence": 32,
        "StationID": "1165604847"
      }
    ]
  }
]