[
  {
    "Route": "通勤21",
    "SubRoute": "通勤21",
    "Direction": 0,
    "Stops": [
      {
        "Name": "富德",
        "Lat": 24.999402832437188,
        "Lon": 121.5913505957924,
        "Sequence": 1,
        "StationID": "4144"
      },
      {
        "Name": "象頭埔",
        "Lat": 25.000950102464405,
        "Lon": 121.58954681023364,
        "Sequence": 2,
        "StationID": "56114"
      },
      {
        "Name": "萬福橋",
        "Lat": 25.0031479361546,
        "Lon": 121.585066207329,
        "Sequence": 3,
        "StationID": "56112"
      },
      {
        "Name": "捷運動物園站",
        "Lat": 24.99881,
        "Lon": 121.58021,
        "Sequence": 4,
        "StationID": "2442"
      },
      {
        "Name": "貓纜動物園站",
        "Lat": 24.9968,
        "Lon": 121.576778,
        "Sequence": 5,
        "StationID": "1000436"
      },
      {
        "Name": "萬壽橋頭(新光)",
        "Lat": 24.993482,
        "Lon": 121.57363,
        "Sequence": 6,
        "StationID": "2512"
      },
      {
        "Name": "萬壽橋頭(秀明)",
        "Lat": 24.99161,
        "Lon": 121.574153,
        "Sequence": 7,
        "StationID": "2510"
      },
      {
        "Name": "萬興國小",
        "Lat": 24.989679,
        "Lon": 121.576757,
        "Sequence": 8,
        "StationID": "2519"
      },
      {
        "Name": "政大(聯合醫院)",
        "Lat": 24.987374,
        "Lon": 121.576765,
        "Sequence": 9,
        "StationID": "1165604701"
      },
      {
        "Name": "小坑口(北政國中)",
        "Lat": 24.986195,
        "Lon": 121.579379,
        "Sequence": 10,
        "StationID": "2364"
      },
      {
        "Name": "北政國中(政大實小)",
        "Lat": 24.9850502753839,
        "Lon": 121.579955106331,
        "Sequence": 11,
        "StationID": "2395"
      },
      {
        "Name": "三角公園",
        "Lat": 24.983627,
        "Lon": 121.579664080453,
        "Sequence": 12,
        "StationID": "2365"
      },
      {
        "Name": "政大威秀",
        "Lat": 24.983063000243483,
        "Lon": 121.57999610766447,
        "Sequence": 13,
        "StationID": "1001463"
      },
      {
        "Name": "水鋼琴社區",
        "Lat": 24.981690857565898,
        "Lon": 121.580961552542,
        "Sequence": 14,
        "StationID": "2393"
      },
      {
        "Name": "草湳大榕樹",
        "Lat": 24.970109920680684,
        "Lon": 121.60853783847634,
        "Sequence": 15,
        "StationID": "1165605289"
      }
    ]
  },
  {
    "Route": "通勤21",
    "SubRoute": "通勤21",
    "Direction": 1,
    "Stops": [
      {
        "Name": "草湳大榕樹",
        "Lat": 24.970109920680684,
        "Lon": 121.60853783847634,
        "Sequence": 1,
        "StationID": "1165605289"
      },
      {
        "Name": "岐山",
        "Lat": 24.972478,
        "Lon": 121.598729,
        "Sequence": 2,
        "StationID": "1165608976"
      },
      {
        "Name": "貓纜指南宮站",
        "Lat": 24.9788899,
        "Lon": 121.5899016,
        "Sequence": 3,
        "StationID": "1165606506"
      },
      {
        "Name": "水鋼琴社區",
        "Lat": 24.981787098393884,
        "Lon": 121.58108083898607,
        "Sequence": 4,
        "StationID": "4652"
      },
      {
        "Name": "三角公園",
        "Lat": 24.98319988723959,
        "Lon": 121.58007427699314,
        "Sequence": 5,
        "StationID": "56089"
      },
      {
        "Name": "北政國中(政大實小)",
        "Lat": 24.9850343300953,
        "Lon": 121.580132112058,
        "Sequence": 6,
        "StationID": "2397"
      },
      {
        "Name": "小坑口(北政國中)",
        "Lat": 24.986063,
        "Lon": 121.579711,
        "Sequence": 7,
        "StationID": "56088"
      },
      {
        "Name": "政大",
        "Lat": 24.987567,
        "Lon": 121.576536,
        "Sequence": 8,
        "StationID": "3988"
      },
      {
        "Name": "萬興圖書館",
        "Lat": 24.989020423587586,
        "Lon": 121.57699279565435,
        "Sequence": 9,
        "StationID": "2520"
      },
      {
        "Name": "大誠高中",
        "Lat": 24.990413,
        "Lon": 121.576905,
        "Sequence": 10,
        "StationID": "2368"
      },
      {
        "Name": "萬壽橋頭(秀明)",
        "Lat": 24.991863,
        "Lon": 121.574627,
        "Sequence": 11,
        "StationID": "50671"
      },
      {
        "Name": "萬壽橋頭(新光)",
        "Lat": 24.992819,
        "Lon": 121.573853,
        "Sequence": 12,
        "StationID": "50669"
      },
      {
        "Name": "貓纜動物園站",
        "Lat": 24.996309,
        "Lon": 121.576197,
        "Sequence": 13,
        "StationID": "2443"
      },
      {
        "Name": "捷運動物園站",
        "Lat": 24.99857,
        "Lon": 121.57996,
        "Sequence": 14,
        "StationID": "50672"
      },
      {
        "Name": "萬福橋",
        "Lat": 25.0029972947861,
        "Lon": 121.584612472655,
        "Sequence": 15,
        "StationID": "2518"
      },
      {
        "Name": "象頭埔",
        "Lat": 25.00068878171876,
        "Lon": 121.58947304948941,
        "Sequence": 16,
        "StationID": "2480"
      },
      {
        "Name": "富德",
        "Lat": 24.9998141769425,
        "Lon": 121.590552451575,
        "Sequence": 17,
        "StationID": "4143"
      }
    ]
  }
]