[
  {
    "Route": "市民小巴6",
    "SubRoute": "市民小巴6大都會",
    "Direction": 0,
    "Stops": [
      {
        "Name": "舊莊站",
        "Lat": 25.0394543,
        "Lon": 121.6233248,
        "Sequence": 1,
        "StationID": "50092"
      },
      {
        "Name": "舊莊公園",
        "Lat": 25.04107056,
        "Lon": 121.6208947,
        "Sequence": 2,
        "StationID": "1726"
      },
      {
        "Name": "金德橋頭",
        "Lat": 25.042651,
        "Lon": 121.619864,
        "Sequence": 3,
        "StationID": "3883"
      },
      {
        "Name": "胡適國小",
        "Lat": 25.04344894,
        "Lon": 121.6190381,
        "Sequence": 4,
        "StationID": "50095"
      },
      {
        "Name": "福山抽水站",
        "Lat": 25.04642,
        "Lon": 121.61734,
        "Sequence": 5,
        "StationID": "50096"
      },
      {
        "Name": "六福公園",
        "Lat": 25.04887,
        "Lon": 121.616349,
        "Sequence": 6,
        "StationID": "1165604594"
      },
      {
        "Name": "誠正國中",
        "Lat": 25.0515460114719,
        "Lon": 121.61603141641,
        "Sequence": 7,
        "StationID": "50020"
      },
      {
        "Name": "國家文官學院",
        "Lat": 25.05311326,
        "Lon": 121.6145567,
        "Sequence": 8,
        "StationID": "1693"
      },
      {
        "Name": "台北生技園區",
        "Lat": 25.05265346,
        "Lon": 121.610465,
        "Sequence": 9,
        "StationID": "3922"
      },
      {
        "Name": "捷運南港站",
        "Lat": 25.05226,
        "Lon": 121.607245,
        "Sequence": 10,
        "StationID": "1699"
      },
      {
        "Name": "南港車站",
        "Lat": 25.05319593,
        "Lon": 121.6071781,
        "Sequence": 11,
        "StationID": "4847"
      }
    ]
  },
  {
    "Route": "市民小巴6",
    "SubRoute": "市民小巴6大都會",
    "Direction": 1,
    "Stops": [
      {
        "Name": "台北生技園區",
        "Lat": 25.052446715063496,
        "Lon": 121.61111038525819,
        "Sequence": 1,
        "StationID": "1607"
      },
      {
        "Name": "國家文官學院",
        "Lat": 25.05277613,
        "Lon": 121.6137831,
        "Sequence": 2,
        "StationID": "1694"
      },
      {
        "Name": "誠正國中",
        "Lat": 25.0518036904539,
        "Lon": 121.615865875754,
        "Sequence": 3,
        "StationID": "1711"
      },
      {
        "Name": "南港水廠",
        "Lat": 25.049543,
        "Lon": 121.615625,
        "Sequence": 4,
        "StationID": "1650"
      },
      {
        "Name": "六福公園",
        "Lat": 25.048866,
        "Lon": 121.616119,
        "Sequence": 5,
        "StationID": "1165604595"
      },
      {
        "Name": "福山抽水站",
        "Lat": 25.04638,
        "Lon": 121.61729,
        "Sequence": 6,
        "StationID": "488"
      },
      {
        "Name": "胡適國小",
        "Lat": 25.04356116,
        "Lon": 121.6188397,
        "Sequence": 7,
        "StationID": "2785"
      },
      {
        "Name": "金德橋頭",
        "Lat": 25.04261402,
        "Lon": 121.6196862,
        "Sequence": 8,
        "StationID": "3884"
      },
      {
        "Name": "舊莊公園",
        "Lat": 25.04097252,
        "Lon": 121.6208139,
        "Sequence": 9,
        "StationID": "50094"
      },
      {
        "Name": "舊莊站",
        "Lat": 25.0392191053102,
        "Lon": 121.623378808109,
        "Sequence": 10,
        "StationID": "50093"
      }
    ]
  },
  {
    "Route": "市民小巴6",
    "SubRoute": "市民小巴6(山豬)大都會",
    "Direction": 0,
    "Stops": [
      {
        "Name": "舊莊站",
        "Lat": 25.0392191053102,
        "Lon": 121.623378808109,
        "Sequence": 1,
        "StationID": "50093"
      },
      {
        "Name": "舊莊",
        "Lat": 25.038074,
        "Lon": 121.622697,
        "Sequence": 2,
        "StationID": "1165603361"
      },
      {
        "Name": "坑口運動公園",
        "Lat": 25.0352494716081,
        "Lon": 121.623579753493,
        "Sequence": 3,
        "StationID": "4648"
      },
      {
        "Name": "山豬窟游泳池",
        "Lat": 25.03224587,
        "Lon": 121.6242927,
        "Sequence": 4,
        "StationID": "1609"
      },
      {
        "Name": "坑口運動公園",
        "Lat": 25.0351236765672,
        "Lon": 121.623671273242,
        "Sequence": 5,
        "StationID": "1165603274"
      },
      {
        "Name": "舊莊",
        "Lat": 25.03811142,
        "Lon": 121.6228397,
        "Sequence": 6,
        "StationID": "1723"
      },
      {
        "Name": "舊莊站",
        "Lat": 25.0394543,
        "Lon": 121.6233248,
        "Sequence": 7,
        "StationID": "50092"
      },
      {
        "Name": "舊莊公園",
        "Lat": 25.04107056,
        "Lon": 121.6208947,
        "Sequence": 8,
        "StationID": "1726"
      },
      {
        "Name": "金德橋頭",
        "Lat": 25.042651,
        "Lon": 121.619864,
        "Sequence": 9,
        "StationID": "3883"
      },
      {
        "Name": "胡適國小",
        "Lat": 25.04344894,
        "Lon": 121.6190381,
        "Sequence": 10,
        "StationID": "50095"
      },
      {
        "Name": "福山抽水站",
        "Lat": 25.04642,
        "Lon": 121.61734,
        "Sequence": 11,
        "StationID": "50096"
      },
      {
        "Name": "六福公園",
        "Lat": 25.04887,
        "Lon": 121.616349,
        "Sequence": 12,
        "StationID": "1165604594"
      },
      {
        "Name": "誠正國中",
        "Lat": 25.0515460114719,
        "Lon": 121.61603141641,
        "Sequence": 13,
        "StationID": "50020"
      },
      {
        "Name": "國家文官學院",
        "Lat": 25.05311326,
        "Lon": 121.6145567,
        "Sequence": 14,
        "StationID": "1693"
      },
      {
        "Name": "台北生技園區",
        "Lat": 25.05265346,
        "Lon": 121.610465,
        "Sequence": 15,
        "StationID": "3922"
      },
      {
        "Name": "捷運南港站",
        "Lat": 25.05226,
        "Lon": 121.607245,
        "Sequence": 16,
        "StationID": "1699"
      },
      {
        "Name": "南港車站",
        "Lat": 25.05319593,
        "Lon": 121.6071781,
        "Sequence": 17,
        "StationID": "4847"
      }
    ]
  },
  {
    "Route": "市民小巴6",
    "SubRoute": "市民小巴6(山豬)大都會",
    "Direction": 1,
    "Stops": [
      {
        "Name": "台北生技園區",
        "Lat": 25.052446715063496,
        "Lon": 121.61111038525819,
        "Sequence": 1,
        "StationID": "1607"
      },
      {
        "Name": "國家文官學院",
        "Lat": 25.05277613,
        "Lon": 121.6137831,
        "Sequence": 2,
        "StationID": "1694"
      },
      {
        "Name": "誠正國中",
        "Lat": 25.0518036904539,
        "Lon": 121.615865875754,
        "Sequence": 3,
        "StationID": "1711"
      },
      {
        "Name": "南港水廠",
        "Lat": 25.049543,
        "Lon": 121.615625,
        "Sequence": 4,
        "StationID": "1650"
      },
      {
        "Name": "六福公園",
        "Lat": 25.048866,
        "Lon": 121.616119,
        "Sequence": 5,
        "StationID": "1165604595"
      },
      {
        "Name": "福山抽水站",
        "Lat": 25.04638,
        "Lon": 121.61729,
        "Sequence": 6,
        "StationID": "488"
      },
      {
        "Name": "胡適國小",
        "Lat": 25.04356116,
        "Lon": 121.6188397,
        "Sequence": 7,
        "StationID": "2785"
      },
      {
        "Name": "金德橋頭",
        "Lat": 25.04261402,
        "Lon": 121.6196862,
        "Sequence": 8,
        "StationID": "3884"
      },
      {
        "Name": "舊莊公園",
        "Lat": 25.04097252,
        "Lon": 121.6208139,
        "Sequence": 9,
        "StationID": "50094"
      },
      {
        "Name": "舊莊站",
        "Lat": 25.0392191053102,
        "Lon": 121.623378808109,
        "Sequence": 10,
        "StationID": "50093"
      },
      {
        "Name": "舊莊",
        "Lat": 25.038074,
        "Lon": 121.622697,
        "Sequence": 11,
        "StationID": "1165603361"
      },
      {
        "Name": "坑口運動公園",
        "Lat": 25.0352494716081,
        "Lon": 121.623579753493,
        "Sequence": 12,
        "StationID": "4648"
      },
      {
        "Name": "山豬窟游泳池",
        "Lat": 25.03224587,
        "Lon": 121.6242927,
        "Sequence": 13,
        "StationID": "1609"
      },
      {
        "Name": "坑口運動公園",
        "Lat": 25.0351236765672,
        "Lon": 121.623671273242,
        "Sequence": 14,
        "StationID": "1165603274"
      },
      {
        "Name": "舊莊",
        "Lat": 25.03811142,
        "Lon": 121.6228397,
        "Sequence": 15,
        "StationID": "1723"
      },
      {
        "Name": "舊莊站",
        "Lat": 25.0394543,
        "Lon": 121.6233248,
        "Sequence": 16,
        "StationID": "50092"
      }
    ]
  },
  {
    "Route": "市民小巴6",
    "SubRoute": "市民小巴6大南",
    "Direction": 0,
    "Stops": [
      {
        "Name": "舊莊站",
        "Lat": 25.0394543,
        "Lon": 121.6233248,
        "Sequence": 1,
        "StationID": "50092"
      },
      {
        "Name": "舊莊公園",
        "Lat": 25.04107056,
        "Lon": 121.6208947,
        "Sequence": 2,
        "StationID": "1726"
      },
      {
        "Name": "金德橋頭",
        "Lat": 25.042651,
        "Lon": 121.619864,
        "Sequence": 3,
        "StationID": "3883"
      },
      {
        "Name": "胡適國小",
        "Lat": 25.04344894,
        "Lon": 121.6190381,
        "Sequence": 4,
        "StationID": "50095"
      },
      {
        "Name": "福山抽水站",
        "Lat": 25.04642,
        "Lon": 121.61734,
        "Sequence": 5,
        "StationID": "50096"
      },
      {
        "Name": "六福公園",
        "Lat": 25.04887,
        "Lon": 121.616349,
        "Sequence": 6,
        "StationID": "1165604594"
      },
      {
        "Name": "誠正國中",
        "Lat": 25.0515460114719,
        "Lon": 121.61603141641,
        "Sequence": 7,
        "StationID": "50020"
      },
      {
        "Name": "國家文官學院",
        "Lat": 25.05311326,
        "Lon": 121.6145567,
        "Sequence": 8,
        "StationID": "1693"
      },
      {
        "Name": "台北生技園區",
        "Lat": 25.05265346,
        "Lon": 121.610465,
        "Sequence": 9,
        "StationID": "3922"
      },
      {
        "Name": "捷運南港站",
        "Lat": 25.05226,
        "Lon": 121.607245,
        "Sequence": 10,
        "StationID": "1699"
      },
      {
        "Name": "南港車站",
        "Lat": 25.05319593,
        "Lon": 121.6071781,
        "Sequence": 11,
        "StationID": "4847"
      }
    ]
  },
  {
    "Route": "市民小巴6",
    "SubRoute": "市民小巴6大南",
    "Direction": 1,
    "Stops": [
      {
        "Name": "台北生技園區",
        "Lat": 25.052446715063496,
        "Lon": 121.61111038525819,
        "Sequence": 1,
        "StationID": "1607"
      },
      {
        "Name": "國家文官學院",
        "Lat": 25.05277613,
        "Lon": 121.6137831,
        "Sequence": 2,
        "StationID": "1694"
      },
      {
        "Name": "誠正國中",
        "Lat": 25.0518036904539,
        "Lon": 121.615865875754,
        "Sequence": 3,
        "StationID": "1711"
      },
      {
        "Name": "南港水廠",
        "Lat": 25.049543,
        "Lon": 121.615625,
        "Sequence": 4,
        "StationID": "1650"
      },
      {
        "Name": "六福公園",
        "Lat": 25.048866,
        "Lon": 121.616119,
        "Sequence": 5,
        "StationID": "1165604595"
      },
      {
        "Name": "福山抽水站",
        "Lat": 25.04638,
        "Lon": 121.61729,
        "Sequence": 6,
        "StationID": "488"
      },
      {
        "Name": "胡適國小",
        "Lat": 25.04356116,
        "Lon": 121.6188397,
        "Sequence": 7,
        "StationID": "2785"
      },
      {
        "Name": "金德橋頭",
        "Lat": 25.04261402,
        "Lon": 121.6196862,
        "Sequence": 8,
        "StationID": "3884"
      },
      {
        "Name": "舊莊公園",
        "Lat": 25.04097252,
        "Lon": 121.6208139,
        "Sequence": 9,
        "StationID": "50094"
      },
      {
        "Name": "舊莊站",
        "Lat": 25.0394543,
        "Lon": 121.6233248,
        "Sequence": 10,
        "StationID": "50092"
      }
    ]
  },
  {
    "Route": "市民小巴6",
    "SubRoute": "市民小巴6(山豬)大南",
    "Direction": 0,
    "Stops": [
      {
        "Name": "舊莊站",
        "Lat": 25.0392191053102,
        "Lon": 121.623378808109,
        "Sequence": 1,
        "StationID": "50093"
      },
      {
        "Name": "舊莊",
        "Lat": 25.038074,
        "Lon": 121.622697,
        "Sequence": 2,
        "StationID": "1165603361"
      },
      {
        "Name": "坑口運動公園",
        "Lat": 25.0352494716081,
        "Lon": 121.623579753493,
        "Sequence": 3,
        "StationID": "4648"
      },
      {
        "Name": "山豬窟游泳池",
        "Lat": 25.03224587,
        "Lon": 121.6242927,
        "Sequence": 4,
        "StationID": "1609"
      },
      {
        "Name": "坑口運動公園",
        "Lat": 25.0351236765672,
        "Lon": 121.623671273242,
        "Sequence": 5,
        "StationID": "1165603274"
      },
      {
        "Name": "舊莊",
        "Lat": 25.03811142,
        "Lon": 121.6228397,
        "Sequence": 6,
        "StationID": "1723"
      },
      {
        "Name": "舊莊站",
        "Lat": 25.0394543,
        "Lon": 121.6233248,
        "Sequence": 7,
        "StationID": "50092"
      },
      {
        "Name": "舊莊公園",
        "Lat": 25.04107056,
        "Lon": 121.6208947,
        "Sequence": 8,
        "StationID": "1726"
      },
      {
        "Name": "金德橋頭",
        "Lat": 25.042651,
        "Lon": 121.619864,
        "Sequence": 9,
        "StationID": "3883"
      },
      {
        "Name": "胡適國小",
        "Lat": 25.04344894,
        "Lon": 121.6190381,
        "Sequence": 10,
        "StationID": "50095"
      },
      {
        "Name": "福山抽水站",
        "Lat": 25.04642,
        "Lon": 121.61734,
        "Sequence": 11,
        "StationID": "50096"
      },
      {
        "Name": "六福公園",
        "Lat": 25.04887,
        "Lon": 121.616349,
        "Sequence": 12,
        "StationID": "1165604594"
      },
      {
        "Name": "誠正國中",
        "Lat": 25.0515460114719,
        "Lon": 121.61603141641,
        "Sequence": 13,
        "StationID": "50020"
      },
      {
        "Name": "國家文官學院",
        "Lat": 25.05311326,
        "Lon": 121.6145567,
        "Sequence": 14,
        "StationID": "1693"
      },
      {
        "Name": "台北生技園區",
        "Lat": 25.05265346,
        "Lon": 121.610465,
        "Sequence": 15,
        "StationID": "3922"
      },
      {
        "Name": "捷運南港站",
        "Lat": 25.05226,
        "Lon": 121.607245,
        "Sequence": 16,
        "StationID": "1699"
      },
      {
        "Name": "南港車站",
        "Lat": 25.05319593,
        "Lon": 121.6071781,
        "Sequence": 17,
        "StationID": "4847"
      }
    ]
  },
  {
    "Route": "市民小巴6",
    "SubRoute": "市民小巴6(山豬)大南",
    "Direction": 1,
    "Stops": [
      {
        "Name": "台北生技園區",
        "Lat": 25.052446715063496,
        "Lon": 121.61111038525819,
        "Sequence": 1,
        "StationID": "1607"
      },
      {
        "Name": "國家文官學院",
        "Lat": 25.05277613,
        "Lon": 121.6137831,
        "Sequence": 2,
        "StationID": "1694"
      },
      {
        "Name": "誠正國中",
        "Lat": 25.0518036904539,
        "Lon": 121.615865875754,
        "Sequence": 3,
        "StationID": "1711"
      },
      {
        "Name": "南港水廠",
        "Lat": 25.049543,
        "Lon": 121.615625,
        "Sequence": 4,
        "StationID": "1650"
      },
      {
        "Name": "六福公園",
        "Lat": 25.048866,
        "Lon": 121.616119,
        "Sequence": 5,
        "StationID": "1165604595"
      },
      {
        "Name": "福山抽水站",
        "Lat": 25.04638,
        "Lon": 121.61729,
        "Sequence": 6,
        "StationID": "488"
      },
      {
        "Name": "胡適國小",
        "Lat": 25.04356116,
        "Lon": 121.6188397,
        "Sequence": 7,
        "StationID": "2785"
      },
      {
        "Name": "金德橋頭",
        "Lat": 25.04261402,
        "Lon": 121.6196862,
        "Sequence": 8,
        "StationID": "3884"
      },
      {
        "Name": "舊莊公園",
        "Lat": 25.04097252,
        "Lon": 121.6208139,
        "Sequence": 9,
        "StationID": "50094"
      },
      {
        "Name": "舊莊站",
        "Lat": 25.0392191053102,
        "Lon": 121.623378808109,
        "Sequence": 10,
        "StationID": "50093"
      },
      {
        "Name": "舊莊",
        "Lat": 25.038074,
        "Lon": 121.622697,
        "Sequence": 11,
        "StationID": "1165603361"
      },
      {
        "Name": "坑口運動公園",
        "Lat": 25.0352494716081,
        "Lon": 121.623579753493,
        "Sequence": 12,
        "StationID": "4648"
      },
      {
        "Name": "山豬窟游泳池",
        "Lat": 25.03224587,
        "Lon": 121.6242927,
        "Sequence": 13,
        "StationID": "1609"
      },
      {
        "Name": "坑口運動公園",
        "Lat": 25.0351236765672,
        "Lon": 121.623671273242,
        "Sequence": 14,
        "StationID": "1165603274"
      },
      {
        "Name": "舊莊",
        "Lat": 25.03811142,
        "Lon": 121.6228397,
        "Sequence": 15,
        "StationID": "1723"
      },
      {
        "Name": "舊莊站",
        "Lat": 25.0394543,
        "Lon": 121.6233248,
        "Sequence": 16,
        "StationID": "50092"
      }
    ]
  }
]