[
  {
    "Route": "611",
    "SubRoute": "611",
    "Direction": 0,
    "Stops": [
      {
        "Name": "富德",
        "Lat": 24.999402832437188,
        "Lon": 121.5913505957924,
        "Sequence": 1,
        "StationID": "4144"
      },
      {
        "Name": "象頭埔",
        "Lat": 25.000950102464405,
        "Lon": 121.58954681023364,
        "Sequence": 2,
        "StationID": "56114"
      },
      {
        "Name": "萬福橋",
        "Lat": 25.0031479361546,
        "Lon": 121.585066207329,
        "Sequence": 3,
        "StationID": "56112"
      },
      {
        "Name": "捷運動物園站",
        "Lat": 24.99881,
        "Lon": 121.58021,
        "Sequence": 4,
        "StationID": "2442"
      },
      {
        "Name": "貓纜動物園站",
        "Lat": 24.9968,
        "Lon": 121.576778,
        "Sequence": 5,
        "StationID": "1000436"
      },
      {
        "Name": "萬壽橋頭(新光)",
        "Lat": 24.993482,
        "Lon": 121.57363,
        "Sequence": 6,
        "StationID": "2512"
      },
      {
        "Name": "萬壽橋頭(秀明)",
        "Lat": 24.99161,
        "Lon": 121.574153,
        "Sequence": 7,
        "StationID": "2510"
      },
      {
        "Name": "萬興國小",
        "Lat": 24.989679,
        "Lon": 121.576757,
        "Sequence": 8,
        "StationID": "2519"
      },
      {
        "Name": "政大一",
        "Lat": 24.98782160454249,
        "Lon": 121.57604615193513,
        "Sequence": 9,
        "StationID": "1001409"
      },
      {
        "Name": "新光路口",
        "Lat": 24.9880845060964,
        "Lon": 121.573881732316,
        "Sequence": 10,
        "StationID": "1000854"
      },
      {
        "Name": "指南路口",
        "Lat": 24.986224,
        "Lon": 121.570606,
        "Sequence": 11,
        "StationID": "1000544"
      },
      {
        "Name": "木南公園",
        "Lat": 24.984828,
        "Lon": 121.57011,
        "Sequence": 12,
        "StationID": "2521"
      },
      {
        "Name": "景文中學",
        "Lat": 24.984131427903375,
        "Lon": 121.56895990914902,
        "Sequence": 13,
        "StationID": "1000522"
      },
      {
        "Name": "司法新村",
        "Lat": 24.98347,
        "Lon": 121.56695,
        "Sequence": 14,
        "StationID": "4029"
      },
      {
        "Name": "忠順廟",
        "Lat": 24.982712452429457,
        "Lon": 121.56460855354919,
        "Sequence": 15,
        "StationID": "2411"
      },
      {
        "Name": "國泰新村(木新)",
        "Lat": 24.9820534481377,
        "Lon": 121.561849824052,
        "Sequence": 16,
        "StationID": "3994"
      },
      {
        "Name": "力行國小",
        "Lat": 24.981733915823476,
        "Lon": 121.56033392387744,
        "Sequence": 17,
        "StationID": "2362"
      },
      {
        "Name": "木新市場",
        "Lat": 24.9811534735698,
        "Lon": 121.558272457788,
        "Sequence": 18,
        "StationID": "2391"
      },
      {
        "Name": "景美女中",
        "Lat": 24.980465,
        "Lon": 121.555554,
        "Sequence": 19,
        "StationID": "2462"
      },
      {
        "Name": "木新路口",
        "Lat": 24.98176616079763,
        "Lon": 121.5537644922877,
        "Sequence": 20,
        "StationID": "7001"
      },
      {
        "Name": "實踐國小",
        "Lat": 24.983484,
        "Lon": 121.556904,
        "Sequence": 21,
        "StationID": "2409"
      },
      {
        "Name": "忠順街",
        "Lat": 24.983990104989015,
        "Lon": 121.5588151484035,
        "Sequence": 22,
        "StationID": "1000530"
      },
      {
        "Name": "興隆路口(忠順)",
        "Lat": 24.98429184,
        "Lon": 121.5609564,
        "Sequence": 23,
        "StationID": "2539"
      },
      {
        "Name": "木柵公園",
        "Lat": 24.987245753153893,
        "Lon": 121.56078735305545,
        "Sequence": 24,
        "StationID": "2405"
      },
      {
        "Name": "馬明潭(再興中學)",
        "Lat": 24.989363359859,
        "Lon": 121.559942504895,
        "Sequence": 25,
        "StationID": "1000443"
      },
      {
        "Name": "興隆山莊",
        "Lat": 24.990768,
        "Lon": 121.55919,
        "Sequence": 26,
        "StationID": "1000444"
      },
      {
        "Name": "海巡署一",
        "Lat": 24.99243758851507,
        "Lon": 121.55883687781873,
        "Sequence": 27,
        "StationID": "392"
      },
      {
        "Name": "海巡署",
        "Lat": 24.99385696,
        "Lon": 121.5594086,
        "Sequence": 28,
        "StationID": "2452"
      },
      {
        "Name": "文山運動中心(興隆)",
        "Lat": 24.996452582031367,
        "Lon": 121.56012261539274,
        "Sequence": 29,
        "StationID": "4712"
      },
      {
        "Name": "臺灣警察專科學校",
        "Lat": 24.9977449509898,
        "Lon": 121.55947313859588,
        "Sequence": 30,
        "StationID": "1000764"
      },
      {
        "Name": "捷運萬芳醫院站",
        "Lat": 24.999259,
        "Lon": 121.557829,
        "Sequence": 31,
        "StationID": "2449"
      },
      {
        "Name": "中國科技大學(興隆)",
        "Lat": 25.0004051038435,
        "Lon": 121.555797991874,
        "Sequence": 32,
        "StationID": "2375"
      },
      {
        "Name": "興隆路口(辛亥)",
        "Lat": 25.001741,
        "Lon": 121.555211,
        "Sequence": 33,
        "StationID": "1000751"
      },
      {
        "Name": "捷運辛亥站",
        "Lat": 25.0037396380103,
        "Lon": 121.556531813076,
        "Sequence": 34,
        "StationID": "1000445"
      },
      {
        "Name": "辛亥國小",
        "Lat": 25.0070201506128,
        "Lon": 121.55871833409,
        "Sequence": 35,
        "StationID": "1000446"
      },
      {
        "Name": "青峰活動中心",
        "Lat": 25.016039021546764,
        "Lon": 121.55075149283692,
        "Sequence": 36,
        "StationID": "2275"
      },
      {
        "Name": "自來水處(辛亥)",
        "Lat": 25.018051,
        "Lon": 121.548282,
        "Sequence": 37,
        "StationID": "15107"
      },
      {
        "Name": "和平高中",
        "Lat": 25.01963,
        "Lon": 121.54746,
        "Sequence": 38,
        "StationID": "2254"
      },
      {
        "Name": "捷運六張犁站(基隆路)",
        "Lat": 25.0236369355906,
        "Lon": 121.551906976436,
        "Sequence": 39,
        "StationID": "2307"
      },
      {
        "Name": "喬治商職",
        "Lat": 25.02628003,
        "Lon": 121.5549231,
        "Sequence": 40,
        "StationID": "2159"
      },
      {
        "Name": "三興國小(臨江街觀光夜市)",
        "Lat": 25.028593,
        "Lon": 121.557084,
        "Sequence": 41,
        "StationID": "2035"
      },
      {
        "Name": "吳興街口",
        "Lat": 25.03159637,
        "Lon": 121.5588464,
        "Sequence": 42,
        "StationID": "2080"
      },
      {
        "Name": "世貿中心(基隆路)",
        "Lat": 25.0336777,
        "Lon": 121.5601565,
        "Sequence": 43,
        "StationID": "15120"
      },
      {
        "Name": "市政府(松壽)",
        "Lat": 25.0358368102123,
        "Lon": 121.564893286779,
        "Sequence": 44,
        "StationID": "2069"
      },
      {
        "Name": "松壽路口",
        "Lat": 25.0357841121602,
        "Lon": 121.567407790567,
        "Sequence": 45,
        "StationID": "2105"
      },
      {
        "Name": "興雅國中",
        "Lat": 25.03724,
        "Lon": 121.568534,
        "Sequence": 46,
        "StationID": "2178"
      },
      {
        "Name": "消防局(松仁)",
        "Lat": 25.039991,
        "Lon": 121.568621,
        "Sequence": 47,
        "StationID": "2139"
      },
      {
        "Name": "市立工農",
        "Lat": 25.04085411,
        "Lon": 121.5726502,
        "Sequence": 48,
        "StationID": "2055"
      },
      {
        "Name": "捷運永春站(忠孝)",
        "Lat": 25.040733,
        "Lon": 121.575809,
        "Sequence": 49,
        "StationID": "2153"
      },
      {
        "Name": "捷運永春站(松山)",
        "Lat": 25.04195027,
        "Lon": 121.5778998,
        "Sequence": 50,
        "StationID": "15116"
      },
      {
        "Name": "雙永國小",
        "Lat": 25.0435588382657,
        "Lon": 121.577918664208,
        "Sequence": 51,
        "StationID": "15115"
      },
      {
        "Name": "永吉松山路口",
        "Lat": 25.0450053957754,
        "Lon": 121.577906954135,
        "Sequence": 52,
        "StationID": "15114"
      },
      {
        "Name": "松山車站(松山)",
        "Lat": 25.04726924,
        "Lon": 121.5779129,
        "Sequence": 53,
        "StationID": "15113"
      },
      {
        "Name": "松山車站",
        "Lat": 25.0498061943222,
        "Lon": 121.578206062017,
        "Sequence": 54,
        "StationID": "15102"
      }
    ]
  },
  {
    "Route": "611",
    "SubRoute": "611",
    "Direction": 1,
    "Stops": [
      {
        "Name": "松山車站(松隆)",
        "Lat": 25.048258672854057,
        "Lon": 121.57890868194112,
        "Sequence": 1,
        "StationID": "2092"
      },
      {
        "Name": "松山車站(松山)",
        "Lat": 25.047159,
        "Lon": 121.577685,
        "Sequence": 2,
        "StationID": "2093"
      },
      {
        "Name": "永吉松山路口",
        "Lat": 25.0448632717332,
        "Lon": 121.577690522404,
        "Sequence": 3,
        "StationID": "4091"
      },
      {
        "Name": "捷運永春站(松山)",
        "Lat": 25.041936,
        "Lon": 121.577654,
        "Sequence": 4,
        "StationID": "2060"
      },
      {
        "Name": "捷運永春站(忠孝)",
        "Lat": 25.040967,
        "Lon": 121.575743,
        "Sequence": 5,
        "StationID": "3927"
      },
      {
        "Name": "市立工農",
        "Lat": 25.04110667625752,
        "Lon": 121.57227674964417,
        "Sequence": 6,
        "StationID": "3928"
      },
      {
        "Name": "消防局(松仁)",
        "Lat": 25.038604,
        "Lon": 121.568284,
        "Sequence": 7,
        "StationID": "1165604593"
      },
      {
        "Name": "興雅國中",
        "Lat": 25.0372323905063,
        "Lon": 121.568268559011,
        "Sequence": 8,
        "StationID": "2179"
      },
      {
        "Name": "松壽路口",
        "Lat": 25.0358810435418,
        "Lon": 121.566640146973,
        "Sequence": 9,
        "StationID": "2070"
      },
      {
        "Name": "市政府(松壽)",
        "Lat": 25.035992,
        "Lon": 121.564528,
        "Sequence": 10,
        "StationID": "2067"
      },
      {
        "Name": "世貿中心(基隆路)",
        "Lat": 25.03361852334641,
        "Lon": 121.55974066645364,
        "Sequence": 11,
        "StationID": "2046"
      },
      {
        "Name": "吳興街口",
        "Lat": 25.03159406,
        "Lon": 121.5586001,
        "Sequence": 12,
        "StationID": "1000294"
      },
      {
        "Name": "三興國小(臨江街觀光夜市)",
        "Lat": 25.028215,
        "Lon": 121.556522,
        "Sequence": 13,
        "StationID": "1000295"
      },
      {
        "Name": "喬治商職",
        "Lat": 25.02633063,
        "Lon": 121.5546403,
        "Sequence": 14,
        "StationID": "7009"
      },
      {
        "Name": "捷運六張犁站(基隆路)",
        "Lat": 25.02349646945939,
        "Lon": 121.55141707691577,
        "Sequence": 15,
        "StationID": "2308"
      },
      {
        "Name": "和平高中",
        "Lat": 25.02024,
        "Lon": 121.54763,
        "Sequence": 16,
        "StationID": "2253"
      },
      {
        "Name": "自來水處(辛亥)",
        "Lat": 25.017554094972425,
        "Lon": 121.54789116460638,
        "Sequence": 17,
        "StationID": "2248"
      },
      {
        "Name": "青峰活動中心",
        "Lat": 25.015144865886427,
        "Lon": 121.5513423711172,
        "Sequence": 18,
        "StationID": "15109"
      },
      {
        "Name": "辛亥國小",
        "Lat": 25.006882553836,
        "Lon": 121.558472554297,
        "Sequence": 19,
        "StationID": "2408"
      },
      {
        "Name": "捷運辛亥站",
        "Lat": 25.00487071,
        "Lon": 121.5569488,
        "Sequence": 20,
        "StationID": "2441"
      },
      {
        "Name": "捷運辛亥站一",
        "Lat": 25.003074756861,
        "Lon": 121.55586888955,
        "Sequence": 21,
        "StationID": "1000451"
      },
      {
        "Name": "興隆路口(辛亥)",
        "Lat": 25.002425,
        "Lon": 121.555481,
        "Sequence": 22,
        "StationID": "1165610421"
      },
      {
        "Name": "捷運萬芳醫院站",
        "Lat": 24.999571,
        "Lon": 121.556845,
        "Sequence": 23,
        "StationID": "1000769"
      },
      {
        "Name": "臺灣警察專科學校",
        "Lat": 24.9982684874929,
        "Lon": 121.558494894192,
        "Sequence": 24,
        "StationID": "1000770"
      },
      {
        "Name": "文山運動中心(興隆)",
        "Lat": 24.996224651489683,
        "Lon": 121.55988996370712,
        "Sequence": 25,
        "StationID": "3782"
      },
      {
        "Name": "海巡署",
        "Lat": 24.994721428997224,
        "Lon": 121.55947687971212,
        "Sequence": 26,
        "StationID": "2431"
      },
      {
        "Name": "海巡署一",
        "Lat": 24.993046,
        "Lon": 121.558778,
        "Sequence": 27,
        "StationID": "2451"
      },
      {
        "Name": "興隆山莊",
        "Lat": 24.9913869,
        "Lon": 121.5586916,
        "Sequence": 28,
        "StationID": "2535"
      },
      {
        "Name": "馬明潭(再興中學)",
        "Lat": 24.98937794,
        "Lon": 121.5597219,
        "Sequence": 29,
        "StationID": "2434"
      },
      {
        "Name": "木柵公園",
        "Lat": 24.98693,
        "Lon": 121.56074,
        "Sequence": 30,
        "StationID": "2404"
      },
      {
        "Name": "興隆路口(忠順)",
        "Lat": 24.984487,
        "Lon": 121.561007,
        "Sequence": 31,
        "StationID": "1000523"
      },
      {
        "Name": "忠順街",
        "Lat": 24.98412741,
        "Lon": 121.5589488,
        "Sequence": 32,
        "StationID": "1000524"
      },
      {
        "Name": "實踐國小",
        "Lat": 24.98357787,
        "Lon": 121.5568155,
        "Sequence": 33,
        "StationID": "1000525"
      },
      {
        "Name": "木新區民活動中心",
        "Lat": 24.98201862526,
        "Lon": 121.55666373939,
        "Sequence": 34,
        "StationID": "20341"
      },
      {
        "Name": "木新市場",
        "Lat": 24.98100977,
        "Lon": 121.5583622,
        "Sequence": 35,
        "StationID": "1000553"
      },
      {
        "Name": "力行國小",
        "Lat": 24.9813802657801,
        "Lon": 121.559783932422,
        "Sequence": 36,
        "StationID": "1000554"
      },
      {
        "Name": "國泰新村(木新)",
        "Lat": 24.981856,
        "Lon": 121.561802,
        "Sequence": 37,
        "StationID": "3993"
      },
      {
        "Name": "忠順廟",
        "Lat": 24.982503951501606,
        "Lon": 121.56456790757427,
        "Sequence": 38,
        "StationID": "1000453"
      },
      {
        "Name": "司法新村",
        "Lat": 24.98305,
        "Lon": 121.56636,
        "Sequence": 39,
        "StationID": "4028"
      },
      {
        "Name": "景文中學",
        "Lat": 24.9837877068618,
        "Lon": 121.568528509552,
        "Sequence": 40,
        "StationID": "1000540"
      },
      {
        "Name": "木南公園",
        "Lat": 24.985348,
        "Lon": 121.570615,
        "Sequence": 41,
        "StationID": "50681"
      },
      {
        "Name": "指南路口",
        "Lat": 24.9871941238226,
        "Lon": 121.570722800802,
        "Sequence": 42,
        "StationID": "2426"
      },
      {
        "Name": "政大",
        "Lat": 24.9878362086283,
        "Lon": 121.574633255625,
        "Sequence": 43,
        "StationID": "2415"
      },
      {
        "Name": "政大一",
        "Lat": 24.988319,
        "Lon": 121.576427,
        "Sequence": 44,
        "StationID": "1001400"
      },
      {
        "Name": "萬興圖書館",
        "Lat": 24.989020423587586,
        "Lon": 121.57699279565435,
        "Sequence": 45,
        "StationID": "2520"
      },
      {
        "Name": "大誠高中",
        "Lat": 24.990413,
        "Lon": 121.576905,
        "Sequence": 46,
        "StationID": "2368"
      },
      {
        "Name": "萬壽橋頭(秀明)",
        "Lat": 24.991863,
        "Lon": 121.574627,
        "Sequence": 47,
        "StationID": "50671"
      },
      {
        "Name": "萬壽橋頭(新光)",
        "Lat": 24.992819,
        "Lon": 121.573853,
        "Sequence": 48,
        "StationID": "50669"
      },
      {
        "Name": "貓纜動物園站",
        "Lat": 24.9963006246947,
        "Lon": 121.576314002724,
        "Sequence": 49,
        "StationID": "2443"
      },
      {
        "Name": "捷運動物園站",
        "Lat": 24.99857,
        "Lon": 121.57996,
        "Sequence": 50,
        "StationID": "50672"
      },
      {
        "Name": "萬福橋",
        "Lat": 25.0029972947861,
        "Lon": 121.584612472655,
        "Sequence": 51,
        "StationID": "2518"
      },
      {
        "Name": "象頭埔",
        "Lat": 25.00068878171876,
        "Lon": 121.58947304948941,
        "Sequence": 52,
        "StationID": "2480"
      },
      {
        "Name": "富德",
        "Lat": 24.9998141769425,
        "Lon": 121.590552451575,
        "Sequence": 53,
        "StationID": "4143"
      }
    ]
  }
]