[
  {
    "Route": "小16",
    "SubRoute": "小16 平0550 假0600無繞駛",
    "Direction": 0,
    "Stops": [
      {
        "Name": "捷運劍潭站(北藝中心)",
        "Lat": 25.084952,
        "Lon": 121.525031,
        "Sequence": 1,
        "StationID": "1000256"
      },
      {
        "Name": "陽明戲院",
        "Lat": 25.087439801579,
        "Lon": 121.52602186508,
        "Sequence": 2,
        "StationID": "7261"
      },
      {
        "Name": "士林分局",
        "Lat": 25.09049,
        "Lon": 121.525833,
        "Sequence": 3,
        "StationID": "571"
      },
      {
        "Name": "士林區農會",
        "Lat": 25.0928638299869,
        "Lon": 121.525671636781,
        "Sequence": 4,
        "StationID": "583"
      },
      {
        "Name": "捷運士林站(中正)",
        "Lat": 25.09543483,
        "Lon": 121.5267653,
        "Sequence": 5,
        "StationID": "10210"
      },
      {
        "Name": "福林國小",
        "Lat": 25.09583325,
        "Lon": 121.5290055,
        "Sequence": 6,
        "StationID": "896"
      },
      {
        "Name": "士林官邸(中正)",
        "Lat": 25.096324,
        "Lon": 121.531395,
        "Sequence": 7,
        "StationID": "1000618"
      },
      {
        "Name": "泰北中學",
        "Lat": 25.0972847950979,
        "Lon": 121.533481875716,
        "Sequence": 8,
        "StationID": "777"
      },
      {
        "Name": "岩山里",
        "Lat": 25.101779204864,
        "Lon": 121.537708683954,
        "Sequence": 9,
        "StationID": "1000619"
      },
      {
        "Name": "岩山里一",
        "Lat": 25.1035131480372,
        "Lon": 121.53702433513,
        "Sequence": 10,
        "StationID": "55009"
      },
      {
        "Name": "芝蘭新村",
        "Lat": 25.1069424036663,
        "Lon": 121.536903542185,
        "Sequence": 11,
        "StationID": "1000616"
      },
      {
        "Name": "華興中學",
        "Lat": 25.10410142,
        "Lon": 121.5381247,
        "Sequence": 12,
        "StationID": "843"
      },
      {
        "Name": "嶺頭",
        "Lat": 25.1020154099508,
        "Lon": 121.540318712854,
        "Sequence": 13,
        "StationID": "30040"
      },
      {
        "Name": "拔子埔",
        "Lat": 25.1050667160996,
        "Lon": 121.543899657612,
        "Sequence": 14,
        "StationID": "724"
      },
      {
        "Name": "永嶺",
        "Lat": 25.10696523,
        "Lon": 121.5453823,
        "Sequence": 15,
        "StationID": "1000608"
      },
      {
        "Name": "永福(林語堂故居)",
        "Lat": 25.1092441758524,
        "Lon": 121.547020026043,
        "Sequence": 16,
        "StationID": "1000609"
      },
      {
        "Name": "陽明教養院",
        "Lat": 25.110508,
        "Lon": 121.548654,
        "Sequence": 17,
        "StationID": "1000620"
      },
      {
        "Name": "永公橋",
        "Lat": 25.11363,
        "Lon": 121.55073,
        "Sequence": 18,
        "StationID": "14416"
      },
      {
        "Name": "永公路一",
        "Lat": 25.114601436518,
        "Lon": 121.55306273016,
        "Sequence": 19,
        "StationID": "1001271"
      },
      {
        "Name": "永公路二",
        "Lat": 25.11594,
        "Lon": 121.55439,
        "Sequence": 20,
        "StationID": "14415"
      },
      {
        "Name": "綠園",
        "Lat": 25.11713,
        "Lon": 121.55508,
        "Sequence": 21,
        "StationID": "14414"
      },
      {
        "Name": "永公路三",
        "Lat": 25.121166956347,
        "Lon": 121.55687573016,
        "Sequence": 22,
        "StationID": "14413"
      },
      {
        "Name": "大興山莊",
        "Lat": 25.12242,
        "Lon": 121.55786,
        "Sequence": 23,
        "StationID": "605"
      },
      {
        "Name": "東方寺",
        "Lat": 25.12353,
        "Lon": 121.55896,
        "Sequence": 24,
        "StationID": "55013"
      },
      {
        "Name": "公館地",
        "Lat": 25.12548,
        "Lon": 121.55988,
        "Sequence": 25,
        "StationID": "625"
      },
      {
        "Name": "葉家莊",
        "Lat": 25.126609,
        "Lon": 121.560678,
        "Sequence": 26,
        "StationID": "1165606947"
      },
      {
        "Name": "東方寺",
        "Lat": 25.12356,
        "Lon": 121.55887,
        "Sequence": 27,
        "StationID": "70044"
      },
      {
        "Name": "大興山莊",
        "Lat": 25.12251,
        "Lon": 121.55779,
        "Sequence": 28,
        "StationID": "70043"
      },
      {
        "Name": "光興宮",
        "Lat": 25.12015,
        "Lon": 121.56006,
        "Sequence": 29,
        "StationID": "14412"
      },
      {
        "Name": "擷翠新村",
        "Lat": 25.121595574726,
        "Lon": 121.56344,
        "Sequence": 30,
        "StationID": "55011"
      },
      {
        "Name": "公館里",
        "Lat": 25.12663,
        "Lon": 121.56473,
        "Sequence": 31,
        "StationID": "55012"
      }
    ]
  },
  {
    "Route": "小16",
    "SubRoute": "小16 平0550 假0600無繞駛",
    "Direction": 1,
    "Stops": [
      {
        "Name": "公館里",
        "Lat": 25.12654,
        "Lon": 121.56444,
        "Sequence": 1,
        "StationID": "626"
      },
      {
        "Name": "擷翠新村",
        "Lat": 25.121838139677,
        "Lon": 121.56340821594,
        "Sequence": 2,
        "StationID": "1001274"
      },
      {
        "Name": "光興宮",
        "Lat": 25.12022,
        "Lon": 121.55992,
        "Sequence": 3,
        "StationID": "688"
      },
      {
        "Name": "永公路三",
        "Lat": 25.121050958736,
        "Lon": 121.55671856085,
        "Sequence": 4,
        "StationID": "664"
      },
      {
        "Name": "綠園",
        "Lat": 25.11719,
        "Lon": 121.55509,
        "Sequence": 5,
        "StationID": "907"
      },
      {
        "Name": "永公路二",
        "Lat": 25.1158,
        "Lon": 121.55418,
        "Sequence": 6,
        "StationID": "663"
      },
      {
        "Name": "永公路一",
        "Lat": 25.114568872834,
        "Lon": 121.55288889088,
        "Sequence": 7,
        "StationID": "662"
      },
      {
        "Name": "永公橋",
        "Lat": 25.1137,
        "Lon": 121.55065,
        "Sequence": 8,
        "StationID": "665"
      },
      {
        "Name": "陽明教養院",
        "Lat": 25.1104191040479,
        "Lon": 121.54836175021,
        "Sequence": 9,
        "StationID": "861"
      },
      {
        "Name": "永福(林語堂故居)",
        "Lat": 25.1095275064689,
        "Lon": 121.547154139609,
        "Sequence": 10,
        "StationID": "679"
      },
      {
        "Name": "永嶺",
        "Lat": 25.1068495776368,
        "Lon": 121.545213090496,
        "Sequence": 11,
        "StationID": "683"
      },
      {
        "Name": "拔子埔",
        "Lat": 25.104977,
        "Lon": 121.543591,
        "Sequence": 12,
        "StationID": "723"
      },
      {
        "Name": "嶺頭",
        "Lat": 25.1031851590031,
        "Lon": 121.541536360844,
        "Sequence": 13,
        "StationID": "937"
      },
      {
        "Name": "華興中學",
        "Lat": 25.104112892574,
        "Lon": 121.538359218545,
        "Sequence": 14,
        "StationID": "1000615"
      },
      {
        "Name": "芝蘭新村",
        "Lat": 25.1072897892355,
        "Lon": 121.537298719254,
        "Sequence": 15,
        "StationID": "749"
      },
      {
        "Name": "岩山里一",
        "Lat": 25.10331,
        "Lon": 121.53692,
        "Sequence": 16,
        "StationID": "712"
      },
      {
        "Name": "岩山里",
        "Lat": 25.1018780140349,
        "Lon": 121.537579799115,
        "Sequence": 17,
        "StationID": "709"
      },
      {
        "Name": "泰北中學",
        "Lat": 25.0977513146504,
        "Lon": 121.534030294965,
        "Sequence": 18,
        "StationID": "778"
      },
      {
        "Name": "士林官邸(中正)",
        "Lat": 25.0965,
        "Lon": 121.53144,
        "Sequence": 19,
        "StationID": "3953"
      },
      {
        "Name": "福林國小",
        "Lat": 25.0962,
        "Lon": 121.52976,
        "Sequence": 20,
        "StationID": "3954"
      },
      {
        "Name": "捷運士林站(中正)",
        "Lat": 25.095583,
        "Lon": 121.526622,
        "Sequence": 21,
        "StationID": "797"
      },
      {
        "Name": "士林國小",
        "Lat": 25.094058815207,
        "Lon": 121.524789386925,
        "Sequence": 22,
        "StationID": "5040"
      },
      {
        "Name": "士林分局",
        "Lat": 25.09049,
        "Lon": 121.525833,
        "Sequence": 23,
        "StationID": "571"
      },
      {
        "Name": "捷運劍潭站(中山)",
        "Lat": 25.085353,
        "Lon": 121.525327,
        "Sequence": 24,
        "StationID": "803"
      }
    ]
  },
  {
    "Route": "小16",
    "SubRoute": "小16 0730、0950經永公路296、350、500巷",
    "Direction": 0,
    "Stops": [
      {
        "Name": "捷運劍潭站(北藝中心)",
        "Lat": 25.084952,
        "Lon": 121.525031,
        "Sequence": 1,
        "StationID": "1000256"
      },
      {
        "Name": "陽明戲院",
        "Lat": 25.087439801579,
        "Lon": 121.52602186508,
        "Sequence": 2,
        "StationID": "7261"
      },
      {
        "Name": "士林分局",
        "Lat": 25.09049,
        "Lon": 121.525833,
        "Sequence": 3,
        "StationID": "571"
      },
      {
        "Name": "士林區農會",
        "Lat": 25.0928638299869,
        "Lon": 121.525671636781,
        "Sequence": 4,
        "StationID": "583"
      },
      {
        "Name": "捷運士林站(中正)",
        "Lat": 25.09543483,
        "Lon": 121.5267653,
        "Sequence": 5,
        "StationID": "10210"
      },
      {
        "Name": "福林國小",
        "Lat": 25.09583325,
        "Lon": 121.5290055,
        "Sequence": 6,
        "StationID": "896"
      },
      {
        "Name": "士林官邸(中正)",
        "Lat": 25.096324,
        "Lon": 121.531395,
        "Sequence": 7,
        "StationID": "1000618"
      },
      {
        "Name": "泰北中學",
        "Lat": 25.0972847950979,
        "Lon": 121.533481875716,
        "Sequence": 8,
        "StationID": "777"
      },
      {
        "Name": "岩山里",
        "Lat": 25.101779204864,
        "Lon": 121.537708683954,
        "Sequence": 9,
        "StationID": "1000619"
      },
      {
        "Name": "岩山里一",
        "Lat": 25.1035131480372,
        "Lon": 121.53702433513,
        "Sequence": 10,
        "StationID": "55009"
      },
      {
        "Name": "芝蘭新村",
        "Lat": 25.1069424036663,
        "Lon": 121.536903542185,
        "Sequence": 11,
        "StationID": "1000616"
      },
      {
        "Name": "華興中學",
        "Lat": 25.10410142,
        "Lon": 121.5381247,
        "Sequence": 12,
        "StationID": "843"
      },
      {
        "Name": "嶺頭",
        "Lat": 25.1020154099508,
        "Lon": 121.540318712854,
        "Sequence": 13,
        "StationID": "30040"
      },
      {
        "Name": "拔子埔",
        "Lat": 25.1050667160996,
        "Lon": 121.543899657612,
        "Sequence": 14,
        "StationID": "724"
      },
      {
        "Name": "永嶺",
        "Lat": 25.10696523,
        "Lon": 121.5453823,
        "Sequence": 15,
        "StationID": "1000608"
      },
      {
        "Name": "永福(林語堂故居)",
        "Lat": 25.1092441758524,
        "Lon": 121.547020026043,
        "Sequence": 16,
        "StationID": "1000609"
      },
      {
        "Name": "陽明教養院",
        "Lat": 25.110508,
        "Lon": 121.548654,
        "Sequence": 17,
        "StationID": "1000620"
      },
      {
        "Name": "永公橋",
        "Lat": 25.11363,
        "Lon": 121.55073,
        "Sequence": 18,
        "StationID": "14416"
      },
      {
        "Name": "永公路一",
        "Lat": 25.114601436518,
        "Lon": 121.55306273016,
        "Sequence": 19,
        "StationID": "1001271"
      },
      {
        "Name": "永公路二",
        "Lat": 25.11594,
        "Lon": 121.55439,
        "Sequence": 20,
        "StationID": "14415"
      },
      {
        "Name": "綠園",
        "Lat": 25.11713,
        "Lon": 121.55508,
        "Sequence": 21,
        "StationID": "14414"
      },
      {
        "Name": "永公路三",
        "Lat": 25.121166956347,
        "Lon": 121.55687573016,
        "Sequence": 22,
        "StationID": "14413"
      },
      {
        "Name": "大興山莊",
        "Lat": 25.12242,
        "Lon": 121.55786,
        "Sequence": 23,
        "StationID": "605"
      },
      {
        "Name": "東方寺",
        "Lat": 25.12353,
        "Lon": 121.55896,
        "Sequence": 24,
        "StationID": "55013"
      },
      {
        "Name": "公館地",
        "Lat": 25.12548,
        "Lon": 121.55988,
        "Sequence": 25,
        "StationID": "625"
      },
      {
        "Name": "葉家莊",
        "Lat": 25.126609,
        "Lon": 121.560678,
        "Sequence": 26,
        "StationID": "1165606947"
      },
      {
        "Name": "東方寺",
        "Lat": 25.12356,
        "Lon": 121.55887,
        "Sequence": 27,
        "StationID": "70044"
      },
      {
        "Name": "大興山莊",
        "Lat": 25.12251,
        "Lon": 121.55779,
        "Sequence": 28,
        "StationID": "70043"
      },
      {
        "Name": "光興宮",
        "Lat": 25.12015,
        "Lon": 121.56006,
        "Sequence": 29,
        "StationID": "14412"
      },
      {
        "Name": "擷翠新村",
        "Lat": 25.121595574726,
        "Lon": 121.56344,
        "Sequence": 30,
        "StationID": "55011"
      },
      {
        "Name": "公館里關帝廟",
        "Lat": 25.123637,
        "Lon": 121.565354,
        "Sequence": 31,
        "StationID": "1165603317"
      },
      {
        "Name": "公館里",
        "Lat": 25.12663,
        "Lon": 121.56473,
        "Sequence": 32,
        "StationID": "55012"
      },
      {
        "Name": "西雲禪寺",
        "Lat": 25.130468,
        "Lon": 121.56666,
        "Sequence": 33,
        "StationID": "1001272"
      },
      {
        "Name": "下菁礐",
        "Lat": 25.134924,
        "Lon": 121.568943,
        "Sequence": 34,
        "StationID": "4815"
      },
      {
        "Name": "永公路500巷",
        "Lat": 25.13592222,
        "Lon": 121.5704215,
        "Sequence": 35,
        "StationID": "1001273"
      }
    ]
  },
  {
    "Route": "小16",
    "SubRoute": "小16 0730、0950經永公路296、350、500巷",
    "Direction": 1,
    "Stops": [
      {
        "Name": "公館里",
        "Lat": 25.12654,
        "Lon": 121.56444,
        "Sequence": 1,
        "StationID": "626"
      },
      {
        "Name": "擷翠新村",
        "Lat": 25.121838139677,
        "Lon": 121.56340821594,
        "Sequence": 2,
        "StationID": "1001274"
      },
      {
        "Name": "光興宮",
        "Lat": 25.12022,
        "Lon": 121.55992,
        "Sequence": 3,
        "StationID": "688"
      },
      {
        "Name": "永公路三",
        "Lat": 25.121050958736,
        "Lon": 121.55671856085,
        "Sequence": 4,
        "StationID": "664"
      },
      {
        "Name": "綠園",
        "Lat": 25.11719,
        "Lon": 121.55509,
        "Sequence": 5,
        "StationID": "907"
      },
      {
        "Name": "永公路二",
        "Lat": 25.1158,
        "Lon": 121.55418,
        "Sequence": 6,
        "StationID": "663"
      },
      {
        "Name": "永公路一",
        "Lat": 25.114568872834,
        "Lon": 121.55288889088,
        "Sequence": 7,
        "StationID": "662"
      },
      {
        "Name": "永公橋",
        "Lat": 25.1137,
        "Lon": 121.55065,
        "Sequence": 8,
        "StationID": "665"
      },
      {
        "Name": "陽明教養院",
        "Lat": 25.1104191040479,
        "Lon": 121.54836175021,
        "Sequence": 9,
        "StationID": "861"
      },
      {
        "Name": "永福(林語堂故居)",
        "Lat": 25.1095275064689,
        "Lon": 121.547154139609,
        "Sequence": 10,
        "StationID": "679"
      },
      {
        "Name": "永嶺",
        "Lat": 25.1068495776368,
        "Lon": 121.545213090496,
        "Sequence": 11,
        "StationID": "683"
      },
      {
        "Name": "拔子埔",
        "Lat": 25.104977,
        "Lon": 121.543591,
        "Sequence": 12,
        "StationID": "723"
      },
      {
        "Name": "嶺頭",
        "Lat": 25.1031851590031,
        "Lon": 121.541536360844,
        "Sequence": 13,
        "StationID": "937"
      },
      {
        "Name": "華興中學",
        "Lat": 25.104112892574,
        "Lon": 121.538359218545,
        "Sequence": 14,
        "StationID": "1000615"
      },
      {
        "Name": "芝蘭新村",
        "Lat": 25.1072897892355,
        "Lon": 121.537298719254,
        "Sequence": 15,
        "StationID": "749"
      },
      {
        "Name": "岩山里一",
        "Lat": 25.10331,
        "Lon": 121.53692,
        "Sequence": 16,
        "StationID": "712"
      },
      {
        "Name": "岩山里",
        "Lat": 25.1018780140349,
        "Lon": 121.537579799115,
        "Sequence": 17,
        "StationID": "709"
      },
      {
        "Name": "泰北中學",
        "Lat": 25.0977513146504,
        "Lon": 121.534030294965,
        "Sequence": 18,
        "StationID": "778"
      },
      {
        "Name": "士林官邸(中正)",
        "Lat": 25.0965,
        "Lon": 121.53144,
        "Sequence": 19,
        "StationID": "3953"
      },
      {
        "Name": "福林國小",
        "Lat": 25.0962,
        "Lon": 121.52976,
        "Sequence": 20,
        "StationID": "3954"
      },
      {
        "Name": "捷運士林站(中正)",
        "Lat": 25.095583,
        "Lon": 121.526622,
        "Sequence": 21,
        "StationID": "797"
      },
      {
        "Name": "士林國小",
        "Lat": 25.094058815207,
        "Lon": 121.524789386925,
        "Sequence": 22,
        "StationID": "5040"
      },
      {
        "Name": "士林分局",
        "Lat": 25.09049,
        "Lon": 121.525833,
        "Sequence": 23,
        "StationID": "571"
      },
      {
        "Name": "捷運劍潭站(中山)",
        "Lat": 25.085353,
        "Lon": 121.525327,
        "Sequence": 24,
        "StationID": "803"
      }
    ]
  },
  {
    "Route": "小16",
    "SubRoute": "小16 平0610經陽明山國小",
    "Direction": 0,
    "Stops": [
      {
        "Name": "捷運劍潭站(北藝中心)",
        "Lat": 25.084952,
        "Lon": 121.525031,
        "Sequence": 1,
        "StationID": "1000256"
      },
      {
        "Name": "陽明戲院",
        "Lat": 25.087439801579,
        "Lon": 121.52602186508,
        "Sequence": 2,
        "StationID": "7261"
      },
      {
        "Name": "士林分局",
        "Lat": 25.09049,
        "Lon": 121.525833,
        "Sequence": 3,
        "StationID": "571"
      },
      {
        "Name": "士林區農會",
        "Lat": 25.0928638299869,
        "Lon": 121.525671636781,
        "Sequence": 4,
        "StationID": "583"
      },
      {
        "Name": "捷運士林站(中正)",
        "Lat": 25.09543483,
        "Lon": 121.5267653,
        "Sequence": 5,
        "StationID": "10210"
      },
      {
        "Name": "福林國小",
        "Lat": 25.09583325,
        "Lon": 121.5290055,
        "Sequence": 6,
        "StationID": "896"
      },
      {
        "Name": "士林官邸(中正)",
        "Lat": 25.096324,
        "Lon": 121.531395,
        "Sequence": 7,
        "StationID": "1000618"
      },
      {
        "Name": "泰北中學",
        "Lat": 25.0972847950979,
        "Lon": 121.533481875716,
        "Sequence": 8,
        "StationID": "777"
      },
      {
        "Name": "岩山里",
        "Lat": 25.101779204864,
        "Lon": 121.537708683954,
        "Sequence": 9,
        "StationID": "1000619"
      },
      {
        "Name": "岩山里一",
        "Lat": 25.1035131480372,
        "Lon": 121.53702433513,
        "Sequence": 10,
        "StationID": "55009"
      },
      {
        "Name": "芝蘭新村",
        "Lat": 25.1069424036663,
        "Lon": 121.536903542185,
        "Sequence": 11,
        "StationID": "1000616"
      },
      {
        "Name": "華興中學",
        "Lat": 25.10410142,
        "Lon": 121.5381247,
        "Sequence": 12,
        "StationID": "843"
      },
      {
        "Name": "嶺頭",
        "Lat": 25.1020154099508,
        "Lon": 121.540318712854,
        "Sequence": 13,
        "StationID": "30040"
      },
      {
        "Name": "拔子埔",
        "Lat": 25.1050667160996,
        "Lon": 121.543899657612,
        "Sequence": 14,
        "StationID": "724"
      },
      {
        "Name": "永嶺",
        "Lat": 25.10696523,
        "Lon": 121.5453823,
        "Sequence": 15,
        "StationID": "1000608"
      },
      {
        "Name": "永福(林語堂故居)",
        "Lat": 25.1092441758524,
        "Lon": 121.547020026043,
        "Sequence": 16,
        "StationID": "1000609"
      },
      {
        "Name": "陽明教養院",
        "Lat": 25.110508,
        "Lon": 121.548654,
        "Sequence": 17,
        "StationID": "1000620"
      },
      {
        "Name": "永公橋",
        "Lat": 25.11363,
        "Lon": 121.55073,
        "Sequence": 18,
        "StationID": "14416"
      },
      {
        "Name": "永公路一",
        "Lat": 25.114601436518,
        "Lon": 121.55306273016,
        "Sequence": 19,
        "StationID": "1001271"
      },
      {
        "Name": "永公路二",
        "Lat": 25.11594,
        "Lon": 121.55439,
        "Sequence": 20,
        "StationID": "14415"
      },
      {
        "Name": "綠園",
        "Lat": 25.11713,
        "Lon": 121.55508,
        "Sequence": 21,
        "StationID": "14414"
      },
      {
        "Name": "永公路三",
        "Lat": 25.121166956347,
        "Lon": 121.55687573016,
        "Sequence": 22,
        "StationID": "14413"
      },
      {
        "Name": "大興山莊",
        "Lat": 25.12242,
        "Lon": 121.55786,
        "Sequence": 23,
        "StationID": "605"
      },
      {
        "Name": "東方寺",
        "Lat": 25.12353,
        "Lon": 121.55896,
        "Sequence": 24,
        "StationID": "55013"
      },
      {
        "Name": "公館地",
        "Lat": 25.12548,
        "Lon": 121.55988,
        "Sequence": 25,
        "StationID": "625"
      },
      {
        "Name": "葉家莊",
        "Lat": 25.126609,
        "Lon": 121.560678,
        "Sequence": 26,
        "StationID": "1165606947"
      },
      {
        "Name": "東方寺",
        "Lat": 25.12356,
        "Lon": 121.55887,
        "Sequence": 27,
        "StationID": "70044"
      },
      {
        "Name": "大興山莊",
        "Lat": 25.12251,
        "Lon": 121.55779,
        "Sequence": 28,
        "StationID": "70043"
      },
      {
        "Name": "光興宮",
        "Lat": 25.12015,
        "Lon": 121.56006,
        "Sequence": 29,
        "StationID": "14412"
      },
      {
        "Name": "擷翠新村",
        "Lat": 25.121595574726,
        "Lon": 121.56344,
        "Sequence": 30,
        "StationID": "55011"
      },
      {
        "Name": "公館里",
        "Lat": 25.12663,
        "Lon": 121.56473,
        "Sequence": 31,
        "StationID": "55012"
      }
    ]
  },
  {
    "Route": "小16",
    "SubRoute": "小16 平0610經陽明山國小",
    "Direction": 1,
    "Stops": [
      {
        "Name": "公館里",
        "Lat": 25.12654,
        "Lon": 121.56444,
        "Sequence": 1,
        "StationID": "626"
      },
      {
        "Name": "擷翠新村",
        "Lat": 25.121838139677,
        "Lon": 121.56340821594,
        "Sequence": 2,
        "StationID": "1001274"
      },
      {
        "Name": "光興宮",
        "Lat": 25.12022,
        "Lon": 121.55992,
        "Sequence": 3,
        "StationID": "688"
      },
      {
        "Name": "永公路三",
        "Lat": 25.121050958736,
        "Lon": 121.55671856085,
        "Sequence": 4,
        "StationID": "664"
      },
      {
        "Name": "陽明教養院",
        "Lat": 25.1104191040479,
        "Lon": 121.54836175021,
        "Sequence": 5,
        "StationID": "861"
      },
      {
        "Name": "永福(林語堂故居)",
        "Lat": 25.1095275064689,
        "Lon": 121.547154139609,
        "Sequence": 6,
        "StationID": "679"
      },
      {
        "Name": "永嶺",
        "Lat": 25.1068495776368,
        "Lon": 121.545213090496,
        "Sequence": 7,
        "StationID": "683"
      },
      {
        "Name": "拔子埔",
        "Lat": 25.104977,
        "Lon": 121.543591,
        "Sequence": 8,
        "StationID": "723"
      },
      {
        "Name": "嶺頭",
        "Lat": 25.1031851590031,
        "Lon": 121.541536360844,
        "Sequence": 9,
        "StationID": "937"
      },
      {
        "Name": "華興中學",
        "Lat": 25.104112892574,
        "Lon": 121.538359218545,
        "Sequence": 10,
        "StationID": "1000615"
      },
      {
        "Name": "芝蘭新村",
        "Lat": 25.1072897892355,
        "Lon": 121.537298719254,
        "Sequence": 11,
        "StationID": "749"
      },
      {
        "Name": "岩山里一",
        "Lat": 25.10331,
        "Lon": 121.53692,
        "Sequence": 12,
        "StationID": "712"
      },
      {
        "Name": "岩山里",
        "Lat": 25.1018780140349,
        "Lon": 121.537579799115,
        "Sequence": 13,
        "StationID": "709"
      },
      {
        "Name": "泰北中學",
        "Lat": 25.0977513146504,
        "Lon": 121.534030294965,
        "Sequence": 14,
        "StationID": "778"
      },
      {
        "Name": "士林官邸(中正)",
        "Lat": 25.0965,
        "Lon": 121.53144,
        "Sequence": 15,
        "StationID": "3953"
      },
      {
        "Name": "福林國小",
        "Lat": 25.0962,
        "Lon": 121.52976,
        "Sequence": 16,
        "StationID": "3954"
      },
      {
        "Name": "捷運士林站(中正)",
        "Lat": 25.095583,
        "Lon": 121.526622,
        "Sequence": 17,
        "StationID": "797"
      },
      {
        "Name": "士林國小",
        "Lat": 25.094058815207,
        "Lon": 121.524789386925,
        "Sequence": 18,
        "StationID": "5040"
      },
      {
        "Name": "士林分局",
        "Lat": 25.09049,
        "Lon": 121.525833,
        "Sequence": 19,
        "StationID": "571"
      },
      {
        "Name": "捷運劍潭站(中山)",
        "Lat": 25.085353,
        "Lon": 121.525327,
        "Sequence": 20,
        "StationID": "803"
      }
    ]
  },
  {
    "Route": "小16",
    "SubRoute": "小16 平0820經永公路245巷34弄",
    "Direction": 0,
    "Stops": [
      {
        "Name": "捷運劍潭站(北藝中心)",
        "Lat": 25.084952,
        "Lon": 121.525031,
        "Sequence": 1,
        "StationID": "1000256"
      },
      {
        "Name": "陽明戲院",
        "Lat": 25.087439801579,
        "Lon": 121.52602186508,
        "Sequence": 2,
        "StationID": "7261"
      },
      {
        "Name": "士林分局",
        "Lat": 25.09049,
        "Lon": 121.525833,
        "Sequence": 3,
        "StationID": "571"
      },
      {
        "Name": "士林區農會",
        "Lat": 25.0928638299869,
        "Lon": 121.525671636781,
        "Sequence": 4,
        "StationID": "583"
      },
      {
        "Name": "捷運士林站(中正)",
        "Lat": 25.09543483,
        "Lon": 121.5267653,
        "Sequence": 5,
        "StationID": "10210"
      },
      {
        "Name": "福林國小",
        "Lat": 25.09583325,
        "Lon": 121.5290055,
        "Sequence": 6,
        "StationID": "896"
      },
      {
        "Name": "士林官邸(中正)",
        "Lat": 25.096324,
        "Lon": 121.531395,
        "Sequence": 7,
        "StationID": "1000618"
      },
      {
        "Name": "泰北中學",
        "Lat": 25.0972847950979,
        "Lon": 121.533481875716,
        "Sequence": 8,
        "StationID": "777"
      },
      {
        "Name": "岩山里",
        "Lat": 25.101779204864,
        "Lon": 121.537708683954,
        "Sequence": 9,
        "StationID": "1000619"
      },
      {
        "Name": "岩山里一",
        "Lat": 25.1035131480372,
        "Lon": 121.53702433513,
        "Sequence": 10,
        "StationID": "55009"
      },
      {
        "Name": "芝蘭新村",
        "Lat": 25.1069424036663,
        "Lon": 121.536903542185,
        "Sequence": 11,
        "StationID": "1000616"
      },
      {
        "Name": "華興中學",
        "Lat": 25.10410142,
        "Lon": 121.5381247,
        "Sequence": 12,
        "StationID": "843"
      },
      {
        "Name": "嶺頭",
        "Lat": 25.1020154099508,
        "Lon": 121.540318712854,
        "Sequence": 13,
        "StationID": "30040"
      },
      {
        "Name": "拔子埔",
        "Lat": 25.1050667160996,
        "Lon": 121.543899657612,
        "Sequence": 14,
        "StationID": "724"
      },
      {
        "Name": "永嶺",
        "Lat": 25.10696523,
        "Lon": 121.5453823,
        "Sequence": 15,
        "StationID": "1000608"
      },
      {
        "Name": "永福(林語堂故居)",
        "Lat": 25.1092441758524,
        "Lon": 121.547020026043,
        "Sequence": 16,
        "StationID": "1000609"
      },
      {
        "Name": "陽明教養院",
        "Lat": 25.110508,
        "Lon": 121.548654,
        "Sequence": 17,
        "StationID": "1000620"
      },
      {
        "Name": "永公橋",
        "Lat": 25.11363,
        "Lon": 121.55073,
        "Sequence": 18,
        "StationID": "14416"
      },
      {
        "Name": "永公路一",
        "Lat": 25.114601436518,
        "Lon": 121.55306273016,
        "Sequence": 19,
        "StationID": "1001271"
      },
      {
        "Name": "永公路二",
        "Lat": 25.11594,
        "Lon": 121.55439,
        "Sequence": 20,
        "StationID": "14415"
      },
      {
        "Name": "綠園",
        "Lat": 25.11713,
        "Lon": 121.55508,
        "Sequence": 21,
        "StationID": "14414"
      },
      {
        "Name": "永公路三",
        "Lat": 25.121166956347,
        "Lon": 121.55687573016,
        "Sequence": 22,
        "StationID": "14413"
      },
      {
        "Name": "大興山莊",
        "Lat": 25.12242,
        "Lon": 121.55786,
        "Sequence": 23,
        "StationID": "605"
      },
      {
        "Name": "東方寺",
        "Lat": 25.12353,
        "Lon": 121.55896,
        "Sequence": 24,
        "StationID": "55013"
      },
      {
        "Name": "館地坪",
        "Lat": 25.133867,
        "Lon": 121.561187,
        "Sequence": 25,
        "StationID": "4816"
      },
      {
        "Name": "公館地",
        "Lat": 25.12548,
        "Lon": 121.55988,
        "Sequence": 26,
        "StationID": "625"
      },
      {
        "Name": "葉家莊",
        "Lat": 25.126609,
        "Lon": 121.560678,
        "Sequence": 27,
        "StationID": "1165606947"
      },
      {
        "Name": "東方寺",
        "Lat": 25.12356,
        "Lon": 121.55887,
        "Sequence": 28,
        "StationID": "70044"
      },
      {
        "Name": "大興山莊",
        "Lat": 25.12251,
        "Lon": 121.55779,
        "Sequence": 29,
        "StationID": "70043"
      },
      {
        "Name": "光興宮",
        "Lat": 25.12015,
        "Lon": 121.56006,
        "Sequence": 30,
        "StationID": "14412"
      },
      {
        "Name": "擷翠新村",
        "Lat": 25.121595574726,
        "Lon": 121.56344,
        "Sequence": 31,
        "StationID": "55011"
      },
      {
        "Name": "公館里",
        "Lat": 25.12663,
        "Lon": 121.56473,
        "Sequence": 32,
        "StationID": "55012"
      }
    ]
  },
  {
    "Route": "小16",
    "SubRoute": "小16 平0820經永公路245巷34弄",
    "Direction": 1,
    "Stops": [
      {
        "Name": "公館里",
        "Lat": 25.12654,
        "Lon": 121.56444,
        "Sequence": 1,
        "StationID": "626"
      },
      {
        "Name": "擷翠新村",
        "Lat": 25.121838139677,
        "Lon": 121.56340821594,
        "Sequence": 2,
        "StationID": "1001274"
      },
      {
        "Name": "光興宮",
        "Lat": 25.12022,
        "Lon": 121.55992,
        "Sequence": 3,
        "StationID": "688"
      },
      {
        "Name": "永公路三",
        "Lat": 25.121050958736,
        "Lon": 121.55671856085,
        "Sequence": 4,
        "StationID": "664"
      },
      {
        "Name": "綠園",
        "Lat": 25.11719,
        "Lon": 121.55509,
        "Sequence": 5,
        "StationID": "907"
      },
      {
        "Name": "永公路二",
        "Lat": 25.1158,
        "Lon": 121.55418,
        "Sequence": 6,
        "StationID": "663"
      },
      {
        "Name": "永公路一",
        "Lat": 25.114568872834,
        "Lon": 121.55288889088,
        "Sequence": 7,
        "StationID": "662"
      },
      {
        "Name": "永公橋",
        "Lat": 25.1137,
        "Lon": 121.55065,
        "Sequence": 8,
        "StationID": "665"
      },
      {
        "Name": "陽明教養院",
        "Lat": 25.1104191040479,
        "Lon": 121.54836175021,
        "Sequence": 9,
        "StationID": "861"
      },
      {
        "Name": "永福(林語堂故居)",
        "Lat": 25.1095275064689,
        "Lon": 121.547154139609,
        "Sequence": 10,
        "StationID": "679"
      },
      {
        "Name": "永嶺",
        "Lat": 25.1068495776368,
        "Lon": 121.545213090496,
        "Sequence": 11,
        "StationID": "683"
      },
      {
        "Name": "拔子埔",
        "Lat": 25.104977,
        "Lon": 121.543591,
        "Sequence": 12,
        "StationID": "723"
      },
      {
        "Name": "嶺頭",
        "Lat": 25.1031851590031,
        "Lon": 121.541536360844,
        "Sequence": 13,
        "StationID": "937"
      },
      {
        "Name": "華興中學",
        "Lat": 25.104112892574,
        "Lon": 121.538359218545,
        "Sequence": 14,
        "StationID": "1000615"
      },
      {
        "Name": "芝蘭新村",
        "Lat": 25.1072897892355,
        "Lon": 121.537298719254,
        "Sequence": 15,
        "StationID": "749"
      },
      {
        "Name": "岩山里一",
        "Lat": 25.10331,
        "Lon": 121.53692,
        "Sequence": 16,
        "StationID": "712"
      },
      {
        "Name": "岩山里",
        "Lat": 25.1018780140349,
        "Lon": 121.537579799115,
        "Sequence": 17,
        "StationID": "709"
      },
      {
        "Name": "泰北中學",
        "Lat": 25.0977513146504,
        "Lon": 121.534030294965,
        "Sequence": 18,
        "StationID": "778"
      },
      {
        "Name": "士林官邸(中正)",
        "Lat": 25.0965,
        "Lon": 121.53144,
        "Sequence": 19,
        "StationID": "3953"
      },
      {
        "Name": "福林國小",
        "Lat": 25.0962,
        "Lon": 121.52976,
        "Sequence": 20,
        "StationID": "3954"
      },
      {
        "Name": "捷運士林站(中正)",
        "Lat": 25.095583,
        "Lon": 121.526622,
        "Sequence": 21,
        "StationID": "797"
      },
      {
        "Name": "士林國小",
        "Lat": 25.094058815207,
        "Lon": 121.524789386925,
        "Sequence": 22,
        "StationID": "5040"
      },
      {
        "Name": "士林分局",
        "Lat": 25.09049,
        "Lon": 121.525833,
        "Sequence": 23,
        "StationID": "571"
      },
      {
        "Name": "捷運劍潭站(中山)",
        "Lat": 25.085353,
        "Lon": 121.525327,
        "Sequence": 24,
        "StationID": "803"
      }
    ]
  },
  {
    "Route": "小16",
    "SubRoute": "小16 假1050經永公路350巷",
    "Direction": 0,
    "Stops": [
      {
        "Name": "捷運劍潭站(北藝中心)",
        "Lat": 25.084952,
        "Lon": 121.525031,
        "Sequence": 1,
        "StationID": "1000256"
      },
      {
        "Name": "陽明戲院",
        "Lat": 25.087439801579,
        "Lon": 121.52602186508,
        "Sequence": 2,
        "StationID": "7261"
      },
      {
        "Name": "士林分局",
        "Lat": 25.09049,
        "Lon": 121.525833,
        "Sequence": 3,
        "StationID": "571"
      },
      {
        "Name": "士林區農會",
        "Lat": 25.0928638299869,
        "Lon": 121.525671636781,
        "Sequence": 4,
        "StationID": "583"
      },
      {
        "Name": "捷運士林站(中正)",
        "Lat": 25.09543483,
        "Lon": 121.5267653,
        "Sequence": 5,
        "StationID": "10210"
      },
      {
        "Name": "福林國小",
        "Lat": 25.09583325,
        "Lon": 121.5290055,
        "Sequence": 6,
        "StationID": "896"
      },
      {
        "Name": "士林官邸(中正)",
        "Lat": 25.096324,
        "Lon": 121.531395,
        "Sequence": 7,
        "StationID": "1000618"
      },
      {
        "Name": "泰北中學",
        "Lat": 25.0972847950979,
        "Lon": 121.533481875716,
        "Sequence": 8,
        "StationID": "777"
      },
      {
        "Name": "岩山里",
        "Lat": 25.101779204864,
        "Lon": 121.537708683954,
        "Sequence": 9,
        "StationID": "1000619"
      },
      {
        "Name": "岩山里一",
        "Lat": 25.1035131480372,
        "Lon": 121.53702433513,
        "Sequence": 10,
        "StationID": "55009"
      },
      {
        "Name": "芝蘭新村",
        "Lat": 25.1069424036663,
        "Lon": 121.536903542185,
        "Sequence": 11,
        "StationID": "1000616"
      },
      {
        "Name": "華興中學",
        "Lat": 25.10410142,
        "Lon": 121.5381247,
        "Sequence": 12,
        "StationID": "843"
      },
      {
        "Name": "嶺頭",
        "Lat": 25.1020154099508,
        "Lon": 121.540318712854,
        "Sequence": 13,
        "StationID": "30040"
      },
      {
        "Name": "拔子埔",
        "Lat": 25.1050667160996,
        "Lon": 121.543899657612,
        "Sequence": 14,
        "StationID": "724"
      },
      {
        "Name": "永嶺",
        "Lat": 25.10696523,
        "Lon": 121.5453823,
        "Sequence": 15,
        "StationID": "1000608"
      },
      {
        "Name": "永福(林語堂故居)",
        "Lat": 25.1092441758524,
        "Lon": 121.547020026043,
        "Sequence": 16,
        "StationID": "1000609"
      },
      {
        "Name": "陽明教養院",
        "Lat": 25.110508,
        "Lon": 121.548654,
        "Sequence": 17,
        "StationID": "1000620"
      },
      {
        "Name": "永公橋",
        "Lat": 25.11363,
        "Lon": 121.55073,
        "Sequence": 18,
        "StationID": "14416"
      },
      {
        "Name": "永公路一",
        "Lat": 25.114601436518,
        "Lon": 121.55306273016,
        "Sequence": 19,
        "StationID": "1001271"
      },
      {
        "Name": "永公路二",
        "Lat": 25.11594,
        "Lon": 121.55439,
        "Sequence": 20,
        "StationID": "14415"
      },
      {
        "Name": "綠園",
        "Lat": 25.11713,
        "Lon": 121.55508,
        "Sequence": 21,
        "StationID": "14414"
      },
      {
        "Name": "永公路三",
        "Lat": 25.121166956347,
        "Lon": 121.55687573016,
        "Sequence": 22,
        "StationID": "14413"
      },
      {
        "Name": "大興山莊",
        "Lat": 25.12242,
        "Lon": 121.55786,
        "Sequence": 23,
        "StationID": "605"
      },
      {
        "Name": "東方寺",
        "Lat": 25.12353,
        "Lon": 121.55896,
        "Sequence": 24,
        "StationID": "55013"
      },
      {
        "Name": "公館地",
        "Lat": 25.12548,
        "Lon": 121.55988,
        "Sequence": 25,
        "StationID": "625"
      },
      {
        "Name": "葉家莊",
        "Lat": 25.126609,
        "Lon": 121.560678,
        "Sequence": 26,
        "StationID": "1165606947"
      },
      {
        "Name": "東方寺",
        "Lat": 25.12356,
        "Lon": 121.55887,
        "Sequence": 27,
        "StationID": "70044"
      },
      {
        "Name": "大興山莊",
        "Lat": 25.12251,
        "Lon": 121.55779,
        "Sequence": 28,
        "StationID": "70043"
      },
      {
        "Name": "光興宮",
        "Lat": 25.12015,
        "Lon": 121.56006,
        "Sequence": 29,
        "StationID": "14412"
      },
      {
        "Name": "擷翠新村",
        "Lat": 25.121595574726,
        "Lon": 121.56344,
        "Sequence": 30,
        "StationID": "55011"
      },
      {
        "Name": "公館里關帝廟",
        "Lat": 25.123637,
        "Lon": 121.565354,
        "Sequence": 31,
        "StationID": "1165603317"
      },
      {
        "Name": "公館里",
        "Lat": 25.12663,
        "Lon": 121.56473,
        "Sequence": 32,
        "StationID": "55012"
      }
    ]
  },
  {
    "Route": "小16",
    "SubRoute": "小16 假1050經永公路350巷",
    "Direction": 1,
    "Stops": [
      {
        "Name": "公館里",
        "Lat": 25.12654,
        "Lon": 121.56444,
        "Sequence": 1,
        "StationID": "626"
      },
      {
        "Name": "擷翠新村",
        "Lat": 25.121838139677,
        "Lon": 121.56340821594,
        "Sequence": 2,
        "StationID": "1001274"
      },
      {
        "Name": "光興宮",
        "Lat": 25.12022,
        "Lon": 121.55992,
        "Sequence": 3,
        "StationID": "688"
      },
      {
        "Name": "永公路三",
        "Lat": 25.121050958736,
        "Lon": 121.55671856085,
        "Sequence": 4,
        "StationID": "664"
      },
      {
        "Name": "綠園",
        "Lat": 25.11719,
        "Lon": 121.55509,
        "Sequence": 5,
        "StationID": "907"
      },
      {
        "Name": "永公路二",
        "Lat": 25.1158,
        "Lon": 121.55418,
        "Sequence": 6,
        "StationID": "663"
      },
      {
        "Name": "永公路一",
        "Lat": 25.114568872834,
        "Lon": 121.55288889088,
        "Sequence": 7,
        "StationID": "662"
      },
      {
        "Name": "永公橋",
        "Lat": 25.1137,
        "Lon": 121.55065,
        "Sequence": 8,
        "StationID": "665"
      },
      {
        "Name": "陽明教養院",
        "Lat": 25.1104191040479,
        "Lon": 121.54836175021,
        "Sequence": 9,
        "StationID": "861"
      },
      {
        "Name": "永福(林語堂故居)",
        "Lat": 25.1095275064689,
        "Lon": 121.547154139609,
        "Sequence": 10,
        "StationID": "679"
      },
      {
        "Name": "永嶺",
        "Lat": 25.1068495776368,
        "Lon": 121.545213090496,
        "Sequence": 11,
        "StationID": "683"
      },
      {
        "Name": "拔子埔",
        "Lat": 25.104977,
        "Lon": 121.543591,
        "Sequence": 12,
        "StationID": "723"
      },
      {
        "Name": "嶺頭",
        "Lat": 25.1031851590031,
        "Lon": 121.541536360844,
        "Sequence": 13,
        "StationID": "937"
      },
      {
        "Name": "華興中學",
        "Lat": 25.104112892574,
        "Lon": 121.538359218545,
        "Sequence": 14,
        "StationID": "1000615"
      },
      {
        "Name": "芝蘭新村",
        "Lat": 25.1072897892355,
        "Lon": 121.537298719254,
        "Sequence": 15,
        "StationID": "749"
      },
      {
        "Name": "岩山里一",
        "Lat": 25.10331,
        "Lon": 121.53692,
        "Sequence": 16,
        "StationID": "712"
      },
      {
        "Name": "岩山里",
        "Lat": 25.1018780140349,
        "Lon": 121.537579799115,
        "Sequence": 17,
        "StationID": "709"
      },
      {
        "Name": "泰北中學",
        "Lat": 25.0977513146504,
        "Lon": 121.534030294965,
        "Sequence": 18,
        "StationID": "778"
      },
      {
        "Name": "士林官邸(中正)",
        "Lat": 25.0965,
        "Lon": 121.53144,
        "Sequence": 19,
        "StationID": "3953"
      },
      {
        "Name": "福林國小",
        "Lat": 25.0962,
        "Lon": 121.52976,
        "Sequence": 20,
        "StationID": "3954"
      },
      {
        "Name": "捷運士林站(中正)",
        "Lat": 25.095583,
        "Lon": 121.526622,
        "Sequence": 21,
        "StationID": "797"
      },
      {
        "Name": "士林國小",
        "Lat": 25.094058815207,
        "Lon": 121.524789386925,
        "Sequence": 22,
        "StationID": "5040"
      },
      {
        "Name": "士林分局",
        "Lat": 25.09049,
        "Lon": 121.525833,
        "Sequence": 23,
        "StationID": "571"
      },
      {
        "Name": "捷運劍潭站(中山)",
        "Lat": 25.085353,
        "Lon": 121.525327,
        "Sequence": 24,
        "StationID": "803"
      }
    ]
  },
  {
    "Route": "小16",
    "SubRoute": "小16 平1150、1525經陽明山國小",
    "Direction": 0,
    "Stops": [
      {
        "Name": "捷運劍潭站(北藝中心)",
        "Lat": 25.084952,
        "Lon": 121.525031,
        "Sequence": 1,
        "StationID": "1000256"
      },
      {
        "Name": "陽明戲院",
        "Lat": 25.087439801579,
        "Lon": 121.52602186508,
        "Sequence": 2,
        "StationID": "7261"
      },
      {
        "Name": "士林分局",
        "Lat": 25.09049,
        "Lon": 121.525833,
        "Sequence": 3,
        "StationID": "571"
      },
      {
        "Name": "士林區農會",
        "Lat": 25.0928638299869,
        "Lon": 121.525671636781,
        "Sequence": 4,
        "StationID": "583"
      },
      {
        "Name": "捷運士林站(中正)",
        "Lat": 25.09543483,
        "Lon": 121.5267653,
        "Sequence": 5,
        "StationID": "10210"
      },
      {
        "Name": "福林國小",
        "Lat": 25.09583325,
        "Lon": 121.5290055,
        "Sequence": 6,
        "StationID": "896"
      },
      {
        "Name": "士林官邸(中正)",
        "Lat": 25.096324,
        "Lon": 121.531395,
        "Sequence": 7,
        "StationID": "1000618"
      },
      {
        "Name": "泰北中學",
        "Lat": 25.0972847950979,
        "Lon": 121.533481875716,
        "Sequence": 8,
        "StationID": "777"
      },
      {
        "Name": "岩山里",
        "Lat": 25.101779204864,
        "Lon": 121.537708683954,
        "Sequence": 9,
        "StationID": "1000619"
      },
      {
        "Name": "岩山里一",
        "Lat": 25.1035131480372,
        "Lon": 121.53702433513,
        "Sequence": 10,
        "StationID": "55009"
      },
      {
        "Name": "芝蘭新村",
        "Lat": 25.1069424036663,
        "Lon": 121.536903542185,
        "Sequence": 11,
        "StationID": "1000616"
      },
      {
        "Name": "華興中學",
        "Lat": 25.10410142,
        "Lon": 121.5381247,
        "Sequence": 12,
        "StationID": "843"
      },
      {
        "Name": "嶺頭",
        "Lat": 25.1020154099508,
        "Lon": 121.540318712854,
        "Sequence": 13,
        "StationID": "30040"
      },
      {
        "Name": "拔子埔",
        "Lat": 25.1050667160996,
        "Lon": 121.543899657612,
        "Sequence": 14,
        "StationID": "724"
      },
      {
        "Name": "永嶺",
        "Lat": 25.10696523,
        "Lon": 121.5453823,
        "Sequence": 15,
        "StationID": "1000608"
      },
      {
        "Name": "永福(林語堂故居)",
        "Lat": 25.1092441758524,
        "Lon": 121.547020026043,
        "Sequence": 16,
        "StationID": "1000609"
      },
      {
        "Name": "陽明教養院",
        "Lat": 25.110508,
        "Lon": 121.548654,
        "Sequence": 17,
        "StationID": "1000620"
      },
      {
        "Name": "大興山莊",
        "Lat": 25.12242,
        "Lon": 121.55786,
        "Sequence": 18,
        "StationID": "605"
      },
      {
        "Name": "東方寺",
        "Lat": 25.12353,
        "Lon": 121.55896,
        "Sequence": 19,
        "StationID": "55013"
      },
      {
        "Name": "公館地",
        "Lat": 25.12548,
        "Lon": 121.55988,
        "Sequence": 20,
        "StationID": "625"
      },
      {
        "Name": "葉家莊",
        "Lat": 25.126609,
        "Lon": 121.560678,
        "Sequence": 21,
        "StationID": "1165606947"
      },
      {
        "Name": "東方寺",
        "Lat": 25.12356,
        "Lon": 121.55887,
        "Sequence": 22,
        "StationID": "70044"
      },
      {
        "Name": "大興山莊",
        "Lat": 25.12251,
        "Lon": 121.55779,
        "Sequence": 23,
        "StationID": "70043"
      },
      {
        "Name": "光興宮",
        "Lat": 25.12015,
        "Lon": 121.56006,
        "Sequence": 24,
        "StationID": "14412"
      },
      {
        "Name": "擷翠新村",
        "Lat": 25.121595574726,
        "Lon": 121.56344,
        "Sequence": 25,
        "StationID": "55011"
      },
      {
        "Name": "公館里",
        "Lat": 25.12663,
        "Lon": 121.56473,
        "Sequence": 26,
        "StationID": "55012"
      }
    ]
  },
  {
    "Route": "小16",
    "SubRoute": "小16 平1150、1525經陽明山國小",
    "Direction": 1,
    "Stops": [
      {
        "Name": "公館里",
        "Lat": 25.12654,
        "Lon": 121.56444,
        "Sequence": 1,
        "StationID": "626"
      },
      {
        "Name": "擷翠新村",
        "Lat": 25.121838139677,
        "Lon": 121.56340821594,
        "Sequence": 2,
        "StationID": "1001274"
      },
      {
        "Name": "光興宮",
        "Lat": 25.12022,
        "Lon": 121.55992,
        "Sequence": 3,
        "StationID": "688"
      },
      {
        "Name": "永公路三",
        "Lat": 25.121050958736,
        "Lon": 121.55671856085,
        "Sequence": 4,
        "StationID": "664"
      },
      {
        "Name": "綠園",
        "Lat": 25.11719,
        "Lon": 121.55509,
        "Sequence": 5,
        "StationID": "907"
      },
      {
        "Name": "永公路二",
        "Lat": 25.1158,
        "Lon": 121.55418,
        "Sequence": 6,
        "StationID": "663"
      },
      {
        "Name": "永公路一",
        "Lat": 25.114568872834,
        "Lon": 121.55288889088,
        "Sequence": 7,
        "StationID": "662"
      },
      {
        "Name": "永公橋",
        "Lat": 25.1137,
        "Lon": 121.55065,
        "Sequence": 8,
        "StationID": "665"
      },
      {
        "Name": "陽明教養院",
        "Lat": 25.1104191040479,
        "Lon": 121.54836175021,
        "Sequence": 9,
        "StationID": "861"
      },
      {
        "Name": "永福(林語堂故居)",
        "Lat": 25.1095275064689,
        "Lon": 121.547154139609,
        "Sequence": 10,
        "StationID": "679"
      },
      {
        "Name": "永嶺",
        "Lat": 25.1068495776368,
        "Lon": 121.545213090496,
        "Sequence": 11,
        "StationID": "683"
      },
      {
        "Name": "拔子埔",
        "Lat": 25.104977,
        "Lon": 121.543591,
        "Sequence": 12,
        "StationID": "723"
      },
      {
        "Name": "嶺頭",
        "Lat": 25.1031851590031,
        "Lon": 121.541536360844,
        "Sequence": 13,
        "StationID": "937"
      },
      {
        "Name": "華興中學",
        "Lat": 25.104112892574,
        "Lon": 121.538359218545,
        "Sequence": 14,
        "StationID": "1000615"
      },
      {
        "Name": "芝蘭新村",
        "Lat": 25.1072897892355,
        "Lon": 121.537298719254,
        "Sequence": 15,
        "StationID": "749"
      },
      {
        "Name": "岩山里一",
        "Lat": 25.10331,
        "Lon": 121.53692,
        "Sequence": 16,
        "StationID": "712"
      },
      {
        "Name": "岩山里",
        "Lat": 25.1018780140349,
        "Lon": 121.537579799115,
        "Sequence": 17,
        "StationID": "709"
      },
      {
        "Name": "泰北中學",
        "Lat": 25.0977513146504,
        "Lon": 121.534030294965,
        "Sequence": 18,
        "StationID": "778"
      },
      {
        "Name": "士林官邸(中正)",
        "Lat": 25.0965,
        "Lon": 121.53144,
        "Sequence": 19,
        "StationID": "3953"
      },
      {
        "Name": "福林國小",
        "Lat": 25.0962,
        "Lon": 121.52976,
        "Sequence": 20,
        "StationID": "3954"
      },
      {
        "Name": "捷運士林站(中正)",
        "Lat": 25.095583,
        "Lon": 121.526622,
        "Sequence": 21,
        "StationID": "797"
      },
      {
        "Name": "士林國小",
        "Lat": 25.094058815207,
        "Lon": 121.524789386925,
        "Sequence": 22,
        "StationID": "5040"
      },
      {
        "Name": "士林分局",
        "Lat": 25.09049,
        "Lon": 121.525833,
        "Sequence": 23,
        "StationID": "571"
      },
      {
        "Name": "捷運劍潭站(中山)",
        "Lat": 25.085353,
        "Lon": 121.525327,
        "Sequence": 24,
        "StationID": "803"
      }
    ]
  },
  {
    "Route": "小16",
    "SubRoute": "小16 平1030、1740 假1740經永公路245巷34弄",
    "Direction": 0,
    "Stops": [
      {
        "Name": "捷運劍潭站(北藝中心)",
        "Lat": 25.084952,
        "Lon": 121.525031,
        "Sequence": 1,
        "StationID": "1000256"
      },
      {
        "Name": "陽明戲院",
        "Lat": 25.087439801579,
        "Lon": 121.52602186508,
        "Sequence": 2,
        "StationID": "7261"
      },
      {
        "Name": "士林分局",
        "Lat": 25.09049,
        "Lon": 121.525833,
        "Sequence": 3,
        "StationID": "571"
      },
      {
        "Name": "士林區農會",
        "Lat": 25.0928638299869,
        "Lon": 121.525671636781,
        "Sequence": 4,
        "StationID": "583"
      },
      {
        "Name": "捷運士林站(中正)",
        "Lat": 25.09543483,
        "Lon": 121.5267653,
        "Sequence": 5,
        "StationID": "10210"
      },
      {
        "Name": "福林國小",
        "Lat": 25.09583325,
        "Lon": 121.5290055,
        "Sequence": 6,
        "StationID": "896"
      },
      {
        "Name": "士林官邸(中正)",
        "Lat": 25.096324,
        "Lon": 121.531395,
        "Sequence": 7,
        "StationID": "1000618"
      },
      {
        "Name": "泰北中學",
        "Lat": 25.0972847950979,
        "Lon": 121.533481875716,
        "Sequence": 8,
        "StationID": "777"
      },
      {
        "Name": "岩山里",
        "Lat": 25.101779204864,
        "Lon": 121.537708683954,
        "Sequence": 9,
        "StationID": "1000619"
      },
      {
        "Name": "岩山里一",
        "Lat": 25.1035131480372,
        "Lon": 121.53702433513,
        "Sequence": 10,
        "StationID": "55009"
      },
      {
        "Name": "芝蘭新村",
        "Lat": 25.1069424036663,
        "Lon": 121.536903542185,
        "Sequence": 11,
        "StationID": "1000616"
      },
      {
        "Name": "華興中學",
        "Lat": 25.10410142,
        "Lon": 121.5381247,
        "Sequence": 12,
        "StationID": "843"
      },
      {
        "Name": "嶺頭",
        "Lat": 25.1020154099508,
        "Lon": 121.540318712854,
        "Sequence": 13,
        "StationID": "30040"
      },
      {
        "Name": "拔子埔",
        "Lat": 25.1050667160996,
        "Lon": 121.543899657612,
        "Sequence": 14,
        "StationID": "724"
      },
      {
        "Name": "永嶺",
        "Lat": 25.10696523,
        "Lon": 121.5453823,
        "Sequence": 15,
        "StationID": "1000608"
      },
      {
        "Name": "永福(林語堂故居)",
        "Lat": 25.1092441758524,
        "Lon": 121.547020026043,
        "Sequence": 16,
        "StationID": "1000609"
      },
      {
        "Name": "陽明教養院",
        "Lat": 25.110508,
        "Lon": 121.548654,
        "Sequence": 17,
        "StationID": "1000620"
      },
      {
        "Name": "永公橋",
        "Lat": 25.11363,
        "Lon": 121.55073,
        "Sequence": 18,
        "StationID": "14416"
      },
      {
        "Name": "永公路一",
        "Lat": 25.114601436518,
        "Lon": 121.55306273016,
        "Sequence": 19,
        "StationID": "1001271"
      },
      {
        "Name": "永公路二",
        "Lat": 25.11594,
        "Lon": 121.55439,
        "Sequence": 20,
        "StationID": "14415"
      },
      {
        "Name": "綠園",
        "Lat": 25.11713,
        "Lon": 121.55508,
        "Sequence": 21,
        "StationID": "14414"
      },
      {
        "Name": "永公路三",
        "Lat": 25.121166956347,
        "Lon": 121.55687573016,
        "Sequence": 22,
        "StationID": "14413"
      },
      {
        "Name": "大興山莊",
        "Lat": 25.12242,
        "Lon": 121.55786,
        "Sequence": 23,
        "StationID": "605"
      },
      {
        "Name": "東方寺",
        "Lat": 25.12353,
        "Lon": 121.55896,
        "Sequence": 24,
        "StationID": "55013"
      },
      {
        "Name": "館地坪",
        "Lat": 25.133867,
        "Lon": 121.561187,
        "Sequence": 25,
        "StationID": "4816"
      },
      {
        "Name": "公館地",
        "Lat": 25.12548,
        "Lon": 121.55988,
        "Sequence": 26,
        "StationID": "625"
      },
      {
        "Name": "葉家莊",
        "Lat": 25.126609,
        "Lon": 121.560678,
        "Sequence": 27,
        "StationID": "1165606947"
      },
      {
        "Name": "東方寺",
        "Lat": 25.12356,
        "Lon": 121.55887,
        "Sequence": 28,
        "StationID": "70044"
      },
      {
        "Name": "大興山莊",
        "Lat": 25.12251,
        "Lon": 121.55779,
        "Sequence": 29,
        "StationID": "70043"
      },
      {
        "Name": "光興宮",
        "Lat": 25.12015,
        "Lon": 121.56006,
        "Sequence": 30,
        "StationID": "14412"
      },
      {
        "Name": "擷翠新村",
        "Lat": 25.121595574726,
        "Lon": 121.56344,
        "Sequence": 31,
        "StationID": "55011"
      },
      {
        "Name": "公館里",
        "Lat": 25.12663,
        "Lon": 121.56473,
        "Sequence": 32,
        "StationID": "55012"
      }
    ]
  },
  {
    "Route": "小16",
    "SubRoute": "小16 平1030、1740 假1740經永公路245巷34弄",
    "Direction": 1,
    "Stops": [
      {
        "Name": "公館里",
        "Lat": 25.12654,
        "Lon": 121.56444,
        "Sequence": 1,
        "StationID": "626"
      },
      {
        "Name": "擷翠新村",
        "Lat": 25.121838139677,
        "Lon": 121.56340821594,
        "Sequence": 2,
        "StationID": "1001274"
      },
      {
        "Name": "光興宮",
        "Lat": 25.12022,
        "Lon": 121.55992,
        "Sequence": 3,
        "StationID": "688"
      },
      {
        "Name": "永公路三",
        "Lat": 25.121050958736,
        "Lon": 121.55671856085,
        "Sequence": 4,
        "StationID": "664"
      },
      {
        "Name": "綠園",
        "Lat": 25.11719,
        "Lon": 121.55509,
        "Sequence": 5,
        "StationID": "907"
      },
      {
        "Name": "永公路二",
        "Lat": 25.1158,
        "Lon": 121.55418,
        "Sequence": 6,
        "StationID": "663"
      },
      {
        "Name": "永公路一",
        "Lat": 25.114568872834,
        "Lon": 121.55288889088,
        "Sequence": 7,
        "StationID": "662"
      },
      {
        "Name": "永公橋",
        "Lat": 25.1137,
        "Lon": 121.55065,
        "Sequence": 8,
        "StationID": "665"
      },
      {
        "Name": "陽明教養院",
        "Lat": 25.1104191040479,
        "Lon": 121.54836175021,
        "Sequence": 9,
        "StationID": "861"
      },
      {
        "Name": "永福(林語堂故居)",
        "Lat": 25.1095275064689,
        "Lon": 121.547154139609,
        "Sequence": 10,
        "StationID": "679"
      },
      {
        "Name": "永嶺",
        "Lat": 25.1068495776368,
        "Lon": 121.545213090496,
        "Sequence": 11,
        "StationID": "683"
      },
      {
        "Name": "拔子埔",
        "Lat": 25.104977,
        "Lon": 121.543591,
        "Sequence": 12,
        "StationID": "723"
      },
      {
        "Name": "嶺頭",
        "Lat": 25.1031851590031,
        "Lon": 121.541536360844,
        "Sequence": 13,
        "StationID": "937"
      },
      {
        "Name": "華興中學",
        "Lat": 25.104112892574,
        "Lon": 121.538359218545,
        "Sequence": 14,
        "StationID": "1000615"
      },
      {
        "Name": "芝蘭新村",
        "Lat": 25.1072897892355,
        "Lon": 121.537298719254,
        "Sequence": 15,
        "StationID": "749"
      },
      {
        "Name": "岩山里一",
        "Lat": 25.10331,
        "Lon": 121.53692,
        "Sequence": 16,
        "StationID": "712"
      },
      {
        "Name": "岩山里",
        "Lat": 25.1018780140349,
        "Lon": 121.537579799115,
        "Sequence": 17,
        "StationID": "709"
      },
      {
        "Name": "泰北中學",
        "Lat": 25.0977513146504,
        "Lon": 121.534030294965,
        "Sequence": 18,
        "StationID": "778"
      },
      {
        "Name": "士林官邸(中正)",
        "Lat": 25.0965,
        "Lon": 121.53144,
        "Sequence": 19,
        "StationID": "3953"
      },
      {
        "Name": "福林國小",
        "Lat": 25.0962,
        "Lon": 121.52976,
        "Sequence": 20,
        "StationID": "3954"
      },
      {
        "Name": "捷運士林站(中正)",
        "Lat": 25.095583,
        "Lon": 121.526622,
        "Sequence": 21,
        "StationID": "797"
      },
      {
        "Name": "士林國小",
        "Lat": 25.094058815207,
        "Lon": 121.524789386925,
        "Sequence": 22,
        "StationID": "5040"
      },
      {
        "Name": "士林分局",
        "Lat": 25.09049,
        "Lon": 121.525833,
        "Sequence": 23,
        "StationID": "571"
      },
      {
        "Name": "捷運劍潭站(中山)",
        "Lat": 25.085353,
        "Lon": 121.525327,
        "Sequence": 24,
        "StationID": "803"
      }
    ]
  },
  {
    "Route": "小16",
    "SubRoute": "小16 假0810經永公路245巷34弄、296、350巷",
    "Direction": 0,
    "Stops": [
      {
        "Name": "捷運劍潭站(北藝中心)",
        "Lat": 25.084952,
        "Lon": 121.525031,
        "Sequence": 1,
        "StationID": "1000256"
      },
      {
        "Name": "陽明戲院",
        "Lat": 25.087439801579,
        "Lon": 121.52602186508,
        "Sequence": 2,
        "StationID": "7261"
      },
      {
        "Name": "士林分局",
        "Lat": 25.09049,
        "Lon": 121.525833,
        "Sequence": 3,
        "StationID": "571"
      },
      {
        "Name": "士林區農會",
        "Lat": 25.0928638299869,
        "Lon": 121.525671636781,
        "Sequence": 4,
        "StationID": "583"
      },
      {
        "Name": "捷運士林站(中正)",
        "Lat": 25.09543483,
        "Lon": 121.5267653,
        "Sequence": 5,
        "StationID": "10210"
      },
      {
        "Name": "福林國小",
        "Lat": 25.09583325,
        "Lon": 121.5290055,
        "Sequence": 6,
        "StationID": "896"
      },
      {
        "Name": "士林官邸(中正)",
        "Lat": 25.096324,
        "Lon": 121.531395,
        "Sequence": 7,
        "StationID": "1000618"
      },
      {
        "Name": "泰北中學",
        "Lat": 25.0972847950979,
        "Lon": 121.533481875716,
        "Sequence": 8,
        "StationID": "777"
      },
      {
        "Name": "岩山里",
        "Lat": 25.101779204864,
        "Lon": 121.537708683954,
        "Sequence": 9,
        "StationID": "1000619"
      },
      {
        "Name": "岩山里一",
        "Lat": 25.1035131480372,
        "Lon": 121.53702433513,
        "Sequence": 10,
        "StationID": "55009"
      },
      {
        "Name": "芝蘭新村",
        "Lat": 25.1069424036663,
        "Lon": 121.536903542185,
        "Sequence": 11,
        "StationID": "1000616"
      },
      {
        "Name": "華興中學",
        "Lat": 25.10410142,
        "Lon": 121.5381247,
        "Sequence": 12,
        "StationID": "843"
      },
      {
        "Name": "嶺頭",
        "Lat": 25.1020154099508,
        "Lon": 121.540318712854,
        "Sequence": 13,
        "StationID": "30040"
      },
      {
        "Name": "拔子埔",
        "Lat": 25.1050667160996,
        "Lon": 121.543899657612,
        "Sequence": 14,
        "StationID": "724"
      },
      {
        "Name": "永嶺",
        "Lat": 25.10696523,
        "Lon": 121.5453823,
        "Sequence": 15,
        "StationID": "1000608"
      },
      {
        "Name": "永福(林語堂故居)",
        "Lat": 25.1092441758524,
        "Lon": 121.547020026043,
        "Sequence": 16,
        "StationID": "1000609"
      },
      {
        "Name": "陽明教養院",
        "Lat": 25.110508,
        "Lon": 121.548654,
        "Sequence": 17,
        "StationID": "1000620"
      },
      {
        "Name": "永公橋",
        "Lat": 25.11363,
        "Lon": 121.55073,
        "Sequence": 18,
        "StationID": "14416"
      },
      {
        "Name": "永公路一",
        "Lat": 25.114601436518,
        "Lon": 121.55306273016,
        "Sequence": 19,
        "StationID": "1001271"
      },
      {
        "Name": "永公路二",
        "Lat": 25.11594,
        "Lon": 121.55439,
        "Sequence": 20,
        "StationID": "14415"
      },
      {
        "Name": "綠園",
        "Lat": 25.11713,
        "Lon": 121.55508,
        "Sequence": 21,
        "StationID": "14414"
      },
      {
        "Name": "永公路三",
        "Lat": 25.121166956347,
        "Lon": 121.55687573016,
        "Sequence": 22,
        "StationID": "14413"
      },
      {
        "Name": "大興山莊",
        "Lat": 25.12242,
        "Lon": 121.55786,
        "Sequence": 23,
        "StationID": "605"
      },
      {
        "Name": "東方寺",
        "Lat": 25.12353,
        "Lon": 121.55896,
        "Sequence": 24,
        "StationID": "55013"
      },
      {
        "Name": "館地坪",
        "Lat": 25.133867,
        "Lon": 121.561187,
        "Sequence": 25,
        "StationID": "4816"
      },
      {
        "Name": "公館地",
        "Lat": 25.12548,
        "Lon": 121.55988,
        "Sequence": 26,
        "StationID": "625"
      },
      {
        "Name": "葉家莊",
        "Lat": 25.126609,
        "Lon": 121.560678,
        "Sequence": 27,
        "StationID": "1165606947"
      },
      {
        "Name": "東方寺",
        "Lat": 25.12356,
        "Lon": 121.55887,
        "Sequence": 28,
        "StationID": "70044"
      },
      {
        "Name": "大興山莊",
        "Lat": 25.12251,
        "Lon": 121.55779,
        "Sequence": 29,
        "StationID": "70043"
      },
      {
        "Name": "光興宮",
        "Lat": 25.12015,
        "Lon": 121.56006,
        "Sequence": 30,
        "StationID": "14412"
      },
      {
        "Name": "公館里關帝廟",
        "Lat": 25.123637,
        "Lon": 121.565354,
        "Sequence": 31,
        "StationID": "1165603317"
      },
      {
        "Name": "擷翠新村",
        "Lat": 25.121595574726,
        "Lon": 121.56344,
        "Sequence": 32,
        "StationID": "55011"
      },
      {
        "Name": "公館里",
        "Lat": 25.12663,
        "Lon": 121.56473,
        "Sequence": 33,
        "StationID": "55012"
      }
    ]
  },
  {
    "Route": "小16",
    "SubRoute": "小16 假0810經永公路245巷34弄、296、350巷",
    "Direction": 1,
    "Stops": [
      {
        "Name": "公館里",
        "Lat": 25.12654,
        "Lon": 121.56444,
        "Sequence": 1,
        "StationID": "626"
      },
      {
        "Name": "擷翠新村",
        "Lat": 25.121838139677,
        "Lon": 121.56340821594,
        "Sequence": 2,
        "StationID": "1001274"
      },
      {
        "Name": "光興宮",
        "Lat": 25.12022,
        "Lon": 121.55992,
        "Sequence": 3,
        "StationID": "688"
      },
      {
        "Name": "永公路三",
        "Lat": 25.121050958736,
        "Lon": 121.55671856085,
        "Sequence": 4,
        "StationID": "664"
      },
      {
        "Name": "綠園",
        "Lat": 25.11719,
        "Lon": 121.55509,
        "Sequence": 5,
        "StationID": "907"
      },
      {
        "Name": "永公路二",
        "Lat": 25.1158,
        "Lon": 121.55418,
        "Sequence": 6,
        "StationID": "663"
      },
      {
        "Name": "永公路一",
        "Lat": 25.114568872834,
        "Lon": 121.55288889088,
        "Sequence": 7,
        "StationID": "662"
      },
      {
        "Name": "永公橋",
        "Lat": 25.1137,
        "Lon": 121.55065,
        "Sequence": 8,
        "StationID": "665"
      },
      {
        "Name": "陽明教養院",
        "Lat": 25.1104191040479,
        "Lon": 121.54836175021,
        "Sequence": 9,
        "StationID": "861"
      },
      {
        "Name": "永福(林語堂故居)",
        "Lat": 25.1095275064689,
        "Lon": 121.547154139609,
        "Sequence": 10,
        "StationID": "679"
      },
      {
        "Name": "永嶺",
        "Lat": 25.1068495776368,
        "Lon": 121.545213090496,
        "Sequence": 11,
        "StationID": "683"
      },
      {
        "Name": "拔子埔",
        "Lat": 25.104977,
        "Lon": 121.543591,
        "Sequence": 12,
        "StationID": "723"
      },
      {
        "Name": "嶺頭",
        "Lat": 25.1031851590031,
        "Lon": 121.541536360844,
        "Sequence": 13,
        "StationID": "937"
      },
      {
        "Name": "華興中學",
        "Lat": 25.104112892574,
        "Lon": 121.538359218545,
        "Sequence": 14,
        "StationID": "1000615"
      },
      {
        "Name": "芝蘭新村",
        "Lat": 25.1072897892355,
        "Lon": 121.537298719254,
        "Sequence": 15,
        "StationID": "749"
      },
      {
        "Name": "岩山里一",
        "Lat": 25.10331,
        "Lon": 121.53692,
        "Sequence": 16,
        "StationID": "712"
      },
      {
        "Name": "岩山里",
        "Lat": 25.1018780140349,
        "Lon": 121.537579799115,
        "Sequence": 17,
        "StationID": "709"
      },
      {
        "Name": "泰北中學",
        "Lat": 25.0977513146504,
        "Lon": 121.534030294965,
        "Sequence": 18,
        "StationID": "778"
      },
      {
        "Name": "士林官邸(中正)",
        "Lat": 25.0965,
        "Lon": 121.53144,
        "Sequence": 19,
        "StationID": "3953"
      },
      {
        "Name": "福林國小",
        "Lat": 25.0962,
        "Lon": 121.52976,
        "Sequence": 20,
        "StationID": "3954"
      },
      {
        "Name": "捷運士林站(中正)",
        "Lat": 25.095583,
        "Lon": 121.526622,
        "Sequence": 21,
        "StationID": "797"
      },
      {
        "Name": "士林國小",
        "Lat": 25.094058815207,
        "Lon": 121.524789386925,
        "Sequence": 22,
        "StationID": "5040"
      },
      {
        "Name": "士林分局",
        "Lat": 25.09049,
        "Lon": 121.525833,
        "Sequence": 23,
        "StationID": "571"
      },
      {
        "Name": "捷運劍潭站(中山)",
        "Lat": 25.085353,
        "Lon": 121.525327,
        "Sequence": 24,
        "StationID": "803"
      }
    ]
  },
  {
    "Route": "小16",
    "SubRoute": "小16 假0950經永公路245巷34弄、296、350、500巷",
    "Direction": 0,
    "Stops": [
      {
        "Name": "捷運劍潭站(北藝中心)",
        "Lat": 25.084952,
        "Lon": 121.525031,
        "Sequence": 1,
        "StationID": "1000256"
      },
      {
        "Name": "陽明戲院",
        "Lat": 25.087439801579,
        "Lon": 121.52602186508,
        "Sequence": 2,
        "StationID": "7261"
      },
      {
        "Name": "士林分局",
        "Lat": 25.09049,
        "Lon": 121.525833,
        "Sequence": 3,
        "StationID": "571"
      },
      {
        "Name": "士林區農會",
        "Lat": 25.0928638299869,
        "Lon": 121.525671636781,
        "Sequence": 4,
        "StationID": "583"
      },
      {
        "Name": "捷運士林站(中正)",
        "Lat": 25.09543483,
        "Lon": 121.5267653,
        "Sequence": 5,
        "StationID": "10210"
      },
      {
        "Name": "福林國小",
        "Lat": 25.09583325,
        "Lon": 121.5290055,
        "Sequence": 6,
        "StationID": "896"
      },
      {
        "Name": "士林官邸(中正)",
        "Lat": 25.096324,
        "Lon": 121.531395,
        "Sequence": 7,
        "StationID": "1000618"
      },
      {
        "Name": "泰北中學",
        "Lat": 25.0972847950979,
        "Lon": 121.533481875716,
        "Sequence": 8,
        "StationID": "777"
      },
      {
        "Name": "岩山里",
        "Lat": 25.101779204864,
        "Lon": 121.537708683954,
        "Sequence": 9,
        "StationID": "1000619"
      },
      {
        "Name": "岩山里一",
        "Lat": 25.1035131480372,
        "Lon": 121.53702433513,
        "Sequence": 10,
        "StationID": "55009"
      },
      {
        "Name": "芝蘭新村",
        "Lat": 25.1069424036663,
        "Lon": 121.536903542185,
        "Sequence": 11,
        "StationID": "1000616"
      },
      {
        "Name": "華興中學",
        "Lat": 25.10410142,
        "Lon": 121.5381247,
        "Sequence": 12,
        "StationID": "843"
      },
      {
        "Name": "嶺頭",
        "Lat": 25.1020154099508,
        "Lon": 121.540318712854,
        "Sequence": 13,
        "StationID": "30040"
      },
      {
        "Name": "拔子埔",
        "Lat": 25.1050667160996,
        "Lon": 121.543899657612,
        "Sequence": 14,
        "StationID": "724"
      },
      {
        "Name": "永嶺",
        "Lat": 25.10696523,
        "Lon": 121.5453823,
        "Sequence": 15,
        "StationID": "1000608"
      },
      {
        "Name": "永福(林語堂故居)",
        "Lat": 25.1092441758524,
        "Lon": 121.547020026043,
        "Sequence": 16,
        "StationID": "1000609"
      },
      {
        "Name": "陽明教養院",
        "Lat": 25.110508,
        "Lon": 121.548654,
        "Sequence": 17,
        "StationID": "1000620"
      },
      {
        "Name": "永公橋",
        "Lat": 25.11363,
        "Lon": 121.55073,
        "Sequence": 18,
        "StationID": "14416"
      },
      {
        "Name": "永公路一",
        "Lat": 25.114601436518,
        "Lon": 121.55306273016,
        "Sequence": 19,
        "StationID": "1001271"
      },
      {
        "Name": "永公路二",
        "Lat": 25.11594,
        "Lon": 121.55439,
        "Sequence": 20,
        "StationID": "14415"
      },
      {
        "Name": "綠園",
        "Lat": 25.11713,
        "Lon": 121.55508,
        "Sequence": 21,
        "StationID": "14414"
      },
      {
        "Name": "永公路三",
        "Lat": 25.121166956347,
        "Lon": 121.55687573016,
        "Sequence": 22,
        "StationID": "14413"
      },
      {
        "Name": "大興山莊",
        "Lat": 25.12242,
        "Lon": 121.55786,
        "Sequence": 23,
        "StationID": "605"
      },
      {
        "Name": "東方寺",
        "Lat": 25.12353,
        "Lon": 121.55896,
        "Sequence": 24,
        "StationID": "55013"
      },
      {
        "Name": "館地坪",
        "Lat": 25.133867,
        "Lon": 121.561187,
        "Sequence": 25,
        "StationID": "4816"
      },
      {
        "Name": "公館地",
        "Lat": 25.12548,
        "Lon": 121.55988,
        "Sequence": 26,
        "StationID": "625"
      },
      {
        "Name": "葉家莊",
        "Lat": 25.126609,
        "Lon": 121.560678,
        "Sequence": 27,
        "StationID": "1165606947"
      },
      {
        "Name": "東方寺",
        "Lat": 25.12356,
        "Lon": 121.55887,
        "Sequence": 28,
        "StationID": "70044"
      },
      {
        "Name": "大興山莊",
        "Lat": 25.12251,
        "Lon": 121.55779,
        "Sequence": 29,
        "StationID": "70043"
      },
      {
        "Name": "光興宮",
        "Lat": 25.12015,
        "Lon": 121.56006,
        "Sequence": 30,
        "StationID": "14412"
      },
      {
        "Name": "公館里關帝廟",
        "Lat": 25.123637,
        "Lon": 121.565354,
        "Sequence": 31,
        "StationID": "1165603317"
      },
      {
        "Name": "擷翠新村",
        "Lat": 25.121595574726,
        "Lon": 121.56344,
        "Sequence": 32,
        "StationID": "55011"
      },
      {
        "Name": "公館里",
        "Lat": 25.12663,
        "Lon": 121.56473,
        "Sequence": 33,
        "StationID": "55012"
      },
      {
        "Name": "西雲禪寺",
        "Lat": 25.130468,
        "Lon": 121.56666,
        "Sequence": 34,
        "StationID": "1001272"
      },
      {
        "Name": "下菁礐",
        "Lat": 25.134924,
        "Lon": 121.568943,
        "Sequence": 35,
        "StationID": "4815"
      },
      {
        "Name": "永公路500巷",
        "Lat": 25.13592222,
        "Lon": 121.5704215,
        "Sequence": 36,
        "StationID": "1001273"
      }
    ]
  },
  {
    "Route": "小16",
    "SubRoute": "小16 假0950經永公路245巷34弄、296、350、500巷",
    "Direction": 1,
    "Stops": [
      {
        "Name": "公館里",
        "Lat": 25.12654,
        "Lon": 121.56444,
        "Sequence": 1,
        "StationID": "626"
      },
      {
        "Name": "擷翠新村",
        "Lat": 25.121838139677,
        "Lon": 121.56340821594,
        "Sequence": 2,
        "StationID": "1001274"
      },
      {
        "Name": "光興宮",
        "Lat": 25.12022,
        "Lon": 121.55992,
        "Sequence": 3,
        "StationID": "688"
      },
      {
        "Name": "永公路三",
        "Lat": 25.121050958736,
        "Lon": 121.55671856085,
        "Sequence": 4,
        "StationID": "664"
      },
      {
        "Name": "綠園",
        "Lat": 25.11719,
        "Lon": 121.55509,
        "Sequence": 5,
        "StationID": "907"
      },
      {
        "Name": "永公路二",
        "Lat": 25.1158,
        "Lon": 121.55418,
        "Sequence": 6,
        "StationID": "663"
      },
      {
        "Name": "永公路一",
        "Lat": 25.114568872834,
        "Lon": 121.55288889088,
        "Sequence": 7,
        "StationID": "662"
      },
      {
        "Name": "永公橋",
        "Lat": 25.1137,
        "Lon": 121.55065,
        "Sequence": 8,
        "StationID": "665"
      },
      {
        "Name": "陽明教養院",
        "Lat": 25.1104191040479,
        "Lon": 121.54836175021,
        "Sequence": 9,
        "StationID": "861"
      },
      {
        "Name": "永福(林語堂故居)",
        "Lat": 25.1095275064689,
        "Lon": 121.547154139609,
        "Sequence": 10,
        "StationID": "679"
      },
      {
        "Name": "永嶺",
        "Lat": 25.1068495776368,
        "Lon": 121.545213090496,
        "Sequence": 11,
        "StationID": "683"
      },
      {
        "Name": "拔子埔",
        "Lat": 25.104977,
        "Lon": 121.543591,
        "Sequence": 12,
        "StationID": "723"
      },
      {
        "Name": "嶺頭",
        "Lat": 25.1031851590031,
        "Lon": 121.541536360844,
        "Sequence": 13,
        "StationID": "937"
      },
      {
        "Name": "華興中學",
        "Lat": 25.104112892574,
        "Lon": 121.538359218545,
        "Sequence": 14,
        "StationID": "1000615"
      },
      {
        "Name": "芝蘭新村",
        "Lat": 25.1072897892355,
        "Lon": 121.537298719254,
        "Sequence": 15,
        "StationID": "749"
      },
      {
        "Name": "岩山里一",
        "Lat": 25.10331,
        "Lon": 121.53692,
        "Sequence": 16,
        "StationID": "712"
      },
      {
        "Name": "岩山里",
        "Lat": 25.1018780140349,
        "Lon": 121.537579799115,
        "Sequence": 17,
        "StationID": "709"
      },
      {
        "Name": "泰北中學",
        "Lat": 25.0977513146504,
        "Lon": 121.534030294965,
        "Sequence": 18,
        "StationID": "778"
      },
      {
        "Name": "士林官邸(中正)",
        "Lat": 25.0965,
        "Lon": 121.53144,
        "Sequence": 19,
        "StationID": "3953"
      },
      {
        "Name": "福林國小",
        "Lat": 25.0962,
        "Lon": 121.52976,
        "Sequence": 20,
        "StationID": "3954"
      },
      {
        "Name": "捷運士林站(中正)",
        "Lat": 25.095583,
        "Lon": 121.526622,
        "Sequence": 21,
        "StationID": "797"
      },
      {
        "Name": "士林國小",
        "Lat": 25.094058815207,
        "Lon": 121.524789386925,
        "Sequence": 22,
        "StationID": "5040"
      },
      {
        "Name": "士林分局",
        "Lat": 25.09049,
        "Lon": 121.525833,
        "Sequence": 23,
        "StationID": "571"
      },
      {
        "Name": "捷運劍潭站(中山)",
        "Lat": 25.085353,
        "Lon": 121.525327,
        "Sequence": 24,
        "StationID": "803"
      }
    ]
  },
  {
    "Route": "小16",
    "SubRoute": "小16 2300經永公路296、350巷",
    "Direction": 0,
    "Stops": [
      {
        "Name": "捷運劍潭站(北藝中心)",
        "Lat": 25.084952,
        "Lon": 121.525031,
        "Sequence": 1,
        "StationID": "1000256"
      },
      {
        "Name": "陽明戲院",
        "Lat": 25.087439801579,
        "Lon": 121.52602186508,
        "Sequence": 2,
        "StationID": "7261"
      },
      {
        "Name": "士林分局",
        "Lat": 25.09049,
        "Lon": 121.525833,
        "Sequence": 3,
        "StationID": "571"
      },
      {
        "Name": "士林區農會",
        "Lat": 25.0928638299869,
        "Lon": 121.525671636781,
        "Sequence": 4,
        "StationID": "583"
      },
      {
        "Name": "捷運士林站(中正)",
        "Lat": 25.09543483,
        "Lon": 121.5267653,
        "Sequence": 5,
        "StationID": "10210"
      },
      {
        "Name": "福林國小",
        "Lat": 25.09583325,
        "Lon": 121.5290055,
        "Sequence": 6,
        "StationID": "896"
      },
      {
        "Name": "士林官邸(中正)",
        "Lat": 25.096324,
        "Lon": 121.531395,
        "Sequence": 7,
        "StationID": "1000618"
      },
      {
        "Name": "泰北中學",
        "Lat": 25.0972847950979,
        "Lon": 121.533481875716,
        "Sequence": 8,
        "StationID": "777"
      },
      {
        "Name": "岩山里",
        "Lat": 25.101779204864,
        "Lon": 121.537708683954,
        "Sequence": 9,
        "StationID": "1000619"
      },
      {
        "Name": "岩山里一",
        "Lat": 25.1035131480372,
        "Lon": 121.53702433513,
        "Sequence": 10,
        "StationID": "55009"
      },
      {
        "Name": "芝蘭新村",
        "Lat": 25.1069424036663,
        "Lon": 121.536903542185,
        "Sequence": 11,
        "StationID": "1000616"
      },
      {
        "Name": "華興中學",
        "Lat": 25.10410142,
        "Lon": 121.5381247,
        "Sequence": 12,
        "StationID": "843"
      },
      {
        "Name": "嶺頭",
        "Lat": 25.1020154099508,
        "Lon": 121.540318712854,
        "Sequence": 13,
        "StationID": "30040"
      },
      {
        "Name": "拔子埔",
        "Lat": 25.1050667160996,
        "Lon": 121.543899657612,
        "Sequence": 14,
        "StationID": "724"
      },
      {
        "Name": "永嶺",
        "Lat": 25.10696523,
        "Lon": 121.5453823,
        "Sequence": 15,
        "StationID": "1000608"
      },
      {
        "Name": "永福(林語堂故居)",
        "Lat": 25.1092441758524,
        "Lon": 121.547020026043,
        "Sequence": 16,
        "StationID": "1000609"
      },
      {
        "Name": "陽明教養院",
        "Lat": 25.110508,
        "Lon": 121.548654,
        "Sequence": 17,
        "StationID": "1000620"
      },
      {
        "Name": "永公橋",
        "Lat": 25.11363,
        "Lon": 121.55073,
        "Sequence": 18,
        "StationID": "14416"
      },
      {
        "Name": "永公路一",
        "Lat": 25.114601436518,
        "Lon": 121.55306273016,
        "Sequence": 19,
        "StationID": "1001271"
      },
      {
        "Name": "永公路二",
        "Lat": 25.11594,
        "Lon": 121.55439,
        "Sequence": 20,
        "StationID": "14415"
      },
      {
        "Name": "綠園",
        "Lat": 25.11713,
        "Lon": 121.55508,
        "Sequence": 21,
        "StationID": "14414"
      },
      {
        "Name": "永公路三",
        "Lat": 25.121166956347,
        "Lon": 121.55687573016,
        "Sequence": 22,
        "StationID": "14413"
      },
      {
        "Name": "大興山莊",
        "Lat": 25.12242,
        "Lon": 121.55786,
        "Sequence": 23,
        "StationID": "605"
      },
      {
        "Name": "東方寺",
        "Lat": 25.12353,
        "Lon": 121.55896,
        "Sequence": 24,
        "StationID": "55013"
      },
      {
        "Name": "公館地",
        "Lat": 25.12548,
        "Lon": 121.55988,
        "Sequence": 25,
        "StationID": "625"
      },
      {
        "Name": "葉家莊",
        "Lat": 25.126609,
        "Lon": 121.560678,
        "Sequence": 26,
        "StationID": "1165606947"
      },
      {
        "Name": "東方寺",
        "Lat": 25.12356,
        "Lon": 121.55887,
        "Sequence": 27,
        "StationID": "70044"
      },
      {
        "Name": "大興山莊",
        "Lat": 25.12251,
        "Lon": 121.55779,
        "Sequence": 28,
        "StationID": "70043"
      },
      {
        "Name": "光興宮",
        "Lat": 25.12015,
        "Lon": 121.56006,
        "Sequence": 29,
        "StationID": "14412"
      },
      {
        "Name": "擷翠新村",
        "Lat": 25.121595574726,
        "Lon": 121.56344,
        "Sequence": 30,
        "StationID": "55011"
      },
      {
        "Name": "公館里關帝廟",
        "Lat": 25.123637,
        "Lon": 121.565354,
        "Sequence": 31,
        "StationID": "1165603317"
      },
      {
        "Name": "公館里",
        "Lat": 25.12663,
        "Lon": 121.56473,
        "Sequence": 32,
        "StationID": "55012"
      }
    ]
  },
  {
    "Route": "小16",
    "SubRoute": "小16 2300經永公路296、350巷",
    "Direction": 1,
    "Stops": [
      {
        "Name": "公館里",
        "Lat": 25.12654,
        "Lon": 121.56444,
        "Sequence": 1,
        "StationID": "626"
      },
      {
        "Name": "擷翠新村",
        "Lat": 25.121838139677,
        "Lon": 121.56340821594,
        "Sequence": 2,
        "StationID": "1001274"
      },
      {
        "Name": "光興宮",
        "Lat": 25.12022,
        "Lon": 121.55992,
        "Sequence": 3,
        "StationID": "688"
      },
      {
        "Name": "永公路三",
        "Lat": 25.121050958736,
        "Lon": 121.55671856085,
        "Sequence": 4,
        "StationID": "664"
      },
      {
        "Name": "綠園",
        "Lat": 25.11719,
        "Lon": 121.55509,
        "Sequence": 5,
        "StationID": "907"
      },
      {
        "Name": "永公路二",
        "Lat": 25.1158,
        "Lon": 121.55418,
        "Sequence": 6,
        "StationID": "663"
      },
      {
        "Name": "永公路一",
        "Lat": 25.114568872834,
        "Lon": 121.55288889088,
        "Sequence": 7,
        "StationID": "662"
      },
      {
        "Name": "永公橋",
        "Lat": 25.1137,
        "Lon": 121.55065,
        "Sequence": 8,
        "StationID": "665"
      },
      {
        "Name": "陽明教養院",
        "Lat": 25.1104191040479,
        "Lon": 121.54836175021,
        "Sequence": 9,
        "StationID": "861"
      },
      {
        "Name": "永福(林語堂故居)",
        "Lat": 25.1095275064689,
        "Lon": 121.547154139609,
        "Sequence": 10,
        "StationID": "679"
      },
      {
        "Name": "永嶺",
        "Lat": 25.1068495776368,
        "Lon": 121.545213090496,
        "Sequence": 11,
        "StationID": "683"
      },
      {
        "Name": "拔子埔",
        "Lat": 25.104977,
        "Lon": 121.543591,
        "Sequence": 12,
        "StationID": "723"
      },
      {
        "Name": "嶺頭",
        "Lat": 25.1031851590031,
        "Lon": 121.541536360844,
        "Sequence": 13,
        "StationID": "937"
      },
      {
        "Name": "華興中學",
        "Lat": 25.104112892574,
        "Lon": 121.538359218545,
        "Sequence": 14,
        "StationID": "1000615"
      },
      {
        "Name": "芝蘭新村",
        "Lat": 25.1072897892355,
        "Lon": 121.537298719254,
        "Sequence": 15,
        "StationID": "749"
      },
      {
        "Name": "岩山里一",
        "Lat": 25.10331,
        "Lon": 121.53692,
        "Sequence": 16,
        "StationID": "712"
      },
      {
        "Name": "岩山里",
        "Lat": 25.1018780140349,
        "Lon": 121.537579799115,
        "Sequence": 17,
        "StationID": "709"
      },
      {
        "Name": "泰北中學",
        "Lat": 25.0977513146504,
        "Lon": 121.534030294965,
        "Sequence": 18,
        "StationID": "778"
      },
      {
        "Name": "士林官邸(中正)",
        "Lat": 25.0965,
        "Lon": 121.53144,
        "Sequence": 19,
        "StationID": "3953"
      },
      {
        "Name": "福林國小",
        "Lat": 25.0962,
        "Lon": 121.52976,
        "Sequence": 20,
        "StationID": "3954"
      },
      {
        "Name": "捷運士林站(中正)",
        "Lat": 25.095583,
        "Lon": 121.526622,
        "Sequence": 21,
        "StationID": "797"
      },
      {
        "Name": "士林國小",
        "Lat": 25.094058815207,
        "Lon": 121.524789386925,
        "Sequence": 22,
        "StationID": "5040"
      },
      {
        "Name": "士林分局",
        "Lat": 25.09049,
        "Lon": 121.525833,
        "Sequence": 23,
        "StationID": "571"
      },
      {
        "Name": "捷運劍潭站(中山)",
        "Lat": 25.085353,
        "Lon": 121.525327,
        "Sequence": 24,
        "StationID": "803"
      }
    ]
  }
]