[
  {
    "Route": "292副",
    "SubRoute": "292副",
    "Direction": 0,
    "Stops": [
      {
        "Name": "二重站",
        "Lat": 25.07428078,
        "Lon": 121.4730962,
        "Sequence": 1,
        "StationID": "74392"
      },
      {
        "Name": "仙公廟",
        "Lat": 25.071403,
        "Lon": 121.473752,
        "Sequence": 2,
        "StationID": "3421"
      },
      {
        "Name": "博愛新村(三民街)",
        "Lat": 25.069312,
        "Lon": 121.476744,
        "Sequence": 3,
        "StationID": "3453"
      },
      {
        "Name": "三重商工(三民街)",
        "Lat": 25.067757,
        "Lon": 121.479518,
        "Sequence": 4,
        "StationID": "3400"
      },
      {
        "Name": "東海中學",
        "Lat": 25.065398,
        "Lon": 121.482301,
        "Sequence": 5,
        "StationID": "10625"
      },
      {
        "Name": "三民街",
        "Lat": 25.06332591,
        "Lon": 121.485128,
        "Sequence": 6,
        "StationID": "3386"
      },
      {
        "Name": "三重稅捐分處",
        "Lat": 25.060305060826,
        "Lon": 121.48663201223,
        "Sequence": 7,
        "StationID": "3455"
      },
      {
        "Name": "菜寮(重陽路)",
        "Lat": 25.0580096673922,
        "Lon": 121.48651605944,
        "Sequence": 8,
        "StationID": "1000081"
      },
      {
        "Name": "菜寮(重新路)",
        "Lat": 25.057218,
        "Lon": 121.487921,
        "Sequence": 9,
        "StationID": "3456"
      },
      {
        "Name": "捷運菜寮站",
        "Lat": 25.05907329,
        "Lon": 121.4905425,
        "Sequence": 10,
        "StationID": "13204"
      },
      {
        "Name": "中山藝術公園",
        "Lat": 25.06043253,
        "Lon": 121.4925214,
        "Sequence": 11,
        "StationID": "13215"
      },
      {
        "Name": "大同路口",
        "Lat": 25.061403,
        "Lon": 121.49493,
        "Sequence": 12,
        "StationID": "3387"
      },
      {
        "Name": "天台廣場",
        "Lat": 25.062277,
        "Lon": 121.498323,
        "Sequence": 13,
        "StationID": "1000843"
      },
      {
        "Name": "捷運台北橋站",
        "Lat": 25.063054,
        "Lon": 121.50044,
        "Sequence": 14,
        "StationID": "60059"
      },
      {
        "Name": "三重派出所(重新路)",
        "Lat": 25.0636037876107,
        "Lon": 121.501898428168,
        "Sequence": 15,
        "StationID": "20263"
      },
      {
        "Name": "成淵高中",
        "Lat": 25.062226,
        "Lon": 121.518152,
        "Sequence": 16,
        "StationID": "165"
      },
      {
        "Name": "民生西路口",
        "Lat": 25.05672598,
        "Lon": 121.5179896,
        "Sequence": 17,
        "StationID": "1417"
      },
      {
        "Name": "捷運中山站(志仁高中)",
        "Lat": 25.0527107746344,
        "Lon": 121.519674930441,
        "Sequence": 18,
        "StationID": "16021"
      },
      {
        "Name": "南京林森路口",
        "Lat": 25.052069472359,
        "Lon": 121.525060474751,
        "Sequence": 19,
        "StationID": "16022"
      },
      {
        "Name": "南京吉林路口",
        "Lat": 25.0520078098529,
        "Lon": 121.529855025946,
        "Sequence": 20,
        "StationID": "16023"
      },
      {
        "Name": "捷運松江南京站",
        "Lat": 25.0519912439505,
        "Lon": 121.532641149751,
        "Sequence": 21,
        "StationID": "16024"
      },
      {
        "Name": "南京建國路口",
        "Lat": 25.0519389515979,
        "Lon": 121.53627250499,
        "Sequence": 22,
        "StationID": "50005"
      },
      {
        "Name": "南京龍江路口",
        "Lat": 25.05189813653983,
        "Lon": 121.54002052720857,
        "Sequence": 23,
        "StationID": "50002"
      },
      {
        "Name": "捷運南京復興站",
        "Lat": 25.0518040049938,
        "Lon": 121.543561439976,
        "Sequence": 24,
        "StationID": "50004"
      },
      {
        "Name": "八德敦化路口",
        "Lat": 25.04864,
        "Lon": 121.54874,
        "Sequence": 25,
        "StationID": "1488"
      },
      {
        "Name": "市民敦化路口",
        "Lat": 25.04527113,
        "Lon": 121.548797,
        "Sequence": 26,
        "StationID": "13109"
      },
      {
        "Name": "忠孝敦化路口",
        "Lat": 25.04186596,
        "Lon": 121.5487541,
        "Sequence": 27,
        "StationID": "2262"
      },
      {
        "Name": "仁愛敦化路口",
        "Lat": 25.039043,
        "Lon": 121.548697,
        "Sequence": 28,
        "StationID": "13111"
      },
      {
        "Name": "仁愛安和路口",
        "Lat": 25.0377212341364,
        "Lon": 121.550883391345,
        "Sequence": 29,
        "StationID": "1863"
      },
      {
        "Name": "仁愛國小",
        "Lat": 25.03650265,
        "Lon": 121.5520521,
        "Sequence": 30,
        "StationID": "2208"
      },
      {
        "Name": "捷運信義安和站(安和)",
        "Lat": 25.034385,
        "Lon": 121.552398,
        "Sequence": 31,
        "StationID": "2287"
      },
      {
        "Name": "信義通化街口",
        "Lat": 25.0330873803964,
        "Lon": 121.553994124674,
        "Sequence": 32,
        "StationID": "2131"
      },
      {
        "Name": "信義光復路口",
        "Lat": 25.03311,
        "Lon": 121.55687,
        "Sequence": 33,
        "StationID": "2118"
      },
      {
        "Name": "吳興街口",
        "Lat": 25.03159406,
        "Lon": 121.5586001,
        "Sequence": 34,
        "StationID": "1000294"
      },
      {
        "Name": "三興國小(臨江街觀光夜市)",
        "Lat": 25.028215,
        "Lon": 121.556522,
        "Sequence": 35,
        "StationID": "1000295"
      },
      {
        "Name": "喬治商職",
        "Lat": 25.02686,
        "Lon": 121.555194,
        "Sequence": 36,
        "StationID": "1165604825"
      },
      {
        "Name": "捷運六張犁站(和平)",
        "Lat": 25.0232432826612,
        "Lon": 121.553534505165,
        "Sequence": 37,
        "StationID": "2146"
      },
      {
        "Name": "富陽街口",
        "Lat": 25.0210340657202,
        "Lon": 121.555910878022,
        "Sequence": 38,
        "StationID": "2085"
      },
      {
        "Name": "黎忠市場",
        "Lat": 25.01926083,
        "Lon": 121.5578044,
        "Sequence": 39,
        "StationID": "2172"
      },
      {
        "Name": "捷運麟光站",
        "Lat": 25.01825,
        "Lon": 121.55853,
        "Sequence": 40,
        "StationID": "2157"
      }
    ]
  },
  {
    "Route": "292副",
    "SubRoute": "292副",
    "Direction": 1,
    "Stops": [
      {
        "Name": "黎忠市場",
        "Lat": 25.019475,
        "Lon": 121.557953,
        "Sequence": 1,
        "StationID": "6015"
      },
      {
        "Name": "富陽街口",
        "Lat": 25.021127,
        "Lon": 121.55616,
        "Sequence": 2,
        "StationID": "2160"
      },
      {
        "Name": "捷運六張犁站(和平)",
        "Lat": 25.022926,
        "Lon": 121.554225,
        "Sequence": 3,
        "StationID": "2147"
      },
      {
        "Name": "主教公署",
        "Lat": 25.02513,
        "Lon": 121.55232,
        "Sequence": 4,
        "StationID": "4863"
      },
      {
        "Name": "法治公園",
        "Lat": 25.02736765,
        "Lon": 121.553478,
        "Sequence": 5,
        "StationID": "4864"
      },
      {
        "Name": "通化街夜市",
        "Lat": 25.029121,
        "Lon": 121.553942,
        "Sequence": 6,
        "StationID": "4885"
      },
      {
        "Name": "通化街",
        "Lat": 25.0312979344738,
        "Lon": 121.5543193375,
        "Sequence": 7,
        "StationID": "4865"
      },
      {
        "Name": "捷運信義安和站(信義)",
        "Lat": 25.033223,
        "Lon": 121.552849,
        "Sequence": 8,
        "StationID": "1000107"
      },
      {
        "Name": "信義敦化路口",
        "Lat": 25.03337757,
        "Lon": 121.549449,
        "Sequence": 9,
        "StationID": "2329"
      },
      {
        "Name": "仁愛國中(外交學院)",
        "Lat": 25.035951071734246,
        "Lon": 121.5490897913242,
        "Sequence": 10,
        "StationID": "4170"
      },
      {
        "Name": "安和敦化路口",
        "Lat": 25.039336,
        "Lon": 121.549163,
        "Sequence": 11,
        "StationID": "2211"
      },
      {
        "Name": "捷運忠孝敦化站",
        "Lat": 25.0430127,
        "Lon": 121.549174,
        "Sequence": 12,
        "StationID": "2259"
      },
      {
        "Name": "市民大道口",
        "Lat": 25.04575795,
        "Lon": 121.5491941,
        "Sequence": 13,
        "StationID": "13104"
      },
      {
        "Name": "市立體育場",
        "Lat": 25.048949,
        "Lon": 121.549204,
        "Sequence": 14,
        "StationID": "1510"
      },
      {
        "Name": "捷運南京復興站",
        "Lat": 25.05191518176843,
        "Lon": 121.5444563164689,
        "Sequence": 15,
        "StationID": "1547"
      },
      {
        "Name": "南京龍江路口",
        "Lat": 25.051994714534274,
        "Lon": 121.54085264591662,
        "Sequence": 16,
        "StationID": "1556"
      },
      {
        "Name": "南京建國路口",
        "Lat": 25.0520896887846,
        "Lon": 121.537271345417,
        "Sequence": 17,
        "StationID": "1546"
      },
      {
        "Name": "捷運松江南京站",
        "Lat": 25.0521144980622,
        "Lon": 121.533302047123,
        "Sequence": 18,
        "StationID": "16011"
      },
      {
        "Name": "南京吉林路口",
        "Lat": 25.0521129968997,
        "Lon": 121.530332504829,
        "Sequence": 19,
        "StationID": "16012"
      },
      {
        "Name": "南京林森路口",
        "Lat": 25.0521676118001,
        "Lon": 121.525717467074,
        "Sequence": 20,
        "StationID": "16013"
      },
      {
        "Name": "捷運中山站(志仁高中)",
        "Lat": 25.052867,
        "Lon": 121.519866,
        "Sequence": 21,
        "StationID": "16014"
      },
      {
        "Name": "建成公園",
        "Lat": 25.05462,
        "Lon": 121.51825,
        "Sequence": 22,
        "StationID": "10202"
      },
      {
        "Name": "民生西路口",
        "Lat": 25.05801,
        "Lon": 121.51829,
        "Sequence": 23,
        "StationID": "10203"
      },
      {
        "Name": "成淵高中",
        "Lat": 25.0593635889387,
        "Lon": 121.51836569309,
        "Sequence": 24,
        "StationID": "4888"
      },
      {
        "Name": "民權大龍街口",
        "Lat": 25.062976,
        "Lon": 121.516467,
        "Sequence": 25,
        "StationID": "1427"
      },
      {
        "Name": "三重派出所(重新路)",
        "Lat": 25.063667,
        "Lon": 121.501606,
        "Sequence": 26,
        "StationID": "3488"
      },
      {
        "Name": "捷運台北橋站",
        "Lat": 25.06321,
        "Lon": 121.500403,
        "Sequence": 27,
        "StationID": "13200"
      },
      {
        "Name": "天台廣場",
        "Lat": 25.061930885,
        "Lon": 121.496784994,
        "Sequence": 28,
        "StationID": "3452"
      },
      {
        "Name": "大同路口",
        "Lat": 25.0614913406773,
        "Lon": 121.494254721567,
        "Sequence": 29,
        "StationID": "1000149"
      },
      {
        "Name": "中山藝術公園",
        "Lat": 25.060541,
        "Lon": 121.492298,
        "Sequence": 30,
        "StationID": "1000083"
      },
      {
        "Name": "捷運菜寮站",
        "Lat": 25.059479,
        "Lon": 121.490697,
        "Sequence": 31,
        "StationID": "1000651"
      },
      {
        "Name": "菜寮(重新路)",
        "Lat": 25.05744645,
        "Lon": 121.4878276,
        "Sequence": 32,
        "StationID": "13213"
      },
      {
        "Name": "菜寮(重陽路)",
        "Lat": 25.0577184292479,
        "Lon": 121.48679940961,
        "Sequence": 33,
        "StationID": "3462"
      },
      {
        "Name": "三重稅捐分處",
        "Lat": 25.060408987468,
        "Lon": 121.486918256858,
        "Sequence": 34,
        "StationID": "10474"
      },
      {
        "Name": "三民街",
        "Lat": 25.06343,
        "Lon": 121.485248,
        "Sequence": 35,
        "StationID": "10624"
      },
      {
        "Name": "東海中學",
        "Lat": 25.065509,
        "Lon": 121.482592,
        "Sequence": 36,
        "StationID": "3432"
      },
      {
        "Name": "三重商工(三民街)",
        "Lat": 25.068431,
        "Lon": 121.478826,
        "Sequence": 37,
        "StationID": "10623"
      },
      {
        "Name": "博愛新村",
        "Lat": 25.0695224403088,
        "Lon": 121.477687916123,
        "Sequence": 38,
        "StationID": "3454"
      },
      {
        "Name": "仙公廟",
        "Lat": 25.0715506158941,
        "Lon": 121.473796826188,
        "Sequence": 39,
        "StationID": "10617"
      },
      {
        "Name": "二重站",
        "Lat": 25.07428078,
        "Lon": 121.4730962,
        "Sequence": 40,
        "StationID": "74392"
      }
    ]
  }
]