[
  {
    "Route": "棕5",
    "SubRoute": "棕5",
    "Direction": 0,
    "Stops": [
      {
        "Name": "萬芳社區",
        "Lat": 25.001753,
        "Lon": 121.570457,
        "Sequence": 1,
        "StationID": "2491"
      },
      {
        "Name": "萬芳社區(和平)",
        "Lat": 25.0028541470424,
        "Lon": 121.571969627588,
        "Sequence": 2,
        "StationID": "1000680"
      },
      {
        "Name": "和平東路4段",
        "Lat": 25.0046814962866,
        "Lon": 121.570509533684,
        "Sequence": 3,
        "StationID": "1000088"
      },
      {
        "Name": "名門社區",
        "Lat": 25.0046374220822,
        "Lon": 121.567900817651,
        "Sequence": 4,
        "StationID": "1001411"
      },
      {
        "Name": "萬寧山莊",
        "Lat": 25.0041631244417,
        "Lon": 121.570371684081,
        "Sequence": 5,
        "StationID": "2514"
      },
      {
        "Name": "萬寧街",
        "Lat": 25.0032053525918,
        "Lon": 121.570571682464,
        "Sequence": 6,
        "StationID": "1000089"
      },
      {
        "Name": "萬芳國宅",
        "Lat": 25.003405,
        "Lon": 121.565052,
        "Sequence": 7,
        "StationID": "50048"
      },
      {
        "Name": "萬美社區",
        "Lat": 25.003405,
        "Lon": 121.563084,
        "Sequence": 8,
        "StationID": "1165604842"
      },
      {
        "Name": "公務人員訓練處",
        "Lat": 25.0018116822751,
        "Lon": 121.562127594784,
        "Sequence": 9,
        "StationID": "2373"
      },
      {
        "Name": "萬芳派出所",
        "Lat": 25.0017624091424,
        "Lon": 121.566256708836,
        "Sequence": 10,
        "StationID": "2492"
      },
      {
        "Name": "萬芳國小",
        "Lat": 25.00146028,
        "Lon": 121.5672991,
        "Sequence": 11,
        "StationID": "2494"
      },
      {
        "Name": "萬芳6號公園",
        "Lat": 24.999962,
        "Lon": 121.56892,
        "Sequence": 12,
        "StationID": "1165604748"
      },
      {
        "Name": "捷運萬芳社區站",
        "Lat": 24.99858575,
        "Lon": 121.5695557,
        "Sequence": 13,
        "StationID": "2446"
      },
      {
        "Name": "木柵高工(萬芳)",
        "Lat": 24.996667,
        "Lon": 121.570733,
        "Sequence": 14,
        "StationID": "2386"
      },
      {
        "Name": "萬芳路口",
        "Lat": 24.9935653207503,
        "Lon": 121.571444566484,
        "Sequence": 15,
        "StationID": "2497"
      },
      {
        "Name": "萬壽橋頭(木柵)",
        "Lat": 24.9913094198003,
        "Lon": 121.570973024858,
        "Sequence": 16,
        "StationID": "1000521"
      },
      {
        "Name": "文山行政中心",
        "Lat": 24.990114359213134,
        "Lon": 121.56999253194654,
        "Sequence": 17,
        "StationID": "2381"
      },
      {
        "Name": "木柵市場",
        "Lat": 24.98849886,
        "Lon": 121.5685523,
        "Sequence": 18,
        "StationID": "50682"
      },
      {
        "Name": "指南路",
        "Lat": 24.9876073867321,
        "Lon": 121.56976146408,
        "Sequence": 19,
        "StationID": "2425"
      },
      {
        "Name": "政大",
        "Lat": 24.9878362086283,
        "Lon": 121.574633255625,
        "Sequence": 20,
        "StationID": "2415"
      },
      {
        "Name": "政大一",
        "Lat": 24.988319,
        "Lon": 121.576427,
        "Sequence": 21,
        "StationID": "1001400"
      },
      {
        "Name": "指南山莊",
        "Lat": 24.9889796040779,
        "Lon": 121.578601086333,
        "Sequence": 22,
        "StationID": "50674"
      },
      {
        "Name": "國關中心",
        "Lat": 24.98914141,
        "Lon": 121.5804463,
        "Sequence": 23,
        "StationID": "2438"
      },
      {
        "Name": "貓纜動物園南站",
        "Lat": 24.989841,
        "Lon": 121.586251,
        "Sequence": 24,
        "StationID": "4030"
      },
      {
        "Name": "政大清境社區",
        "Lat": 24.98941624,
        "Lon": 121.5874836,
        "Sequence": 25,
        "StationID": "2504"
      },
      {
        "Name": "綠野山莊",
        "Lat": 24.98829565,
        "Lon": 121.58742,
        "Sequence": 26,
        "StationID": "2526"
      },
      {
        "Name": "棲霞山莊",
        "Lat": 24.98715168,
        "Lon": 121.5876992,
        "Sequence": 27,
        "StationID": "2472"
      },
      {
        "Name": "政大御花園",
        "Lat": 24.98565649,
        "Lon": 121.5872664,
        "Sequence": 28,
        "StationID": "2420"
      },
      {
        "Name": "猴山坑",
        "Lat": 24.983,
        "Lon": 121.589,
        "Sequence": 29,
        "StationID": "2476"
      },
      {
        "Name": "指南宮",
        "Lat": 24.9812125534647,
        "Lon": 121.585437474256,
        "Sequence": 30,
        "StationID": "1000851"
      }
    ]
  },
  {
    "Route": "棕5",
    "SubRoute": "棕5",
    "Direction": 1,
    "Stops": [
      {
        "Name": "猴山坑",
        "Lat": 24.98280334,
        "Lon": 121.5894172,
        "Sequence": 1,
        "StationID": "57713"
      },
      {
        "Name": "政大御花園",
        "Lat": 24.98599992,
        "Lon": 121.5873303,
        "Sequence": 2,
        "StationID": "50679"
      },
      {
        "Name": "棲霞山莊",
        "Lat": 24.9871695314337,
        "Lon": 121.587942169381,
        "Sequence": 3,
        "StationID": "50678"
      },
      {
        "Name": "政大附中",
        "Lat": 24.98695836,
        "Lon": 121.5857205,
        "Sequence": 4,
        "StationID": "50680"
      },
      {
        "Name": "政大二街",
        "Lat": 24.98614991,
        "Lon": 121.5846406,
        "Sequence": 5,
        "StationID": "1001387"
      },
      {
        "Name": "普羅旺世",
        "Lat": 24.98776697,
        "Lon": 121.5839587,
        "Sequence": 6,
        "StationID": "2471"
      },
      {
        "Name": "兆如安養中心",
        "Lat": 24.98942183,
        "Lon": 121.5843159,
        "Sequence": 7,
        "StationID": "5071"
      },
      {
        "Name": "普羅旺世",
        "Lat": 24.98776972,
        "Lon": 121.5838276,
        "Sequence": 8,
        "StationID": "5070"
      },
      {
        "Name": "政大三街",
        "Lat": 24.98603367,
        "Lon": 121.5828689,
        "Sequence": 9,
        "StationID": "1001383"
      },
      {
        "Name": "政大和墅社區",
        "Lat": 24.98528376,
        "Lon": 121.5818292,
        "Sequence": 10,
        "StationID": "1001455"
      },
      {
        "Name": "北政國中(政大實小)",
        "Lat": 24.9850502753839,
        "Lon": 121.579955106331,
        "Sequence": 11,
        "StationID": "2395"
      },
      {
        "Name": "三角公園",
        "Lat": 24.983627,
        "Lon": 121.579781,
        "Sequence": 12,
        "StationID": "2365"
      },
      {
        "Name": "政大威秀",
        "Lat": 24.983063000243483,
        "Lon": 121.57999610766447,
        "Sequence": 13,
        "StationID": "1001463"
      },
      {
        "Name": "水鋼琴社區",
        "Lat": 24.981690857565898,
        "Lon": 121.580961552542,
        "Sequence": 14,
        "StationID": "2393"
      },
      {
        "Name": "水鋼琴社區",
        "Lat": 24.981787098393884,
        "Lon": 121.58108083898607,
        "Sequence": 15,
        "StationID": "4652"
      },
      {
        "Name": "三角公園",
        "Lat": 24.98319988723959,
        "Lon": 121.58007427699314,
        "Sequence": 16,
        "StationID": "56089"
      },
      {
        "Name": "北政國中(政大實小)",
        "Lat": 24.9850343300953,
        "Lon": 121.580132112058,
        "Sequence": 17,
        "StationID": "2397"
      },
      {
        "Name": "小坑口(北政國中)",
        "Lat": 24.986063,
        "Lon": 121.579711,
        "Sequence": 18,
        "StationID": "56088"
      },
      {
        "Name": "政大",
        "Lat": 24.9875663532708,
        "Lon": 121.576511404928,
        "Sequence": 19,
        "StationID": "3988"
      },
      {
        "Name": "新光路口",
        "Lat": 24.9880845060964,
        "Lon": 121.573881732316,
        "Sequence": 20,
        "StationID": "1000854"
      },
      {
        "Name": "指南路",
        "Lat": 24.987746922127,
        "Lon": 121.56997997801,
        "Sequence": 21,
        "StationID": "1000855"
      },
      {
        "Name": "木柵市場",
        "Lat": 24.98794462737213,
        "Lon": 121.5686729036256,
        "Sequence": 22,
        "StationID": "2384"
      },
      {
        "Name": "文山行政中心",
        "Lat": 24.98976355883173,
        "Lon": 121.56980715638664,
        "Sequence": 23,
        "StationID": "2380"
      },
      {
        "Name": "萬壽橋頭(木柵)",
        "Lat": 24.9913142071305,
        "Lon": 121.57111522305,
        "Sequence": 24,
        "StationID": "1000541"
      },
      {
        "Name": "萬芳路口",
        "Lat": 24.99360167,
        "Lon": 121.5716055,
        "Sequence": 25,
        "StationID": "2499"
      },
      {
        "Name": "木柵高工(萬芳)",
        "Lat": 24.9965253177262,
        "Lon": 121.570778393912,
        "Sequence": 26,
        "StationID": "1001252"
      },
      {
        "Name": "捷運萬芳社區站",
        "Lat": 24.99884269,
        "Lon": 121.5694381,
        "Sequence": 27,
        "StationID": "1001253"
      },
      {
        "Name": "萬芳6號公園",
        "Lat": 24.99976765,
        "Lon": 121.5691055,
        "Sequence": 28,
        "StationID": "1165604749"
      },
      {
        "Name": "萬芳國小",
        "Lat": 25.001533,
        "Lon": 121.567472,
        "Sequence": 29,
        "StationID": "50053"
      },
      {
        "Name": "萬芳派出所",
        "Lat": 25.001846895493077,
        "Lon": 121.56609661959216,
        "Sequence": 30,
        "StationID": "50052"
      },
      {
        "Name": "公務人員訓練處",
        "Lat": 25.002,
        "Lon": 121.562,
        "Sequence": 31,
        "StationID": "50051"
      },
      {
        "Name": "萬美社區",
        "Lat": 25.003346,
        "Lon": 121.563081,
        "Sequence": 32,
        "StationID": "1165604841"
      },
      {
        "Name": "萬芳國宅",
        "Lat": 25.003393,
        "Lon": 121.565624,
        "Sequence": 33,
        "StationID": "2495"
      },
      {
        "Name": "萬寧街",
        "Lat": 25.0031179,
        "Lon": 121.5705532,
        "Sequence": 34,
        "StationID": "2515"
      },
      {
        "Name": "萬寧山莊",
        "Lat": 25.0042437073135,
        "Lon": 121.570485304818,
        "Sequence": 35,
        "StationID": "50047"
      },
      {
        "Name": "名門社區",
        "Lat": 25.004782,
        "Lon": 121.567933,
        "Sequence": 36,
        "StationID": "36111"
      },
      {
        "Name": "和平東路4段",
        "Lat": 25.00449451854,
        "Lon": 121.570861398628,
        "Sequence": 37,
        "StationID": "2428"
      },
      {
        "Name": "萬芳社區(和平)",
        "Lat": 25.002678,
        "Lon": 121.57187,
        "Sequence": 38,
        "StationID": "1000684"
      },
      {
        "Name": "萬芳社區",
        "Lat": 25.00233381,
        "Lon": 121.570144,
        "Sequence": 39,
        "StationID": "1165610494"
      }
    ]
  },
  {
    "Route": "棕5",
    "SubRoute": "棕5經指南",
    "Direction": 0,
    "Stops": [
      {
        "Name": "萬芳社區",
        "Lat": 25.001753,
        "Lon": 121.570457,
        "Sequence": 1,
        "StationID": "2491"
      },
      {
        "Name": "萬芳社區(和平)",
        "Lat": 25.0028541470424,
        "Lon": 121.571969627588,
        "Sequence": 2,
        "StationID": "1000680"
      },
      {
        "Name": "和平東路4段",
        "Lat": 25.0046814962866,
        "Lon": 121.570509533684,
        "Sequence": 3,
        "StationID": "1000088"
      },
      {
        "Name": "名門社區",
        "Lat": 25.0046374220822,
        "Lon": 121.567900817651,
        "Sequence": 4,
        "StationID": "1001411"
      },
      {
        "Name": "萬寧山莊",
        "Lat": 25.0041631244417,
        "Lon": 121.570371684081,
        "Sequence": 5,
        "StationID": "2514"
      },
      {
        "Name": "萬寧街",
        "Lat": 25.0032053525918,
        "Lon": 121.570571682464,
        "Sequence": 6,
        "StationID": "1000089"
      },
      {
        "Name": "萬芳國宅",
        "Lat": 25.003405,
        "Lon": 121.565052,
        "Sequence": 7,
        "StationID": "50048"
      },
      {
        "Name": "萬美社區",
        "Lat": 25.003405,
        "Lon": 121.563084,
        "Sequence": 8,
        "StationID": "1165604842"
      },
      {
        "Name": "公務人員訓練處",
        "Lat": 25.0018116822751,
        "Lon": 121.562127594784,
        "Sequence": 9,
        "StationID": "2373"
      },
      {
        "Name": "萬芳派出所",
        "Lat": 25.0017624091424,
        "Lon": 121.566256708836,
        "Sequence": 10,
        "StationID": "2492"
      },
      {
        "Name": "萬芳國小",
        "Lat": 25.00146028,
        "Lon": 121.5672991,
        "Sequence": 11,
        "StationID": "2494"
      },
      {
        "Name": "萬芳6號公園",
        "Lat": 24.999962,
        "Lon": 121.56892,
        "Sequence": 12,
        "StationID": "1165604748"
      },
      {
        "Name": "捷運萬芳社區站",
        "Lat": 24.99858575,
        "Lon": 121.5695557,
        "Sequence": 13,
        "StationID": "2446"
      },
      {
        "Name": "木柵高工(萬芳)",
        "Lat": 24.996667,
        "Lon": 121.570733,
        "Sequence": 14,
        "StationID": "2386"
      },
      {
        "Name": "萬芳路口",
        "Lat": 24.9935653207503,
        "Lon": 121.571444566484,
        "Sequence": 15,
        "StationID": "2497"
      },
      {
        "Name": "萬壽橋頭(木柵)",
        "Lat": 24.9913094198003,
        "Lon": 121.570973024858,
        "Sequence": 16,
        "StationID": "1000521"
      },
      {
        "Name": "文山行政中心",
        "Lat": 24.990114359213134,
        "Lon": 121.56999253194654,
        "Sequence": 17,
        "StationID": "2381"
      },
      {
        "Name": "木柵市場",
        "Lat": 24.98849886,
        "Lon": 121.5685523,
        "Sequence": 18,
        "StationID": "50682"
      },
      {
        "Name": "指南路",
        "Lat": 24.9876073867321,
        "Lon": 121.56976146408,
        "Sequence": 19,
        "StationID": "2425"
      },
      {
        "Name": "政大",
        "Lat": 24.9878362086283,
        "Lon": 121.574633255625,
        "Sequence": 20,
        "StationID": "2415"
      },
      {
        "Name": "政大一",
        "Lat": 24.988319,
        "Lon": 121.576427,
        "Sequence": 21,
        "StationID": "1001400"
      },
      {
        "Name": "指南山莊",
        "Lat": 24.9889796040779,
        "Lon": 121.578601086333,
        "Sequence": 22,
        "StationID": "50674"
      },
      {
        "Name": "國關中心",
        "Lat": 24.98914141,
        "Lon": 121.5804463,
        "Sequence": 23,
        "StationID": "2438"
      },
      {
        "Name": "貓纜動物園南站",
        "Lat": 24.989841,
        "Lon": 121.586251,
        "Sequence": 24,
        "StationID": "4030"
      },
      {
        "Name": "政大清境社區",
        "Lat": 24.98941624,
        "Lon": 121.5874836,
        "Sequence": 25,
        "StationID": "2504"
      },
      {
        "Name": "綠野山莊",
        "Lat": 24.98829565,
        "Lon": 121.58742,
        "Sequence": 26,
        "StationID": "2526"
      },
      {
        "Name": "棲霞山莊",
        "Lat": 24.98715168,
        "Lon": 121.5876992,
        "Sequence": 27,
        "StationID": "2472"
      },
      {
        "Name": "政大御花園",
        "Lat": 24.98565649,
        "Lon": 121.5872664,
        "Sequence": 28,
        "StationID": "2420"
      },
      {
        "Name": "猴山坑",
        "Lat": 24.983,
        "Lon": 121.589,
        "Sequence": 29,
        "StationID": "2476"
      },
      {
        "Name": "指南宮",
        "Lat": 24.9812125534647,
        "Lon": 121.585437474256,
        "Sequence": 30,
        "StationID": "1000851"
      }
    ]
  },
  {
    "Route": "棕5",
    "SubRoute": "棕5經指南",
    "Direction": 1,
    "Stops": [
      {
        "Name": "猴山坑",
        "Lat": 24.98280334,
        "Lon": 121.5894172,
        "Sequence": 1,
        "StationID": "57713"
      },
      {
        "Name": "政大御花園",
        "Lat": 24.98599992,
        "Lon": 121.5873303,
        "Sequence": 2,
        "StationID": "50679"
      },
      {
        "Name": "棲霞山莊",
        "Lat": 24.9871695314337,
        "Lon": 121.587942169381,
        "Sequence": 3,
        "StationID": "50678"
      },
      {
        "Name": "政大附中",
        "Lat": 24.98695836,
        "Lon": 121.5857205,
        "Sequence": 4,
        "StationID": "50680"
      },
      {
        "Name": "政大二街",
        "Lat": 24.98614991,
        "Lon": 121.5846406,
        "Sequence": 5,
        "StationID": "1001387"
      },
      {
        "Name": "普羅旺世",
        "Lat": 24.98776697,
        "Lon": 121.5839587,
        "Sequence": 6,
        "StationID": "2471"
      },
      {
        "Name": "兆如安養中心",
        "Lat": 24.98942183,
        "Lon": 121.5843159,
        "Sequence": 7,
        "StationID": "5071"
      },
      {
        "Name": "普羅旺世",
        "Lat": 24.98776972,
        "Lon": 121.5838276,
        "Sequence": 8,
        "StationID": "5070"
      },
      {
        "Name": "政大三街",
        "Lat": 24.98603367,
        "Lon": 121.5828689,
        "Sequence": 9,
        "StationID": "1001383"
      },
      {
        "Name": "政大和墅社區",
        "Lat": 24.98528376,
        "Lon": 121.5818292,
        "Sequence": 10,
        "StationID": "1001455"
      },
      {
        "Name": "北政國中(政大實小)",
        "Lat": 24.9850502753839,
        "Lon": 121.579955106331,
        "Sequence": 11,
        "StationID": "2395"
      },
      {
        "Name": "三角公園",
        "Lat": 24.983627,
        "Lon": 121.579781,
        "Sequence": 12,
        "StationID": "2365"
      },
      {
        "Name": "政大威秀",
        "Lat": 24.983063000243483,
        "Lon": 121.57999610766447,
        "Sequence": 13,
        "StationID": "1001463"
      },
      {
        "Name": "水鋼琴社區",
        "Lat": 24.981690857565898,
        "Lon": 121.580961552542,
        "Sequence": 14,
        "StationID": "2393"
      },
      {
        "Name": "指南實小",
        "Lat": 24.976495,
        "Lon": 121.583526,
        "Sequence": 15,
        "StationID": "2398"
      },
      {
        "Name": "指南實小",
        "Lat": 24.976371,
        "Lon": 121.583659,
        "Sequence": 16,
        "StationID": "1165609605"
      },
      {
        "Name": "水鋼琴社區",
        "Lat": 24.981787098393884,
        "Lon": 121.58108083898607,
        "Sequence": 17,
        "StationID": "4652"
      },
      {
        "Name": "三角公園",
        "Lat": 24.98319988723959,
        "Lon": 121.58007427699314,
        "Sequence": 18,
        "StationID": "56089"
      },
      {
        "Name": "北政國中(政大實小)",
        "Lat": 24.9850343300953,
        "Lon": 121.580132112058,
        "Sequence": 19,
        "StationID": "2397"
      },
      {
        "Name": "小坑口(北政國中)",
        "Lat": 24.986063,
        "Lon": 121.579711,
        "Sequence": 20,
        "StationID": "56088"
      },
      {
        "Name": "政大",
        "Lat": 24.9875663532708,
        "Lon": 121.576511404928,
        "Sequence": 21,
        "StationID": "3988"
      },
      {
        "Name": "新光路口",
        "Lat": 24.9880845060964,
        "Lon": 121.573881732316,
        "Sequence": 22,
        "StationID": "1000854"
      },
      {
        "Name": "指南路",
        "Lat": 24.987746922127,
        "Lon": 121.56997997801,
        "Sequence": 23,
        "StationID": "1000855"
      },
      {
        "Name": "木柵市場",
        "Lat": 24.98794462737213,
        "Lon": 121.5686729036256,
        "Sequence": 24,
        "StationID": "2384"
      },
      {
        "Name": "文山行政中心",
        "Lat": 24.98976355883173,
        "Lon": 121.56980715638664,
        "Sequence": 25,
        "StationID": "2380"
      },
      {
        "Name": "萬壽橋頭(木柵)",
        "Lat": 24.9913142071305,
        "Lon": 121.57111522305,
        "Sequence": 26,
        "StationID": "1000541"
      },
      {
        "Name": "萬芳路口",
        "Lat": 24.99360167,
        "Lon": 121.5716055,
        "Sequence": 27,
        "StationID": "2499"
      },
      {
        "Name": "木柵高工(萬芳)",
        "Lat": 24.9965253177262,
        "Lon": 121.570778393912,
        "Sequence": 28,
        "StationID": "1001252"
      },
      {
        "Name": "捷運萬芳社區站",
        "Lat": 24.99884269,
        "Lon": 121.5694381,
        "Sequence": 29,
        "StationID": "1001253"
      },
      {
        "Name": "萬芳6號公園",
        "Lat": 24.99976765,
        "Lon": 121.5691055,
        "Sequence": 30,
        "StationID": "1165604749"
      },
      {
        "Name": "萬芳國小",
        "Lat": 25.001533,
        "Lon": 121.567472,
        "Sequence": 31,
        "StationID": "50053"
      },
      {
        "Name": "萬芳派出所",
        "Lat": 25.001846895493077,
        "Lon": 121.56609661959216,
        "Sequence": 32,
        "StationID": "50052"
      },
      {
        "Name": "公務人員訓練處",
        "Lat": 25.002,
        "Lon": 121.562,
        "Sequence": 33,
        "StationID": "50051"
      },
      {
        "Name": "萬美社區",
        "Lat": 25.003346,
        "Lon": 121.563081,
        "Sequence": 34,
        "StationID": "1165604841"
      },
      {
        "Name": "萬芳國宅",
        "Lat": 25.003393,
        "Lon": 121.565624,
        "Sequence": 35,
        "StationID": "2495"
      },
      {
        "Name": "萬寧街",
        "Lat": 25.0031179,
        "Lon": 121.5705532,
        "Sequence": 36,
        "StationID": "2515"
      },
      {
        "Name": "萬寧山莊",
        "Lat": 25.0042437073135,
        "Lon": 121.570485304818,
        "Sequence": 37,
        "StationID": "50047"
      },
      {
        "Name": "名門社區",
        "Lat": 25.004782,
        "Lon": 121.567933,
        "Sequence": 38,
        "StationID": "36111"
      },
      {
        "Name": "和平東路4段",
        "Lat": 25.00449451854,
        "Lon": 121.570861398628,
        "Sequence": 39,
        "StationID": "2428"
      },
      {
        "Name": "萬芳社區(和平)",
        "Lat": 25.002678,
        "Lon": 121.57187,
        "Sequence": 40,
        "StationID": "1000684"
      },
      {
        "Name": "萬芳社區",
        "Lat": 25.00233381,
        "Lon": 121.570144,
        "Sequence": 41,
        "StationID": "1165610494"
      }
    ]
  }
]