[
  {
    "Route": "懷恩專車S33",
    "SubRoute": "懷恩專車S33",
    "Direction": 0,
    "Stops": [
      {
        "Name": "捷運南京復興站",
        "Lat": 25.05344,
        "Lon": 121.543919,
        "Sequence": 1,
        "StationID": "1340"
      },
      {
        "Name": "捷運忠孝復興站",
        "Lat": 25.04090344,
        "Lon": 121.5435725,
        "Sequence": 2,
        "StationID": "2317"
      },
      {
        "Name": "大安高工(捷運大安站)",
        "Lat": 25.03251207,
        "Lon": 121.543343,
        "Sequence": 3,
        "StationID": "2183"
      },
      {
        "Name": "捷運科技大樓站",
        "Lat": 25.02679227,
        "Lon": 121.5433292,
        "Sequence": 4,
        "StationID": "1000231"
      },
      {
        "Name": "大安健康服務中心",
        "Lat": 25.0228925562998,
        "Lon": 121.543212145552,
        "Sequence": 5,
        "StationID": "1000449"
      },
      {
        "Name": "青峰活動中心",
        "Lat": 25.015144865886427,
        "Lon": 121.5513423711172,
        "Sequence": 6,
        "StationID": "15109"
      },
      {
        "Name": "臺北市懷愛館",
        "Lat": 25.013699726936505,
        "Lon": 121.55319791903287,
        "Sequence": 7,
        "StationID": "1165604471"
      }
    ]
  },
  {
    "Route": "懷恩專車S33",
    "SubRoute": "懷恩專車S33",
    "Direction": 1,
    "Stops": [
      {
        "Name": "青峰活動中心",
        "Lat": 25.016039021546764,
        "Lon": 121.55075149283692,
        "Sequence": 1,
        "StationID": "2275"
      },
      {
        "Name": "大安健康服務中心",
        "Lat": 25.02208456,
        "Lon": 121.5434997,
        "Sequence": 2,
        "StationID": "1000447"
      },
      {
        "Name": "捷運科技大樓站",
        "Lat": 25.02598619,
        "Lon": 121.5435778,
        "Sequence": 3,
        "StationID": "2320"
      },
      {
        "Name": "大安高工(捷運大安站)",
        "Lat": 25.0319747,
        "Lon": 121.5436779,
        "Sequence": 4,
        "StationID": "6996"
      },
      {
        "Name": "捷運忠孝復興站",
        "Lat": 25.042932,
        "Lon": 121.54391,
        "Sequence": 5,
        "StationID": "6993"
      },
      {
        "Name": "捷運南京復興站",
        "Lat": 25.052679,
        "Lon": 121.544248,
        "Sequence": 6,
        "StationID": "1000238"
      }
    ]
  }
]