[
  {
    "Route": "672區",
    "SubRoute": "672區",
    "Direction": 0,
    "Stops": [
      {
        "Name": "中正環河路口",
        "Lat": 24.9909,
        "Lon": 121.533888,
        "Sequence": 1,
        "StationID": "2865"
      },
      {
        "Name": "捷運秀朗橋站",
        "Lat": 24.990551,
        "Lon": 121.524798,
        "Sequence": 2,
        "StationID": "50850"
      },
      {
        "Name": "尖山腳",
        "Lat": 24.99076,
        "Lon": 121.52296,
        "Sequence": 3,
        "StationID": "3094"
      },
      {
        "Name": "景平路景德街口",
        "Lat": 24.99170762,
        "Lon": 121.5194886,
        "Sequence": 4,
        "StationID": "3172"
      },
      {
        "Name": "捷運景平站",
        "Lat": 24.992238,
        "Lon": 121.517362,
        "Sequence": 5,
        "StationID": "3170"
      },
      {
        "Name": "東森廣場",
        "Lat": 24.99268,
        "Lon": 121.513089,
        "Sequence": 6,
        "StationID": "1165605319"
      },
      {
        "Name": "智光商職",
        "Lat": 24.994842197716,
        "Lon": 121.513517792484,
        "Sequence": 7,
        "StationID": "4077"
      },
      {
        "Name": "中興二村",
        "Lat": 24.9964243335687,
        "Lon": 121.514859678286,
        "Sequence": 8,
        "StationID": "3001"
      },
      {
        "Name": "中興新村",
        "Lat": 24.9983765816712,
        "Lon": 121.516565619533,
        "Sequence": 9,
        "StationID": "9646"
      },
      {
        "Name": "得和路",
        "Lat": 25.000124,
        "Lon": 121.518434,
        "Sequence": 10,
        "StationID": "3027"
      },
      {
        "Name": "秀朗國小",
        "Lat": 24.999844,
        "Lon": 121.52086,
        "Sequence": 11,
        "StationID": "3020"
      },
      {
        "Name": "永元路",
        "Lat": 25.0012830070909,
        "Lon": 121.522385215721,
        "Sequence": 12,
        "StationID": "1000298"
      },
      {
        "Name": "福和橋(永元路)",
        "Lat": 25.002882,
        "Lon": 121.522833,
        "Sequence": 13,
        "StationID": "1000303"
      },
      {
        "Name": "捷運公館站",
        "Lat": 25.013993,
        "Lon": 121.535185,
        "Sequence": 14,
        "StationID": "1990"
      }
    ]
  },
  {
    "Route": "672區",
    "SubRoute": "672區",
    "Direction": 1,
    "Stops": [
      {
        "Name": "基隆長興街口",
        "Lat": 25.01851242321545,
        "Lon": 121.5456371524934,
        "Sequence": 1,
        "StationID": "2244"
      },
      {
        "Name": "臺大癌醫(基隆路)",
        "Lat": 25.01576,
        "Lon": 121.542278,
        "Sequence": 2,
        "StationID": "2226"
      },
      {
        "Name": "臺灣科技大學",
        "Lat": 25.01415156,
        "Lon": 121.540464,
        "Sequence": 3,
        "StationID": "2232"
      },
      {
        "Name": "公館",
        "Lat": 25.0121089588721,
        "Lon": 121.538069443257,
        "Sequence": 4,
        "StationID": "2219"
      },
      {
        "Name": "福和橋(林森路)",
        "Lat": 25.003877,
        "Lon": 121.523431,
        "Sequence": 5,
        "StationID": "1000297"
      },
      {
        "Name": "永元路",
        "Lat": 25.00158,
        "Lon": 121.522296,
        "Sequence": 6,
        "StationID": "1000296"
      },
      {
        "Name": "秀朗國小",
        "Lat": 25.00002,
        "Lon": 121.5208,
        "Sequence": 7,
        "StationID": "1001136"
      },
      {
        "Name": "得和路",
        "Lat": 25.000223,
        "Lon": 121.519428,
        "Sequence": 8,
        "StationID": "1165608395"
      },
      {
        "Name": "中興新村",
        "Lat": 24.99862597,
        "Lon": 121.5165323,
        "Sequence": 9,
        "StationID": "3003"
      },
      {
        "Name": "中興二村",
        "Lat": 24.9970684513473,
        "Lon": 121.515268767725,
        "Sequence": 10,
        "StationID": "9655"
      },
      {
        "Name": "智光商職",
        "Lat": 24.99403299,
        "Lon": 121.5125768,
        "Sequence": 11,
        "StationID": "3037"
      },
      {
        "Name": "南勢角(景平路)",
        "Lat": 24.992332,
        "Lon": 121.512965,
        "Sequence": 12,
        "StationID": "1001137"
      },
      {
        "Name": "捷運景平站",
        "Lat": 24.991961,
        "Lon": 121.516141,
        "Sequence": 13,
        "StationID": "50848"
      },
      {
        "Name": "景平路景德街口",
        "Lat": 24.991327,
        "Lon": 121.519446,
        "Sequence": 14,
        "StationID": "50849"
      },
      {
        "Name": "捷運秀朗橋站",
        "Lat": 24.990204,
        "Lon": 121.524836,
        "Sequence": 15,
        "StationID": "3099"
      },
      {
        "Name": "中正環河路口",
        "Lat": 24.990206,
        "Lon": 121.53405,
        "Sequence": 16,
        "StationID": "2864"
      }
    ]
  }
]