[
  {
    "Route": "49",
    "SubRoute": "49",
    "Direction": 0,
    "Stops": [
      {
        "Name": "建北站",
        "Lat": 25.067193,
        "Lon": 121.534472,
        "Sequence": 1,
        "StationID": "1317"
      },
      {
        "Name": "臺北漁市",
        "Lat": 25.068066,
        "Lon": 121.537162,
        "Sequence": 2,
        "StationID": "4175"
      },
      {
        "Name": "第二果菜市場",
        "Lat": 25.068039,
        "Lon": 121.538733,
        "Sequence": 3,
        "StationID": "1344"
      },
      {
        "Name": "下埤里",
        "Lat": 25.067849,
        "Lon": 121.542007,
        "Sequence": 4,
        "StationID": "3987"
      },
      {
        "Name": "復興北村",
        "Lat": 25.06497867,
        "Lon": 121.5441547,
        "Sequence": 5,
        "StationID": "1348"
      },
      {
        "Name": "五常街口",
        "Lat": 25.06369319,
        "Lon": 121.5440531,
        "Sequence": 6,
        "StationID": "6989"
      },
      {
        "Name": "民權龍江路口",
        "Lat": 25.0623959365736,
        "Lon": 121.541275218891,
        "Sequence": 7,
        "StationID": "1000184"
      },
      {
        "Name": "民權建國路口",
        "Lat": 25.06248317,
        "Lon": 121.53746,
        "Sequence": 8,
        "StationID": "4081"
      },
      {
        "Name": "民權松江路口",
        "Lat": 25.06252486,
        "Lon": 121.5334388,
        "Sequence": 9,
        "StationID": "1240"
      },
      {
        "Name": "捷運行天宮站(松江路)",
        "Lat": 25.060643374791923,
        "Lon": 121.53313278818085,
        "Sequence": 10,
        "StationID": "6707"
      },
      {
        "Name": "長春松江路口",
        "Lat": 25.05500621,
        "Lon": 121.533011,
        "Sequence": 11,
        "StationID": "1294"
      },
      {
        "Name": "捷運松江南京站",
        "Lat": 25.05228153,
        "Lon": 121.5329812,
        "Sequence": 12,
        "StationID": "1000806"
      },
      {
        "Name": "長安國小(長安)",
        "Lat": 25.04855925,
        "Lon": 121.5319452,
        "Sequence": 13,
        "StationID": "4008"
      },
      {
        "Name": "正守公園",
        "Lat": 25.04827485,
        "Lon": 121.5287418,
        "Sequence": 14,
        "StationID": "1000847"
      },
      {
        "Name": "長安林森路口",
        "Lat": 25.04902285,
        "Lon": 121.5255434,
        "Sequence": 15,
        "StationID": "1000848"
      },
      {
        "Name": "華山公園",
        "Lat": 25.0481741643018,
        "Lon": 121.524119571056,
        "Sequence": 16,
        "StationID": "1351"
      },
      {
        "Name": "捷運善導寺站",
        "Lat": 25.04586572,
        "Lon": 121.5235453,
        "Sequence": 17,
        "StationID": "7605"
      },
      {
        "Name": "臺北車站(忠孝)",
        "Lat": 25.0465408,
        "Lon": 121.5167218,
        "Sequence": 18,
        "StationID": "1000082"
      },
      {
        "Name": "中華路北站",
        "Lat": 25.0445846194834,
        "Lon": 121.508765096201,
        "Sequence": 19,
        "StationID": "1001169"
      },
      {
        "Name": "捷運西門站",
        "Lat": 25.041649236993,
        "Lon": 121.507887356667,
        "Sequence": 20,
        "StationID": "4608"
      },
      {
        "Name": "長沙街",
        "Lat": 25.04073,
        "Lon": 121.50548,
        "Sequence": 21,
        "StationID": "4176"
      },
      {
        "Name": "康定路口",
        "Lat": 25.04057897,
        "Lon": 121.5024023,
        "Sequence": 22,
        "StationID": "1792"
      },
      {
        "Name": "祖師廟(康定)",
        "Lat": 25.0395701,
        "Lon": 121.5018943,
        "Sequence": 23,
        "StationID": "4617"
      },
      {
        "Name": "龍山寺(康定)",
        "Lat": 25.03630505,
        "Lon": 121.5012851,
        "Sequence": 24,
        "StationID": "1000242"
      },
      {
        "Name": "萬華車站",
        "Lat": 25.03486363,
        "Lon": 121.5010585,
        "Sequence": 25,
        "StationID": "4619"
      },
      {
        "Name": "莒光路口",
        "Lat": 25.03176,
        "Lon": 121.50051,
        "Sequence": 26,
        "StationID": "1796"
      },
      {
        "Name": "萬大路",
        "Lat": 25.030744,
        "Lon": 121.500473,
        "Sequence": 27,
        "StationID": "1811"
      },
      {
        "Name": "西藏路口",
        "Lat": 25.0289649585261,
        "Lon": 121.50037694828528,
        "Sequence": 28,
        "StationID": "1759"
      },
      {
        "Name": "德昌街口",
        "Lat": 25.025052181005517,
        "Lon": 121.50026027816166,
        "Sequence": 29,
        "StationID": "1829"
      },
      {
        "Name": "萬大國小",
        "Lat": 25.024019027640023,
        "Lon": 121.49999538902145,
        "Sequence": 30,
        "StationID": "1810"
      },
      {
        "Name": "果菜市場",
        "Lat": 25.01942,
        "Lon": 121.497234,
        "Sequence": 31,
        "StationID": "1165604854"
      },
      {
        "Name": "華中河濱公園",
        "Lat": 25.01714,
        "Lon": 121.49565,
        "Sequence": 32,
        "StationID": "1799"
      }
    ]
  },
  {
    "Route": "49",
    "SubRoute": "49",
    "Direction": 1,
    "Stops": [
      {
        "Name": "華中河濱公園",
        "Lat": 25.0171711735736,
        "Lon": 121.496094355207,
        "Sequence": 1,
        "StationID": "1800"
      },
      {
        "Name": "果菜市場",
        "Lat": 25.01987,
        "Lon": 121.497706,
        "Sequence": 2,
        "StationID": "4622"
      },
      {
        "Name": "萬大國小",
        "Lat": 25.0232906952259,
        "Lon": 121.499894100772,
        "Sequence": 3,
        "StationID": "4640"
      },
      {
        "Name": "德昌街口",
        "Lat": 25.025045,
        "Lon": 121.500485,
        "Sequence": 4,
        "StationID": "1830"
      },
      {
        "Name": "西藏路口",
        "Lat": 25.028737,
        "Lon": 121.500599,
        "Sequence": 5,
        "StationID": "4639"
      },
      {
        "Name": "萬大路",
        "Lat": 25.0308055,
        "Lon": 121.500635,
        "Sequence": 6,
        "StationID": "4638"
      },
      {
        "Name": "莒光路口",
        "Lat": 25.031831103587,
        "Lon": 121.500615375179,
        "Sequence": 7,
        "StationID": "1795"
      },
      {
        "Name": "萬華車站",
        "Lat": 25.033974,
        "Lon": 121.501128,
        "Sequence": 8,
        "StationID": "1814"
      },
      {
        "Name": "捷運龍山寺站",
        "Lat": 25.035369,
        "Lon": 121.500584,
        "Sequence": 9,
        "StationID": "3911"
      },
      {
        "Name": "龍山寺(西園)",
        "Lat": 25.03777047,
        "Lon": 121.4996729,
        "Sequence": 10,
        "StationID": "4625"
      },
      {
        "Name": "桂林路",
        "Lat": 25.0383544871594,
        "Lon": 121.501102766364,
        "Sequence": 11,
        "StationID": "1783"
      },
      {
        "Name": "昆明活動中心",
        "Lat": 25.03871131,
        "Lon": 121.5040228,
        "Sequence": 12,
        "StationID": "1808"
      },
      {
        "Name": "長沙街",
        "Lat": 25.04060961,
        "Lon": 121.5056466,
        "Sequence": 13,
        "StationID": "1774"
      },
      {
        "Name": "捷運西門站",
        "Lat": 25.0409460489424,
        "Lon": 121.508219187662,
        "Sequence": 14,
        "StationID": "50040"
      },
      {
        "Name": "寶慶路",
        "Lat": 25.0414915346214,
        "Lon": 121.509834083745,
        "Sequence": 15,
        "StationID": "2027"
      },
      {
        "Name": "博愛路",
        "Lat": 25.043262,
        "Lon": 121.511555,
        "Sequence": 16,
        "StationID": "2002"
      },
      {
        "Name": "臺北郵局",
        "Lat": 25.04676505924,
        "Lon": 121.51129364418,
        "Sequence": 17,
        "StationID": "1000108"
      },
      {
        "Name": "臺北車站(忠孝)",
        "Lat": 25.0465635496954,
        "Lon": 121.515689438859,
        "Sequence": 18,
        "StationID": "1882"
      },
      {
        "Name": "行政院",
        "Lat": 25.04483077,
        "Lon": 121.5215079,
        "Sequence": 19,
        "StationID": "1000498"
      },
      {
        "Name": "青島林森路口",
        "Lat": 25.0437303889139,
        "Lon": 121.522278540137,
        "Sequence": 20,
        "StationID": "1937"
      },
      {
        "Name": "北平林森路口",
        "Lat": 25.046759,
        "Lon": 121.523978,
        "Sequence": 21,
        "StationID": "7604"
      },
      {
        "Name": "華山公園",
        "Lat": 25.04809523,
        "Lon": 121.524405,
        "Sequence": 22,
        "StationID": "7614"
      },
      {
        "Name": "長安林森路口",
        "Lat": 25.04871037,
        "Lon": 121.5259734,
        "Sequence": 23,
        "StationID": "1282"
      },
      {
        "Name": "正守公園",
        "Lat": 25.04814093,
        "Lon": 121.5287092,
        "Sequence": 24,
        "StationID": "1231"
      },
      {
        "Name": "長安國小(長安)",
        "Lat": 25.04843271,
        "Lon": 121.5308318,
        "Sequence": 25,
        "StationID": "1289"
      },
      {
        "Name": "捷運松江南京站",
        "Lat": 25.0517997,
        "Lon": 121.533087,
        "Sequence": 26,
        "StationID": "6702"
      },
      {
        "Name": "長春松江路口",
        "Lat": 25.05453652,
        "Lon": 121.5331386,
        "Sequence": 27,
        "StationID": "1270"
      },
      {
        "Name": "捷運行天宮站(松江路)",
        "Lat": 25.057613818954,
        "Lon": 121.533176617617,
        "Sequence": 28,
        "StationID": "6704"
      },
      {
        "Name": "松江新村",
        "Lat": 25.0612684,
        "Lon": 121.5333498,
        "Sequence": 29,
        "StationID": "1271"
      },
      {
        "Name": "民權建國路口",
        "Lat": 25.06236889,
        "Lon": 121.5364984,
        "Sequence": 30,
        "StationID": "1242"
      },
      {
        "Name": "民權龍江路口",
        "Lat": 25.0623255291835,
        "Lon": 121.540554014847,
        "Sequence": 31,
        "StationID": "1000186"
      },
      {
        "Name": "民權復興路口",
        "Lat": 25.06227185,
        "Lon": 121.5438692,
        "Sequence": 32,
        "StationID": "1000326"
      },
      {
        "Name": "五常街口",
        "Lat": 25.06414996,
        "Lon": 121.5444202,
        "Sequence": 33,
        "StationID": "1198"
      },
      {
        "Name": "下埤里",
        "Lat": 25.06719,
        "Lon": 121.543488,
        "Sequence": 34,
        "StationID": "4037"
      },
      {
        "Name": "第二果菜市場",
        "Lat": 25.068245,
        "Lon": 121.538856,
        "Sequence": 35,
        "StationID": "4174"
      },
      {
        "Name": "臺北漁市",
        "Lat": 25.068267,
        "Lon": 121.537216,
        "Sequence": 36,
        "StationID": "1209"
      },
      {
        "Name": "建北站",
        "Lat": 25.067193,
        "Lon": 121.534472,
        "Sequence": 37,
        "StationID": "1317"
      }
    ]
  }
]