[
  {
    "Route": "市民小巴1",
    "SubRoute": "市民小巴1",
    "Direction": 0,
    "Stops": [
      {
        "Name": "捷運劍潭站(北藝中心)",
        "Lat": 25.084952,
        "Lon": 121.525031,
        "Sequence": 1,
        "StationID": "1000256"
      },
      {
        "Name": "陽明戲院",
        "Lat": 25.0874398,
        "Lon": 121.5260219,
        "Sequence": 2,
        "StationID": "7261"
      },
      {
        "Name": "士林分局",
        "Lat": 25.09049,
        "Lon": 121.525833,
        "Sequence": 3,
        "StationID": "571"
      },
      {
        "Name": "士林區農會",
        "Lat": 25.0928638299869,
        "Lon": 121.525671636781,
        "Sequence": 4,
        "StationID": "583"
      },
      {
        "Name": "捷運士林站(中正)",
        "Lat": 25.09550407,
        "Lon": 121.5270438,
        "Sequence": 5,
        "StationID": "795"
      },
      {
        "Name": "福林國小",
        "Lat": 25.09583325,
        "Lon": 121.5290055,
        "Sequence": 6,
        "StationID": "896"
      },
      {
        "Name": "士林官邸(中正)",
        "Lat": 25.096324,
        "Lon": 121.531395,
        "Sequence": 7,
        "StationID": "1000618"
      },
      {
        "Name": "泰北中學",
        "Lat": 25.0972847950979,
        "Lon": 121.533481875716,
        "Sequence": 8,
        "StationID": "777"
      },
      {
        "Name": "雙溪公園",
        "Lat": 25.097779,
        "Lon": 121.53792,
        "Sequence": 9,
        "StationID": "950"
      },
      {
        "Name": "梅林新村",
        "Lat": 25.0972328685249,
        "Lon": 121.540175948519,
        "Sequence": 10,
        "StationID": "805"
      },
      {
        "Name": "東吳大學(錢穆故居)",
        "Lat": 25.097131,
        "Lon": 121.541888,
        "Sequence": 11,
        "StationID": "729"
      },
      {
        "Name": "外雙溪(至善)",
        "Lat": 25.098296747051577,
        "Lon": 121.547109328126,
        "Sequence": 12,
        "StationID": "659"
      },
      {
        "Name": "故宮博物院",
        "Lat": 25.10020446,
        "Lon": 121.5505164,
        "Sequence": 13,
        "StationID": "764"
      },
      {
        "Name": "衛理女中(原住民文化主題公園)",
        "Lat": 25.10164,
        "Lon": 121.5526,
        "Sequence": 14,
        "StationID": "929"
      },
      {
        "Name": "至善國中",
        "Lat": 25.10374,
        "Lon": 121.55546,
        "Sequence": 15,
        "StationID": "695"
      },
      {
        "Name": "雙溪別墅",
        "Lat": 25.105217442275,
        "Lon": 121.557351832521,
        "Sequence": 16,
        "StationID": "953"
      },
      {
        "Name": "劍南橋",
        "Lat": 25.10731,
        "Lon": 121.55751,
        "Sequence": 17,
        "StationID": "917"
      },
      {
        "Name": "大經橋",
        "Lat": 25.10914,
        "Lon": 121.55728,
        "Sequence": 18,
        "StationID": "602"
      },
      {
        "Name": "外雙溪橋",
        "Lat": 25.11159072,
        "Lon": 121.5582374,
        "Sequence": 19,
        "StationID": "661"
      },
      {
        "Name": "內雙溪橋",
        "Lat": 25.11212,
        "Lon": 121.56151,
        "Sequence": 20,
        "StationID": "627"
      },
      {
        "Name": "嶺腳",
        "Lat": 25.11243,
        "Lon": 121.56332,
        "Sequence": 21,
        "StationID": "708"
      },
      {
        "Name": "沙崙一",
        "Lat": 25.11293,
        "Lon": 121.56491,
        "Sequence": 22,
        "StationID": "735"
      },
      {
        "Name": "沙崙",
        "Lat": 25.11344,
        "Lon": 121.56677,
        "Sequence": 23,
        "StationID": "707"
      },
      {
        "Name": "雙溪淨水場",
        "Lat": 25.11447,
        "Lon": 121.56965,
        "Sequence": 24,
        "StationID": "959"
      },
      {
        "Name": "至善路三段",
        "Lat": 25.11494,
        "Lon": 121.57171,
        "Sequence": 25,
        "StationID": "696"
      },
      {
        "Name": "碧溪橋",
        "Lat": 25.11616,
        "Lon": 121.57392,
        "Sequence": 26,
        "StationID": "901"
      },
      {
        "Name": "橋仔頭",
        "Lat": 25.113526,
        "Lon": 121.576489,
        "Sequence": 27,
        "StationID": "1165606395"
      },
      {
        "Name": "內雙溪自然中心",
        "Lat": 25.11709014,
        "Lon": 121.577745,
        "Sequence": 28,
        "StationID": "1001325"
      },
      {
        "Name": "楓林橋",
        "Lat": 25.11686,
        "Lon": 121.58389,
        "Sequence": 29,
        "StationID": "9457"
      },
      {
        "Name": "帕米爾公園",
        "Lat": 25.12203493,
        "Lon": 121.5927116,
        "Sequence": 30,
        "StationID": "714"
      },
      {
        "Name": "風櫃嘴",
        "Lat": 25.132229,
        "Lon": 121.597276,
        "Sequence": 31,
        "StationID": "774"
      },
      {
        "Name": "全成土雞城",
        "Lat": 25.135572,
        "Lon": 121.595425,
        "Sequence": 32,
        "StationID": "751"
      },
      {
        "Name": "頂山",
        "Lat": 25.13783,
        "Lon": 121.58759,
        "Sequence": 33,
        "StationID": "821"
      }
    ]
  },
  {
    "Route": "市民小巴1",
    "SubRoute": "市民小巴1",
    "Direction": 1,
    "Stops": [
      {
        "Name": "頂山",
        "Lat": 25.13783,
        "Lon": 121.58759,
        "Sequence": 1,
        "StationID": "821"
      },
      {
        "Name": "全成土雞城",
        "Lat": 25.135463,
        "Lon": 121.595404,
        "Sequence": 2,
        "StationID": "750"
      },
      {
        "Name": "風櫃嘴",
        "Lat": 25.13225,
        "Lon": 121.597173,
        "Sequence": 3,
        "StationID": "9456"
      },
      {
        "Name": "帕米爾公園",
        "Lat": 25.12202522,
        "Lon": 121.592497,
        "Sequence": 4,
        "StationID": "9455"
      },
      {
        "Name": "楓林橋",
        "Lat": 25.116960335645466,
        "Lon": 121.58390680657625,
        "Sequence": 5,
        "StationID": "9458"
      },
      {
        "Name": "內雙溪自然中心",
        "Lat": 25.117197,
        "Lon": 121.577745,
        "Sequence": 6,
        "StationID": "1001326"
      },
      {
        "Name": "碧溪橋",
        "Lat": 25.11624,
        "Lon": 121.57382,
        "Sequence": 7,
        "StationID": "9428"
      },
      {
        "Name": "至善路三段",
        "Lat": 25.1151,
        "Lon": 121.57187,
        "Sequence": 8,
        "StationID": "9429"
      },
      {
        "Name": "雙溪淨水場",
        "Lat": 25.11467,
        "Lon": 121.56987,
        "Sequence": 9,
        "StationID": "744"
      },
      {
        "Name": "沙崙",
        "Lat": 25.11358,
        "Lon": 121.56688,
        "Sequence": 10,
        "StationID": "9486"
      },
      {
        "Name": "沙崙一",
        "Lat": 25.11304,
        "Lon": 121.56501,
        "Sequence": 11,
        "StationID": "9487"
      },
      {
        "Name": "嶺腳",
        "Lat": 25.11258143,
        "Lon": 121.5634805,
        "Sequence": 12,
        "StationID": "9488"
      },
      {
        "Name": "內雙溪橋",
        "Lat": 25.11224057,
        "Lon": 121.5622125,
        "Sequence": 13,
        "StationID": "9489"
      },
      {
        "Name": "外雙溪橋",
        "Lat": 25.11146528,
        "Lon": 121.5579606,
        "Sequence": 14,
        "StationID": "9490"
      },
      {
        "Name": "大經橋",
        "Lat": 25.10932,
        "Lon": 121.55708,
        "Sequence": 15,
        "StationID": "9491"
      },
      {
        "Name": "劍南橋",
        "Lat": 25.10712,
        "Lon": 121.55737,
        "Sequence": 16,
        "StationID": "9492"
      },
      {
        "Name": "雙溪別墅",
        "Lat": 25.10554,
        "Lon": 121.5572,
        "Sequence": 17,
        "StationID": "9493"
      },
      {
        "Name": "至善國中",
        "Lat": 25.10406772,
        "Lon": 121.5557205,
        "Sequence": 18,
        "StationID": "9478"
      },
      {
        "Name": "衛理女中(原住民文化主題公園)",
        "Lat": 25.10144488,
        "Lon": 121.5520364,
        "Sequence": 19,
        "StationID": "9481"
      },
      {
        "Name": "故宮博物院",
        "Lat": 25.099862,
        "Lon": 121.549281,
        "Sequence": 20,
        "StationID": "70042"
      },
      {
        "Name": "故宮路口",
        "Lat": 25.098068128396,
        "Lon": 121.5459327705,
        "Sequence": 21,
        "StationID": "9449"
      },
      {
        "Name": "中影文化城",
        "Lat": 25.0972634661547,
        "Lon": 121.543765927365,
        "Sequence": 22,
        "StationID": "9448"
      },
      {
        "Name": "東吳大學(錢穆故居)",
        "Lat": 25.097411,
        "Lon": 121.541307,
        "Sequence": 23,
        "StationID": "728"
      },
      {
        "Name": "梅林新村",
        "Lat": 25.097585,
        "Lon": 121.539849,
        "Sequence": 24,
        "StationID": "807"
      },
      {
        "Name": "雙溪公園",
        "Lat": 25.098005332485762,
        "Lon": 121.53824562909286,
        "Sequence": 25,
        "StationID": "9446"
      },
      {
        "Name": "泰北中學",
        "Lat": 25.0977513146504,
        "Lon": 121.534030294965,
        "Sequence": 26,
        "StationID": "778"
      },
      {
        "Name": "士林官邸(中正)",
        "Lat": 25.0965,
        "Lon": 121.53144,
        "Sequence": 27,
        "StationID": "3953"
      },
      {
        "Name": "福林國小",
        "Lat": 25.0962,
        "Lon": 121.52976,
        "Sequence": 28,
        "StationID": "3954"
      },
      {
        "Name": "捷運士林站(中正)",
        "Lat": 25.095583,
        "Lon": 121.526622,
        "Sequence": 29,
        "StationID": "797"
      },
      {
        "Name": "士林國小",
        "Lat": 25.094058815207,
        "Lon": 121.524789386925,
        "Sequence": 30,
        "StationID": "5040"
      },
      {
        "Name": "士林分局",
        "Lat": 25.09049,
        "Lon": 121.525833,
        "Sequence": 31,
        "StationID": "571"
      },
      {
        "Name": "捷運劍潭站(中山)",
        "Lat": 25.085353,
        "Lon": 121.525327,
        "Sequence": 32,
        "StationID": "803"
      }
    ]
  },
  {
    "Route": "市民小巴1",
    "SubRoute": "小巴1返繞溪山",
    "Direction": 0,
    "Stops": [
      {
        "Name": "捷運劍潭站(北藝中心)",
        "Lat": 25.084952,
        "Lon": 121.525031,
        "Sequence": 1,
        "StationID": "1000256"
      },
      {
        "Name": "陽明戲院",
        "Lat": 25.0874398,
        "Lon": 121.5260219,
        "Sequence": 2,
        "StationID": "7261"
      },
      {
        "Name": "士林分局",
        "Lat": 25.09049,
        "Lon": 121.525833,
        "Sequence": 3,
        "StationID": "571"
      },
      {
        "Name": "士林區農會",
        "Lat": 25.0928638299869,
        "Lon": 121.525671636781,
        "Sequence": 4,
        "StationID": "583"
      },
      {
        "Name": "捷運士林站(中正)",
        "Lat": 25.09550407,
        "Lon": 121.5270438,
        "Sequence": 5,
        "StationID": "795"
      },
      {
        "Name": "福林國小",
        "Lat": 25.09583325,
        "Lon": 121.5290055,
        "Sequence": 6,
        "StationID": "896"
      },
      {
        "Name": "士林官邸(中正)",
        "Lat": 25.096324,
        "Lon": 121.531395,
        "Sequence": 7,
        "StationID": "1000618"
      },
      {
        "Name": "泰北中學",
        "Lat": 25.0972847950979,
        "Lon": 121.533481875716,
        "Sequence": 8,
        "StationID": "777"
      },
      {
        "Name": "雙溪公園",
        "Lat": 25.097779,
        "Lon": 121.53792,
        "Sequence": 9,
        "StationID": "950"
      },
      {
        "Name": "梅林新村",
        "Lat": 25.0972328685249,
        "Lon": 121.540175948519,
        "Sequence": 10,
        "StationID": "805"
      },
      {
        "Name": "東吳大學(錢穆故居)",
        "Lat": 25.097131,
        "Lon": 121.541888,
        "Sequence": 11,
        "StationID": "729"
      },
      {
        "Name": "外雙溪(至善)",
        "Lat": 25.098296747051577,
        "Lon": 121.547109328126,
        "Sequence": 12,
        "StationID": "659"
      },
      {
        "Name": "故宮博物院",
        "Lat": 25.10020446,
        "Lon": 121.5505164,
        "Sequence": 13,
        "StationID": "764"
      },
      {
        "Name": "衛理女中(原住民文化主題公園)",
        "Lat": 25.10164,
        "Lon": 121.5526,
        "Sequence": 14,
        "StationID": "929"
      },
      {
        "Name": "至善國中",
        "Lat": 25.10374,
        "Lon": 121.55546,
        "Sequence": 15,
        "StationID": "695"
      },
      {
        "Name": "雙溪別墅",
        "Lat": 25.105217442275,
        "Lon": 121.557351832521,
        "Sequence": 16,
        "StationID": "953"
      },
      {
        "Name": "劍南橋",
        "Lat": 25.10731,
        "Lon": 121.55751,
        "Sequence": 17,
        "StationID": "917"
      },
      {
        "Name": "大經橋",
        "Lat": 25.10914,
        "Lon": 121.55728,
        "Sequence": 18,
        "StationID": "602"
      },
      {
        "Name": "外雙溪橋",
        "Lat": 25.11159072,
        "Lon": 121.5582374,
        "Sequence": 19,
        "StationID": "661"
      },
      {
        "Name": "內雙溪橋",
        "Lat": 25.11212,
        "Lon": 121.56151,
        "Sequence": 20,
        "StationID": "627"
      },
      {
        "Name": "嶺腳",
        "Lat": 25.11243,
        "Lon": 121.56332,
        "Sequence": 21,
        "StationID": "708"
      },
      {
        "Name": "沙崙一",
        "Lat": 25.11293,
        "Lon": 121.56491,
        "Sequence": 22,
        "StationID": "735"
      },
      {
        "Name": "沙崙",
        "Lat": 25.11344,
        "Lon": 121.56677,
        "Sequence": 23,
        "StationID": "707"
      },
      {
        "Name": "雙溪淨水場",
        "Lat": 25.11447,
        "Lon": 121.56965,
        "Sequence": 24,
        "StationID": "959"
      },
      {
        "Name": "至善路三段",
        "Lat": 25.11494,
        "Lon": 121.57171,
        "Sequence": 25,
        "StationID": "696"
      },
      {
        "Name": "碧溪橋",
        "Lat": 25.11616,
        "Lon": 121.57392,
        "Sequence": 26,
        "StationID": "901"
      },
      {
        "Name": "橋仔頭",
        "Lat": 25.113526,
        "Lon": 121.576489,
        "Sequence": 27,
        "StationID": "1165606395"
      },
      {
        "Name": "內雙溪自然中心",
        "Lat": 25.11709014,
        "Lon": 121.577745,
        "Sequence": 28,
        "StationID": "1001325"
      },
      {
        "Name": "楓林橋",
        "Lat": 25.11686,
        "Lon": 121.58389,
        "Sequence": 29,
        "StationID": "9457"
      },
      {
        "Name": "帕米爾公園",
        "Lat": 25.12203493,
        "Lon": 121.5927116,
        "Sequence": 30,
        "StationID": "714"
      },
      {
        "Name": "風櫃嘴",
        "Lat": 25.132229,
        "Lon": 121.597276,
        "Sequence": 31,
        "StationID": "774"
      },
      {
        "Name": "全成土雞城",
        "Lat": 25.135572,
        "Lon": 121.595425,
        "Sequence": 32,
        "StationID": "751"
      },
      {
        "Name": "頂山",
        "Lat": 25.13783,
        "Lon": 121.58759,
        "Sequence": 33,
        "StationID": "821"
      }
    ]
  },
  {
    "Route": "市民小巴1",
    "SubRoute": "小巴1返繞溪山",
    "Direction": 1,
    "Stops": [
      {
        "Name": "頂山",
        "Lat": 25.13783,
        "Lon": 121.58759,
        "Sequence": 1,
        "StationID": "821"
      },
      {
        "Name": "全成土雞城",
        "Lat": 25.135463,
        "Lon": 121.595404,
        "Sequence": 2,
        "StationID": "750"
      },
      {
        "Name": "風櫃嘴",
        "Lat": 25.13225,
        "Lon": 121.597173,
        "Sequence": 3,
        "StationID": "9456"
      },
      {
        "Name": "帕米爾公園",
        "Lat": 25.12202522,
        "Lon": 121.592497,
        "Sequence": 4,
        "StationID": "9455"
      },
      {
        "Name": "楓林橋",
        "Lat": 25.116960335645466,
        "Lon": 121.58390680657625,
        "Sequence": 5,
        "StationID": "9458"
      },
      {
        "Name": "內雙溪自然中心",
        "Lat": 25.117197,
        "Lon": 121.577745,
        "Sequence": 6,
        "StationID": "1001326"
      },
      {
        "Name": "溪山國小",
        "Lat": 25.11982,
        "Lon": 121.58039,
        "Sequence": 7,
        "StationID": "9425"
      },
      {
        "Name": "碧溪橋",
        "Lat": 25.11624,
        "Lon": 121.57382,
        "Sequence": 8,
        "StationID": "9428"
      },
      {
        "Name": "至善路三段",
        "Lat": 25.1151,
        "Lon": 121.57187,
        "Sequence": 9,
        "StationID": "9429"
      },
      {
        "Name": "雙溪淨水場",
        "Lat": 25.11467,
        "Lon": 121.56987,
        "Sequence": 10,
        "StationID": "744"
      },
      {
        "Name": "沙崙",
        "Lat": 25.11358,
        "Lon": 121.56688,
        "Sequence": 11,
        "StationID": "9486"
      },
      {
        "Name": "沙崙一",
        "Lat": 25.11304,
        "Lon": 121.56501,
        "Sequence": 12,
        "StationID": "9487"
      },
      {
        "Name": "嶺腳",
        "Lat": 25.11258143,
        "Lon": 121.5634805,
        "Sequence": 13,
        "StationID": "9488"
      },
      {
        "Name": "內雙溪橋",
        "Lat": 25.11224057,
        "Lon": 121.5622125,
        "Sequence": 14,
        "StationID": "9489"
      },
      {
        "Name": "外雙溪橋",
        "Lat": 25.11146528,
        "Lon": 121.5579606,
        "Sequence": 15,
        "StationID": "9490"
      },
      {
        "Name": "大經橋",
        "Lat": 25.10932,
        "Lon": 121.55708,
        "Sequence": 16,
        "StationID": "9491"
      },
      {
        "Name": "劍南橋",
        "Lat": 25.10712,
        "Lon": 121.55737,
        "Sequence": 17,
        "StationID": "9492"
      },
      {
        "Name": "雙溪別墅",
        "Lat": 25.10554,
        "Lon": 121.5572,
        "Sequence": 18,
        "StationID": "9493"
      },
      {
        "Name": "至善國中",
        "Lat": 25.10406772,
        "Lon": 121.5557205,
        "Sequence": 19,
        "StationID": "9478"
      },
      {
        "Name": "衛理女中(原住民文化主題公園)",
        "Lat": 25.10144488,
        "Lon": 121.5520364,
        "Sequence": 20,
        "StationID": "9481"
      },
      {
        "Name": "故宮博物院",
        "Lat": 25.099862,
        "Lon": 121.549281,
        "Sequence": 21,
        "StationID": "70042"
      },
      {
        "Name": "故宮路口",
        "Lat": 25.098068128396,
        "Lon": 121.5459327705,
        "Sequence": 22,
        "StationID": "9449"
      },
      {
        "Name": "中影文化城",
        "Lat": 25.0972634661547,
        "Lon": 121.543765927365,
        "Sequence": 23,
        "StationID": "9448"
      },
      {
        "Name": "東吳大學(錢穆故居)",
        "Lat": 25.097411,
        "Lon": 121.541307,
        "Sequence": 24,
        "StationID": "728"
      },
      {
        "Name": "梅林新村",
        "Lat": 25.097585,
        "Lon": 121.539849,
        "Sequence": 25,
        "StationID": "807"
      },
      {
        "Name": "雙溪公園",
        "Lat": 25.098005332485762,
        "Lon": 121.53824562909286,
        "Sequence": 26,
        "StationID": "9446"
      },
      {
        "Name": "泰北中學",
        "Lat": 25.0977513146504,
        "Lon": 121.534030294965,
        "Sequence": 27,
        "StationID": "778"
      },
      {
        "Name": "士林官邸(中正)",
        "Lat": 25.0965,
        "Lon": 121.53144,
        "Sequence": 28,
        "StationID": "3953"
      },
      {
        "Name": "福林國小",
        "Lat": 25.0962,
        "Lon": 121.52976,
        "Sequence": 29,
        "StationID": "3954"
      },
      {
        "Name": "捷運士林站(中正)",
        "Lat": 25.095583,
        "Lon": 121.526622,
        "Sequence": 30,
        "StationID": "797"
      },
      {
        "Name": "士林國小",
        "Lat": 25.094058815207,
        "Lon": 121.524789386925,
        "Sequence": 31,
        "StationID": "5040"
      },
      {
        "Name": "士林分局",
        "Lat": 25.09049,
        "Lon": 121.525833,
        "Sequence": 32,
        "StationID": "571"
      },
      {
        "Name": "捷運劍潭站(中山)",
        "Lat": 25.085353,
        "Lon": 121.525327,
        "Sequence": 33,
        "StationID": "803"
      }
    ]
  },
  {
    "Route": "市民小巴1",
    "SubRoute": "小巴1去繞溪山",
    "Direction": 0,
    "Stops": [
      {
        "Name": "捷運劍潭站(北藝中心)",
        "Lat": 25.084952,
        "Lon": 121.525031,
        "Sequence": 1,
        "StationID": "1000256"
      },
      {
        "Name": "陽明戲院",
        "Lat": 25.0874398,
        "Lon": 121.5260219,
        "Sequence": 2,
        "StationID": "7261"
      },
      {
        "Name": "士林分局",
        "Lat": 25.09049,
        "Lon": 121.525833,
        "Sequence": 3,
        "StationID": "571"
      },
      {
        "Name": "士林區農會",
        "Lat": 25.0928638299869,
        "Lon": 121.525671636781,
        "Sequence": 4,
        "StationID": "583"
      },
      {
        "Name": "捷運士林站(中正)",
        "Lat": 25.09550407,
        "Lon": 121.5270438,
        "Sequence": 5,
        "StationID": "795"
      },
      {
        "Name": "福林國小",
        "Lat": 25.09583325,
        "Lon": 121.5290055,
        "Sequence": 6,
        "StationID": "896"
      },
      {
        "Name": "士林官邸(中正)",
        "Lat": 25.096324,
        "Lon": 121.531395,
        "Sequence": 7,
        "StationID": "1000618"
      },
      {
        "Name": "泰北中學",
        "Lat": 25.0972847950979,
        "Lon": 121.533481875716,
        "Sequence": 8,
        "StationID": "777"
      },
      {
        "Name": "雙溪公園",
        "Lat": 25.097779,
        "Lon": 121.53792,
        "Sequence": 9,
        "StationID": "950"
      },
      {
        "Name": "梅林新村",
        "Lat": 25.0972328685249,
        "Lon": 121.540175948519,
        "Sequence": 10,
        "StationID": "805"
      },
      {
        "Name": "東吳大學(錢穆故居)",
        "Lat": 25.097131,
        "Lon": 121.541888,
        "Sequence": 11,
        "StationID": "729"
      },
      {
        "Name": "外雙溪(至善)",
        "Lat": 25.098296747051577,
        "Lon": 121.547109328126,
        "Sequence": 12,
        "StationID": "659"
      },
      {
        "Name": "故宮博物院",
        "Lat": 25.10020446,
        "Lon": 121.5505164,
        "Sequence": 13,
        "StationID": "764"
      },
      {
        "Name": "衛理女中(原住民文化主題公園)",
        "Lat": 25.10164,
        "Lon": 121.5526,
        "Sequence": 14,
        "StationID": "929"
      },
      {
        "Name": "至善國中",
        "Lat": 25.10374,
        "Lon": 121.55546,
        "Sequence": 15,
        "StationID": "695"
      },
      {
        "Name": "雙溪別墅",
        "Lat": 25.105217442275,
        "Lon": 121.557351832521,
        "Sequence": 16,
        "StationID": "953"
      },
      {
        "Name": "劍南橋",
        "Lat": 25.10731,
        "Lon": 121.55751,
        "Sequence": 17,
        "StationID": "917"
      },
      {
        "Name": "大經橋",
        "Lat": 25.10914,
        "Lon": 121.55728,
        "Sequence": 18,
        "StationID": "602"
      },
      {
        "Name": "外雙溪橋",
        "Lat": 25.11159072,
        "Lon": 121.5582374,
        "Sequence": 19,
        "StationID": "661"
      },
      {
        "Name": "內雙溪橋",
        "Lat": 25.11212,
        "Lon": 121.56151,
        "Sequence": 20,
        "StationID": "627"
      },
      {
        "Name": "嶺腳",
        "Lat": 25.11243,
        "Lon": 121.56332,
        "Sequence": 21,
        "StationID": "708"
      },
      {
        "Name": "沙崙一",
        "Lat": 25.11293,
        "Lon": 121.56491,
        "Sequence": 22,
        "StationID": "735"
      },
      {
        "Name": "沙崙",
        "Lat": 25.11344,
        "Lon": 121.56677,
        "Sequence": 23,
        "StationID": "707"
      },
      {
        "Name": "雙溪淨水場",
        "Lat": 25.11447,
        "Lon": 121.56965,
        "Sequence": 24,
        "StationID": "959"
      },
      {
        "Name": "至善路三段",
        "Lat": 25.11494,
        "Lon": 121.57171,
        "Sequence": 25,
        "StationID": "696"
      },
      {
        "Name": "碧溪橋",
        "Lat": 25.11616,
        "Lon": 121.57392,
        "Sequence": 26,
        "StationID": "901"
      },
      {
        "Name": "溪山國小",
        "Lat": 25.11968,
        "Lon": 121.580395,
        "Sequence": 27,
        "StationID": "882"
      },
      {
        "Name": "橋仔頭",
        "Lat": 25.113526,
        "Lon": 121.576489,
        "Sequence": 28,
        "StationID": "1165606395"
      },
      {
        "Name": "內雙溪自然中心",
        "Lat": 25.11709014,
        "Lon": 121.577745,
        "Sequence": 29,
        "StationID": "1001325"
      },
      {
        "Name": "楓林橋",
        "Lat": 25.11686,
        "Lon": 121.58389,
        "Sequence": 30,
        "StationID": "9457"
      },
      {
        "Name": "帕米爾公園",
        "Lat": 25.12203493,
        "Lon": 121.5927116,
        "Sequence": 31,
        "StationID": "714"
      },
      {
        "Name": "風櫃嘴",
        "Lat": 25.132229,
        "Lon": 121.597276,
        "Sequence": 32,
        "StationID": "774"
      },
      {
        "Name": "全成土雞城",
        "Lat": 25.135572,
        "Lon": 121.595425,
        "Sequence": 33,
        "StationID": "751"
      },
      {
        "Name": "頂山",
        "Lat": 25.13783,
        "Lon": 121.58759,
        "Sequence": 34,
        "StationID": "821"
      }
    ]
  },
  {
    "Route": "市民小巴1",
    "SubRoute": "小巴1去繞溪山",
    "Direction": 1,
    "Stops": [
      {
        "Name": "頂山",
        "Lat": 25.13783,
        "Lon": 121.58759,
        "Sequence": 1,
        "StationID": "821"
      },
      {
        "Name": "全成土雞城",
        "Lat": 25.135463,
        "Lon": 121.595404,
        "Sequence": 2,
        "StationID": "750"
      },
      {
        "Name": "風櫃嘴",
        "Lat": 25.13225,
        "Lon": 121.597173,
        "Sequence": 3,
        "StationID": "9456"
      },
      {
        "Name": "帕米爾公園",
        "Lat": 25.12202522,
        "Lon": 121.592497,
        "Sequence": 4,
        "StationID": "9455"
      },
      {
        "Name": "楓林橋",
        "Lat": 25.116960335645466,
        "Lon": 121.58390680657625,
        "Sequence": 5,
        "StationID": "9458"
      },
      {
        "Name": "內雙溪自然中心",
        "Lat": 25.117197,
        "Lon": 121.577745,
        "Sequence": 6,
        "StationID": "1001326"
      },
      {
        "Name": "碧溪橋",
        "Lat": 25.11624,
        "Lon": 121.57382,
        "Sequence": 7,
        "StationID": "9428"
      },
      {
        "Name": "至善路三段",
        "Lat": 25.1151,
        "Lon": 121.57187,
        "Sequence": 8,
        "StationID": "9429"
      },
      {
        "Name": "雙溪淨水場",
        "Lat": 25.11467,
        "Lon": 121.56987,
        "Sequence": 9,
        "StationID": "744"
      },
      {
        "Name": "沙崙",
        "Lat": 25.11358,
        "Lon": 121.56688,
        "Sequence": 10,
        "StationID": "9486"
      },
      {
        "Name": "沙崙一",
        "Lat": 25.11304,
        "Lon": 121.56501,
        "Sequence": 11,
        "StationID": "9487"
      },
      {
        "Name": "嶺腳",
        "Lat": 25.11258143,
        "Lon": 121.5634805,
        "Sequence": 12,
        "StationID": "9488"
      },
      {
        "Name": "內雙溪橋",
        "Lat": 25.11224057,
        "Lon": 121.5622125,
        "Sequence": 13,
        "StationID": "9489"
      },
      {
        "Name": "外雙溪橋",
        "Lat": 25.11146528,
        "Lon": 121.5579606,
        "Sequence": 14,
        "StationID": "9490"
      },
      {
        "Name": "大經橋",
        "Lat": 25.10932,
        "Lon": 121.55708,
        "Sequence": 15,
        "StationID": "9491"
      },
      {
        "Name": "劍南橋",
        "Lat": 25.10712,
        "Lon": 121.55737,
        "Sequence": 16,
        "StationID": "9492"
      },
      {
        "Name": "雙溪別墅",
        "Lat": 25.10554,
        "Lon": 121.5572,
        "Sequence": 17,
        "StationID": "9493"
      },
      {
        "Name": "至善國中",
        "Lat": 25.10406772,
        "Lon": 121.5557205,
        "Sequence": 18,
        "StationID": "9478"
      },
      {
        "Name": "衛理女中(原住民文化主題公園)",
        "Lat": 25.10144488,
        "Lon": 121.5520364,
        "Sequence": 19,
        "StationID": "9481"
      },
      {
        "Name": "故宮博物院",
        "Lat": 25.099862,
        "Lon": 121.549281,
        "Sequence": 20,
        "StationID": "70042"
      },
      {
        "Name": "故宮路口",
        "Lat": 25.098068128396,
        "Lon": 121.5459327705,
        "Sequence": 21,
        "StationID": "9449"
      },
      {
        "Name": "中影文化城",
        "Lat": 25.0972634661547,
        "Lon": 121.543765927365,
        "Sequence": 22,
        "StationID": "9448"
      },
      {
        "Name": "東吳大學(錢穆故居)",
        "Lat": 25.097411,
        "Lon": 121.541307,
        "Sequence": 23,
        "StationID": "728"
      },
      {
        "Name": "梅林新村",
        "Lat": 25.097585,
        "Lon": 121.539849,
        "Sequence": 24,
        "StationID": "807"
      },
      {
        "Name": "雙溪公園",
        "Lat": 25.098005332485762,
        "Lon": 121.53824562909286,
        "Sequence": 25,
        "StationID": "9446"
      },
      {
        "Name": "泰北中學",
        "Lat": 25.0977513146504,
        "Lon": 121.534030294965,
        "Sequence": 26,
        "StationID": "778"
      },
      {
        "Name": "士林官邸(中正)",
        "Lat": 25.0965,
        "Lon": 121.53144,
        "Sequence": 27,
        "StationID": "3953"
      },
      {
        "Name": "福林國小",
        "Lat": 25.0962,
        "Lon": 121.52976,
        "Sequence": 28,
        "StationID": "3954"
      },
      {
        "Name": "捷運士林站(中正)",
        "Lat": 25.095583,
        "Lon": 121.526622,
        "Sequence": 29,
        "StationID": "797"
      },
      {
        "Name": "士林國小",
        "Lat": 25.094058815207,
        "Lon": 121.524789386925,
        "Sequence": 30,
        "StationID": "5040"
      },
      {
        "Name": "士林分局",
        "Lat": 25.09049,
        "Lon": 121.525833,
        "Sequence": 31,
        "StationID": "571"
      },
      {
        "Name": "捷運劍潭站(中山)",
        "Lat": 25.085353,
        "Lon": 121.525327,
        "Sequence": 32,
        "StationID": "803"
      }
    ]
  }
]