[
  {
    "Route": "617",
    "SubRoute": "617",
    "Direction": 0,
    "Stops": [
      {
        "Name": "泰林仁德路口",
        "Lat": 25.05713,
        "Lon": 121.43571,
        "Sequence": 1,
        "StationID": "3610"
      },
      {
        "Name": "捷運泰山站",
        "Lat": 25.052911,
        "Lon": 121.439476,
        "Sequence": 2,
        "StationID": "73618"
      },
      {
        "Name": "行政院新莊聯合辦公大樓(中平路)",
        "Lat": 25.056738,
        "Lon": 121.443864,
        "Sequence": 3,
        "StationID": "73617"
      },
      {
        "Name": "捷運新莊副都心站(中央路)",
        "Lat": 25.057725,
        "Lon": 121.447343,
        "Sequence": 4,
        "StationID": "1165603246"
      },
      {
        "Name": "中信國小",
        "Lat": 25.055131,
        "Lon": 121.447748,
        "Sequence": 5,
        "StationID": "1165604547"
      },
      {
        "Name": "中原路",
        "Lat": 25.05436,
        "Lon": 121.44737,
        "Sequence": 6,
        "StationID": "3504"
      },
      {
        "Name": "中原中平路口",
        "Lat": 25.0544053736291,
        "Lon": 121.445383787828,
        "Sequence": 7,
        "StationID": "20261"
      },
      {
        "Name": "中平國中",
        "Lat": 25.05186,
        "Lon": 121.44468,
        "Sequence": 8,
        "StationID": "3497"
      },
      {
        "Name": "新莊高中(新莊文藝中心)",
        "Lat": 25.04961766,
        "Lon": 121.4446583,
        "Sequence": 9,
        "StationID": "3573"
      },
      {
        "Name": "新莊高中(幸福路)",
        "Lat": 25.0490066229995,
        "Lon": 121.445379037224,
        "Sequence": 10,
        "StationID": "8207"
      },
      {
        "Name": "中和街口",
        "Lat": 25.049077,
        "Lon": 121.448561,
        "Sequence": 11,
        "StationID": "3500"
      },
      {
        "Name": "中港",
        "Lat": 25.0491543957239,
        "Lon": 121.451369639862,
        "Sequence": 12,
        "StationID": "3507"
      },
      {
        "Name": "聯邦社區",
        "Lat": 25.050565,
        "Lon": 121.452983,
        "Sequence": 13,
        "StationID": "50605"
      },
      {
        "Name": "中華中原路口",
        "Lat": 25.0528494498004,
        "Lon": 121.45233725893,
        "Sequence": 14,
        "StationID": "20389"
      },
      {
        "Name": "中原路一",
        "Lat": 25.054271,
        "Lon": 121.454002,
        "Sequence": 15,
        "StationID": "3505"
      },
      {
        "Name": "頭前國中(中原路)",
        "Lat": 25.05425,
        "Lon": 121.457564,
        "Sequence": 16,
        "StationID": "3599"
      },
      {
        "Name": "頭前國中",
        "Lat": 25.055056,
        "Lon": 121.4601,
        "Sequence": 17,
        "StationID": "3600"
      },
      {
        "Name": "思源新北大道路口",
        "Lat": 25.059334,
        "Lon": 121.460104,
        "Sequence": 18,
        "StationID": "3733"
      },
      {
        "Name": "新北大道思源路口",
        "Lat": 25.0605,
        "Lon": 121.46151,
        "Sequence": 19,
        "StationID": "1000962"
      },
      {
        "Name": "新北大道化成路口",
        "Lat": 25.061164,
        "Lon": 121.465274,
        "Sequence": 20,
        "StationID": "1000842"
      },
      {
        "Name": "新北大道中興路口",
        "Lat": 25.0613446467768,
        "Lon": 121.468148097399,
        "Sequence": 21,
        "StationID": "3495"
      },
      {
        "Name": "新北大道中華路口",
        "Lat": 25.0613696251157,
        "Lon": 121.483061607875,
        "Sequence": 22,
        "StationID": "3978"
      },
      {
        "Name": "三重區公所(新北大道)",
        "Lat": 25.061249,
        "Lon": 121.48857,
        "Sequence": 23,
        "StationID": "13210"
      },
      {
        "Name": "聯合醫院(三重院區)",
        "Lat": 25.0612882442498,
        "Lon": 121.490767288608,
        "Sequence": 24,
        "StationID": "13209"
      },
      {
        "Name": "大同路口",
        "Lat": 25.061403,
        "Lon": 121.49493,
        "Sequence": 25,
        "StationID": "3387"
      },
      {
        "Name": "天台廣場",
        "Lat": 25.062277,
        "Lon": 121.498323,
        "Sequence": 26,
        "StationID": "1000843"
      },
      {
        "Name": "捷運台北橋站",
        "Lat": 25.063054,
        "Lon": 121.50044,
        "Sequence": 27,
        "StationID": "60059"
      },
      {
        "Name": "三重派出所(重新路)",
        "Lat": 25.0636037876107,
        "Lon": 121.501898428168,
        "Sequence": 28,
        "StationID": "20263"
      },
      {
        "Name": "捷運民權西路站",
        "Lat": 25.0628480067,
        "Lon": 121.5178677888,
        "Sequence": 29,
        "StationID": "1000398"
      },
      {
        "Name": "民權中山路口",
        "Lat": 25.06271419,
        "Lon": 121.5223009,
        "Sequence": 30,
        "StationID": "1235"
      },
      {
        "Name": "捷運中山國小站",
        "Lat": 25.06266873,
        "Lon": 121.5253813,
        "Sequence": 31,
        "StationID": "4098"
      },
      {
        "Name": "民權吉林路口",
        "Lat": 25.06254664,
        "Lon": 121.5300637,
        "Sequence": 32,
        "StationID": "1000112"
      },
      {
        "Name": "民權松江路口",
        "Lat": 25.0624771,
        "Lon": 121.5328589,
        "Sequence": 33,
        "StationID": "1239"
      },
      {
        "Name": "民權建國路口",
        "Lat": 25.06236889,
        "Lon": 121.5364984,
        "Sequence": 34,
        "StationID": "1242"
      },
      {
        "Name": "民權龍江路口",
        "Lat": 25.0623255291835,
        "Lon": 121.540554014847,
        "Sequence": 35,
        "StationID": "1000186"
      },
      {
        "Name": "民權復興路口",
        "Lat": 25.06227185,
        "Lon": 121.5438692,
        "Sequence": 36,
        "StationID": "1000326"
      },
      {
        "Name": "民權敦化路口",
        "Lat": 25.062020643130538,
        "Lon": 121.54762539917303,
        "Sequence": 37,
        "StationID": "1244"
      },
      {
        "Name": "民權東路口",
        "Lat": 25.06145,
        "Lon": 121.552,
        "Sequence": 38,
        "StationID": "4158"
      },
      {
        "Name": "中華航空",
        "Lat": 25.06188,
        "Lon": 121.55578,
        "Sequence": 39,
        "StationID": "1496"
      },
      {
        "Name": "民權公園",
        "Lat": 25.06199574,
        "Lon": 121.5573,
        "Sequence": 40,
        "StationID": "1511"
      },
      {
        "Name": "民權國小",
        "Lat": 25.06247253,
        "Lon": 121.5611,
        "Sequence": 41,
        "StationID": "1514"
      },
      {
        "Name": "三民國小",
        "Lat": 25.06279839209022,
        "Lon": 121.56364748952177,
        "Sequence": 42,
        "StationID": "8671"
      },
      {
        "Name": "民權大橋",
        "Lat": 25.066876801458,
        "Lon": 121.579477870198,
        "Sequence": 43,
        "StationID": "1017"
      },
      {
        "Name": "時報廣場",
        "Lat": 25.0680848776157,
        "Lon": 121.58212115754,
        "Sequence": 44,
        "StationID": "1077"
      },
      {
        "Name": "三民國中",
        "Lat": 25.06881463274073,
        "Lon": 121.58543789167122,
        "Sequence": 45,
        "StationID": "966"
      },
      {
        "Name": "內湖行政大樓",
        "Lat": 25.068895529659475,
        "Lon": 121.58896238097387,
        "Sequence": 46,
        "StationID": "991"
      },
      {
        "Name": "國防醫學中心",
        "Lat": 25.0712104683315,
        "Lon": 121.590031196316,
        "Sequence": 47,
        "StationID": "339"
      },
      {
        "Name": "將軍嶺",
        "Lat": 25.0738091792986,
        "Lon": 121.590016770287,
        "Sequence": 48,
        "StationID": "50500"
      },
      {
        "Name": "方濟中學",
        "Lat": 25.0768845629687,
        "Lon": 121.590231346227,
        "Sequence": 49,
        "StationID": "3996"
      },
      {
        "Name": "成功路三段",
        "Lat": 25.0796177267452,
        "Lon": 121.589939880159,
        "Sequence": 50,
        "StationID": "8520"
      },
      {
        "Name": "湖光市場",
        "Lat": 25.0816997666211,
        "Lon": 121.59200882874,
        "Sequence": 51,
        "StationID": "8537"
      },
      {
        "Name": "捷運內湖站",
        "Lat": 25.08334,
        "Lon": 121.594132,
        "Sequence": 52,
        "StationID": "8538"
      },
      {
        "Name": "秀湖",
        "Lat": 25.08456,
        "Lon": 121.59841,
        "Sequence": 53,
        "StationID": "1000732"
      },
      {
        "Name": "大湖",
        "Lat": 25.08453,
        "Lon": 121.600182,
        "Sequence": 54,
        "StationID": "968"
      },
      {
        "Name": "捷運大湖公園站",
        "Lat": 25.08343,
        "Lon": 121.602592,
        "Sequence": 55,
        "StationID": "3998"
      },
      {
        "Name": "大湖公園",
        "Lat": 25.08288733,
        "Lon": 121.6048,
        "Sequence": 56,
        "StationID": "8524"
      },
      {
        "Name": "黃石公廟",
        "Lat": 25.077575,
        "Lon": 121.606985,
        "Sequence": 57,
        "StationID": "4009"
      },
      {
        "Name": "康寧醫院",
        "Lat": 25.076003252282835,
        "Lon": 121.60709165757346,
        "Sequence": 58,
        "StationID": "1094"
      },
      {
        "Name": "康寧社區",
        "Lat": 25.07432866824676,
        "Lon": 121.60631194598926,
        "Sequence": 59,
        "StationID": "3999"
      }
    ]
  },
  {
    "Route": "617",
    "SubRoute": "617",
    "Direction": 1,
    "Stops": [
      {
        "Name": "民權隧道",
        "Lat": 25.0723674,
        "Lon": 121.6048395,
        "Sequence": 1,
        "StationID": "50443"
      },
      {
        "Name": "民權隧道二",
        "Lat": 25.067297,
        "Lon": 121.60099,
        "Sequence": 2,
        "StationID": "8675"
      },
      {
        "Name": "民權東路六段(民權敦品)",
        "Lat": 25.06726047,
        "Lon": 121.5984,
        "Sequence": 3,
        "StationID": "8674"
      },
      {
        "Name": "國防醫學大學",
        "Lat": 25.06831,
        "Lon": 121.59613,
        "Sequence": 4,
        "StationID": "8673"
      },
      {
        "Name": "三總內湖站",
        "Lat": 25.071852,
        "Lon": 121.592095,
        "Sequence": 5,
        "StationID": "980"
      },
      {
        "Name": "國防醫學中心",
        "Lat": 25.0710371489715,
        "Lon": 121.589869957803,
        "Sequence": 6,
        "StationID": "1080"
      },
      {
        "Name": "福華商場",
        "Lat": 25.06897,
        "Lon": 121.59362,
        "Sequence": 7,
        "StationID": "8672"
      },
      {
        "Name": "內湖行政大樓",
        "Lat": 25.06918300127649,
        "Lon": 121.58821790633739,
        "Sequence": 8,
        "StationID": "8667"
      },
      {
        "Name": "三民國中",
        "Lat": 25.06901,
        "Lon": 121.58556,
        "Sequence": 9,
        "StationID": "8666"
      },
      {
        "Name": "時報廣場",
        "Lat": 25.0685609459737,
        "Lon": 121.583129808238,
        "Sequence": 10,
        "StationID": "8601"
      },
      {
        "Name": "民權大橋",
        "Lat": 25.066982973174284,
        "Lon": 121.57895384595646,
        "Sequence": 11,
        "StationID": "8602"
      },
      {
        "Name": "三民國小",
        "Lat": 25.063093,
        "Lon": 121.564002,
        "Sequence": 12,
        "StationID": "10403"
      },
      {
        "Name": "民權國小",
        "Lat": 25.06265373,
        "Lon": 121.5605346,
        "Sequence": 13,
        "StationID": "8650"
      },
      {
        "Name": "中華航空",
        "Lat": 25.06209189,
        "Lon": 121.5555141,
        "Sequence": 14,
        "StationID": "8604"
      },
      {
        "Name": "民權敦化路口",
        "Lat": 25.06203573,
        "Lon": 121.5482873,
        "Sequence": 15,
        "StationID": "60134"
      },
      {
        "Name": "民權復興路口",
        "Lat": 25.06222037,
        "Lon": 121.5446524,
        "Sequence": 16,
        "StationID": "1000329"
      },
      {
        "Name": "民權龍江路口",
        "Lat": 25.0623959365736,
        "Lon": 121.541275218891,
        "Sequence": 17,
        "StationID": "1000184"
      },
      {
        "Name": "民權建國路口",
        "Lat": 25.06248317,
        "Lon": 121.53746,
        "Sequence": 18,
        "StationID": "4081"
      },
      {
        "Name": "民權松江路口",
        "Lat": 25.06252486,
        "Lon": 121.5334388,
        "Sequence": 19,
        "StationID": "1240"
      },
      {
        "Name": "民權吉林路口",
        "Lat": 25.062636,
        "Lon": 121.529148,
        "Sequence": 20,
        "StationID": "1000162"
      },
      {
        "Name": "捷運中山國小站",
        "Lat": 25.0627519578754,
        "Lon": 121.5259472364,
        "Sequence": 21,
        "StationID": "1165603308"
      },
      {
        "Name": "民權中山路口",
        "Lat": 25.06285356,
        "Lon": 121.5230024,
        "Sequence": 22,
        "StationID": "1236"
      },
      {
        "Name": "捷運民權西路站",
        "Lat": 25.062948670718,
        "Lon": 121.518977516403,
        "Sequence": 23,
        "StationID": "1000393"
      },
      {
        "Name": "民權大龍街口",
        "Lat": 25.062976,
        "Lon": 121.516467,
        "Sequence": 24,
        "StationID": "1427"
      },
      {
        "Name": "三重派出所(重新路)",
        "Lat": 25.063667,
        "Lon": 121.501606,
        "Sequence": 25,
        "StationID": "3488"
      },
      {
        "Name": "捷運台北橋站",
        "Lat": 25.06321,
        "Lon": 121.500403,
        "Sequence": 26,
        "StationID": "13200"
      },
      {
        "Name": "天台廣場",
        "Lat": 25.061930885,
        "Lon": 121.496784994,
        "Sequence": 27,
        "StationID": "3452"
      },
      {
        "Name": "大同路口",
        "Lat": 25.0614913406773,
        "Lon": 121.494254721567,
        "Sequence": 28,
        "StationID": "1000149"
      },
      {
        "Name": "聯合醫院(三重院區)",
        "Lat": 25.06145,
        "Lon": 121.49077,
        "Sequence": 29,
        "StationID": "13212"
      },
      {
        "Name": "三重區公所(新北大道)",
        "Lat": 25.061474,
        "Lon": 121.488152,
        "Sequence": 30,
        "StationID": "3394"
      },
      {
        "Name": "新北大道中華路口",
        "Lat": 25.061616,
        "Lon": 121.483074,
        "Sequence": 31,
        "StationID": "3979"
      },
      {
        "Name": "新北大道重光街口",
        "Lat": 25.0616455497332,
        "Lon": 121.466776101293,
        "Sequence": 32,
        "StationID": "3494"
      },
      {
        "Name": "新北大道化成路口",
        "Lat": 25.061176,
        "Lon": 121.464221,
        "Sequence": 33,
        "StationID": "4141"
      },
      {
        "Name": "思源新北大道路口",
        "Lat": 25.05944269,
        "Lon": 121.4595888,
        "Sequence": 34,
        "StationID": "3551"
      },
      {
        "Name": "頭前國中",
        "Lat": 25.0553,
        "Lon": 121.45958,
        "Sequence": 35,
        "StationID": "3598"
      },
      {
        "Name": "頭前國中(中原路)",
        "Lat": 25.054455,
        "Lon": 121.458557,
        "Sequence": 36,
        "StationID": "50607"
      },
      {
        "Name": "中原路一",
        "Lat": 25.054408,
        "Lon": 121.454085,
        "Sequence": 37,
        "StationID": "3506"
      },
      {
        "Name": "中華中原路口",
        "Lat": 25.05302,
        "Lon": 121.45202,
        "Sequence": 38,
        "StationID": "20388"
      },
      {
        "Name": "聯邦社區",
        "Lat": 25.051113,
        "Lon": 121.452804,
        "Sequence": 39,
        "StationID": "3603"
      },
      {
        "Name": "中港",
        "Lat": 25.0492912897265,
        "Lon": 121.451623157219,
        "Sequence": 40,
        "StationID": "30035"
      },
      {
        "Name": "中和街口",
        "Lat": 25.049202,
        "Lon": 121.448824,
        "Sequence": 41,
        "StationID": "8208"
      },
      {
        "Name": "新莊高中(幸福路)",
        "Lat": 25.049113403307,
        "Lon": 121.445371964966,
        "Sequence": 42,
        "StationID": "3572"
      },
      {
        "Name": "新莊高中(新莊文藝中心)",
        "Lat": 25.049549,
        "Lon": 121.444921,
        "Sequence": 43,
        "StationID": "8206"
      },
      {
        "Name": "中平國中",
        "Lat": 25.051888,
        "Lon": 121.444782,
        "Sequence": 44,
        "StationID": "8205"
      },
      {
        "Name": "中原路",
        "Lat": 25.05416,
        "Lon": 121.44715,
        "Sequence": 45,
        "StationID": "3503"
      },
      {
        "Name": "中信國小",
        "Lat": 25.055363,
        "Lon": 121.447835,
        "Sequence": 46,
        "StationID": "1165604546"
      },
      {
        "Name": "捷運新莊副都心站(中央路)",
        "Lat": 25.057744,
        "Lon": 121.446968,
        "Sequence": 47,
        "StationID": "1165603329"
      },
      {
        "Name": "行政院新莊聯合辦公大樓(中平路)",
        "Lat": 25.056918,
        "Lon": 121.444029,
        "Sequence": 48,
        "StationID": "1165603323"
      },
      {
        "Name": "捷運泰山站",
        "Lat": 25.05314,
        "Lon": 121.439231,
        "Sequence": 49,
        "StationID": "73619"
      },
      {
        "Name": "捷運泰山站(泰林路)",
        "Lat": 25.05312196,
        "Lon": 121.4382775,
        "Sequence": 50,
        "StationID": "36072"
      },
      {
        "Name": "泰林仁德路口",
        "Lat": 25.057291,
        "Lon": 121.435831,
        "Sequence": 51,
        "StationID": "36074"
      }
    ]
  },
  {
    "Route": "617",
    "SubRoute": "617去程半",
    "Direction": 0,
    "Stops": [
      {
        "Name": "泰林仁德路口",
        "Lat": 25.05713,
        "Lon": 121.43571,
        "Sequence": 1,
        "StationID": "3610"
      },
      {
        "Name": "捷運泰山站",
        "Lat": 25.052911,
        "Lon": 121.439476,
        "Sequence": 2,
        "StationID": "73618"
      },
      {
        "Name": "行政院新莊聯合辦公大樓(中平路)",
        "Lat": 25.056738,
        "Lon": 121.443864,
        "Sequence": 3,
        "StationID": "73617"
      },
      {
        "Name": "捷運新莊副都心站(中央路)",
        "Lat": 25.057725,
        "Lon": 121.447343,
        "Sequence": 4,
        "StationID": "1165603246"
      },
      {
        "Name": "中信國小",
        "Lat": 25.055131,
        "Lon": 121.447748,
        "Sequence": 5,
        "StationID": "1165604547"
      },
      {
        "Name": "中原路",
        "Lat": 25.05436,
        "Lon": 121.44737,
        "Sequence": 6,
        "StationID": "3504"
      },
      {
        "Name": "中原中平路口",
        "Lat": 25.0544053736291,
        "Lon": 121.445383787828,
        "Sequence": 7,
        "StationID": "20261"
      },
      {
        "Name": "中平國中",
        "Lat": 25.05186,
        "Lon": 121.44468,
        "Sequence": 8,
        "StationID": "3497"
      },
      {
        "Name": "新莊高中(新莊文藝中心)",
        "Lat": 25.04961766,
        "Lon": 121.4446583,
        "Sequence": 9,
        "StationID": "3573"
      },
      {
        "Name": "新莊高中(幸福路)",
        "Lat": 25.0490066229995,
        "Lon": 121.445379037224,
        "Sequence": 10,
        "StationID": "8207"
      },
      {
        "Name": "中和街口",
        "Lat": 25.049077,
        "Lon": 121.448561,
        "Sequence": 11,
        "StationID": "3500"
      },
      {
        "Name": "中港",
        "Lat": 25.0491543957239,
        "Lon": 121.451369639862,
        "Sequence": 12,
        "StationID": "3507"
      },
      {
        "Name": "聯邦社區",
        "Lat": 25.050565,
        "Lon": 121.452983,
        "Sequence": 13,
        "StationID": "50605"
      },
      {
        "Name": "中華中原路口",
        "Lat": 25.0528494498004,
        "Lon": 121.45233725893,
        "Sequence": 14,
        "StationID": "20389"
      },
      {
        "Name": "中原路一",
        "Lat": 25.054271,
        "Lon": 121.454002,
        "Sequence": 15,
        "StationID": "3505"
      },
      {
        "Name": "頭前國中(中原路)",
        "Lat": 25.05425,
        "Lon": 121.457564,
        "Sequence": 16,
        "StationID": "3599"
      },
      {
        "Name": "頭前國中",
        "Lat": 25.055056,
        "Lon": 121.4601,
        "Sequence": 17,
        "StationID": "3600"
      },
      {
        "Name": "思源新北大道路口",
        "Lat": 25.059334,
        "Lon": 121.460104,
        "Sequence": 18,
        "StationID": "3733"
      },
      {
        "Name": "新北大道思源路口",
        "Lat": 25.0605,
        "Lon": 121.46151,
        "Sequence": 19,
        "StationID": "1000962"
      },
      {
        "Name": "新北大道化成路口",
        "Lat": 25.061164,
        "Lon": 121.465274,
        "Sequence": 20,
        "StationID": "1000842"
      },
      {
        "Name": "新北大道中興路口",
        "Lat": 25.0613446467768,
        "Lon": 121.468148097399,
        "Sequence": 21,
        "StationID": "3495"
      },
      {
        "Name": "新北大道中華路口",
        "Lat": 25.0613696251157,
        "Lon": 121.483061607875,
        "Sequence": 22,
        "StationID": "3978"
      },
      {
        "Name": "三重區公所(新北大道)",
        "Lat": 25.061249,
        "Lon": 121.48857,
        "Sequence": 23,
        "StationID": "13210"
      },
      {
        "Name": "聯合醫院(三重院區)",
        "Lat": 25.0612882442498,
        "Lon": 121.490767288608,
        "Sequence": 24,
        "StationID": "13209"
      },
      {
        "Name": "大同路口",
        "Lat": 25.061403,
        "Lon": 121.49493,
        "Sequence": 25,
        "StationID": "3387"
      },
      {
        "Name": "天台廣場",
        "Lat": 25.062277,
        "Lon": 121.498323,
        "Sequence": 26,
        "StationID": "1000843"
      },
      {
        "Name": "捷運台北橋站",
        "Lat": 25.063054,
        "Lon": 121.50044,
        "Sequence": 27,
        "StationID": "60059"
      },
      {
        "Name": "三重派出所(重新路)",
        "Lat": 25.0636037876107,
        "Lon": 121.501898428168,
        "Sequence": 28,
        "StationID": "20263"
      },
      {
        "Name": "捷運民權西路站",
        "Lat": 25.0628480067,
        "Lon": 121.5178677888,
        "Sequence": 29,
        "StationID": "1000398"
      },
      {
        "Name": "民權中山路口",
        "Lat": 25.06271419,
        "Lon": 121.5223009,
        "Sequence": 30,
        "StationID": "1235"
      },
      {
        "Name": "捷運中山國小站",
        "Lat": 25.06266873,
        "Lon": 121.5253813,
        "Sequence": 31,
        "StationID": "4098"
      },
      {
        "Name": "民權吉林路口",
        "Lat": 25.06254664,
        "Lon": 121.5300637,
        "Sequence": 32,
        "StationID": "1000112"
      },
      {
        "Name": "民權松江路口",
        "Lat": 25.0624771,
        "Lon": 121.5328589,
        "Sequence": 33,
        "StationID": "1239"
      },
      {
        "Name": "民權建國路口",
        "Lat": 25.06236889,
        "Lon": 121.5364984,
        "Sequence": 34,
        "StationID": "1242"
      },
      {
        "Name": "民權龍江路口",
        "Lat": 25.0623255291835,
        "Lon": 121.540554014847,
        "Sequence": 35,
        "StationID": "1000186"
      },
      {
        "Name": "民權復興路口",
        "Lat": 25.06227185,
        "Lon": 121.5438692,
        "Sequence": 36,
        "StationID": "1000326"
      },
      {
        "Name": "民權敦化路口",
        "Lat": 25.062020643130538,
        "Lon": 121.54762539917303,
        "Sequence": 37,
        "StationID": "1244"
      },
      {
        "Name": "民權東路口",
        "Lat": 25.06145,
        "Lon": 121.552,
        "Sequence": 38,
        "StationID": "4158"
      },
      {
        "Name": "中華航空",
        "Lat": 25.06188,
        "Lon": 121.55578,
        "Sequence": 39,
        "StationID": "1496"
      },
      {
        "Name": "民權公園",
        "Lat": 25.06199574,
        "Lon": 121.5573,
        "Sequence": 40,
        "StationID": "1511"
      },
      {
        "Name": "民權國小",
        "Lat": 25.06247253,
        "Lon": 121.5611,
        "Sequence": 41,
        "StationID": "1514"
      },
      {
        "Name": "三民國小",
        "Lat": 25.06279839209022,
        "Lon": 121.56364748952177,
        "Sequence": 42,
        "StationID": "8671"
      },
      {
        "Name": "民權大橋",
        "Lat": 25.066876801458,
        "Lon": 121.579477870198,
        "Sequence": 43,
        "StationID": "1017"
      },
      {
        "Name": "時報廣場",
        "Lat": 25.0680848776157,
        "Lon": 121.58212115754,
        "Sequence": 44,
        "StationID": "1077"
      },
      {
        "Name": "三民國中",
        "Lat": 25.06881463274073,
        "Lon": 121.58543789167122,
        "Sequence": 45,
        "StationID": "966"
      },
      {
        "Name": "內湖行政大樓",
        "Lat": 25.068895529659475,
        "Lon": 121.58896238097387,
        "Sequence": 46,
        "StationID": "991"
      },
      {
        "Name": "國防醫學中心",
        "Lat": 25.0712104683315,
        "Lon": 121.590031196316,
        "Sequence": 47,
        "StationID": "339"
      },
      {
        "Name": "將軍嶺",
        "Lat": 25.0738091792986,
        "Lon": 121.590016770287,
        "Sequence": 48,
        "StationID": "50500"
      },
      {
        "Name": "方濟中學",
        "Lat": 25.0768845629687,
        "Lon": 121.590231346227,
        "Sequence": 49,
        "StationID": "3996"
      },
      {
        "Name": "成功路三段",
        "Lat": 25.0796177267452,
        "Lon": 121.589939880159,
        "Sequence": 50,
        "StationID": "8520"
      },
      {
        "Name": "湖光市場",
        "Lat": 25.0816997666211,
        "Lon": 121.59200882874,
        "Sequence": 51,
        "StationID": "8537"
      },
      {
        "Name": "捷運內湖站",
        "Lat": 25.08334,
        "Lon": 121.594132,
        "Sequence": 52,
        "StationID": "8538"
      },
      {
        "Name": "秀湖",
        "Lat": 25.08456,
        "Lon": 121.59841,
        "Sequence": 53,
        "StationID": "1000732"
      },
      {
        "Name": "大湖",
        "Lat": 25.08453,
        "Lon": 121.600182,
        "Sequence": 54,
        "StationID": "968"
      },
      {
        "Name": "捷運大湖公園站",
        "Lat": 25.08343,
        "Lon": 121.602592,
        "Sequence": 55,
        "StationID": "3998"
      },
      {
        "Name": "大湖公園",
        "Lat": 25.08288733,
        "Lon": 121.6048,
        "Sequence": 56,
        "StationID": "8524"
      },
      {
        "Name": "黃石公廟",
        "Lat": 25.077575,
        "Lon": 121.606985,
        "Sequence": 57,
        "StationID": "4009"
      },
      {
        "Name": "康寧醫院",
        "Lat": 25.076003252282835,
        "Lon": 121.60709165757346,
        "Sequence": 58,
        "StationID": "1094"
      },
      {
        "Name": "康寧社區",
        "Lat": 25.07432866824676,
        "Lon": 121.60631194598926,
        "Sequence": 59,
        "StationID": "3999"
      }
    ]
  },
  {
    "Route": "617",
    "SubRoute": "617返程半",
    "Direction": 1,
    "Stops": [
      {
        "Name": "民權隧道",
        "Lat": 25.0723674,
        "Lon": 121.6048395,
        "Sequence": 1,
        "StationID": "50443"
      },
      {
        "Name": "民權隧道二",
        "Lat": 25.067297,
        "Lon": 121.60099,
        "Sequence": 2,
        "StationID": "8675"
      },
      {
        "Name": "民權東路六段(民權敦品)",
        "Lat": 25.06726047,
        "Lon": 121.5984,
        "Sequence": 3,
        "StationID": "8674"
      },
      {
        "Name": "國防醫學大學",
        "Lat": 25.06831,
        "Lon": 121.59613,
        "Sequence": 4,
        "StationID": "8673"
      },
      {
        "Name": "三總內湖站",
        "Lat": 25.071852,
        "Lon": 121.592095,
        "Sequence": 5,
        "StationID": "980"
      },
      {
        "Name": "國防醫學中心",
        "Lat": 25.0710371489715,
        "Lon": 121.589869957803,
        "Sequence": 6,
        "StationID": "1080"
      },
      {
        "Name": "福華商場",
        "Lat": 25.06897,
        "Lon": 121.59362,
        "Sequence": 7,
        "StationID": "8672"
      },
      {
        "Name": "內湖行政大樓",
        "Lat": 25.06918300127649,
        "Lon": 121.58821790633739,
        "Sequence": 8,
        "StationID": "8667"
      },
      {
        "Name": "三民國中",
        "Lat": 25.06901,
        "Lon": 121.58556,
        "Sequence": 9,
        "StationID": "8666"
      },
      {
        "Name": "時報廣場",
        "Lat": 25.0685609459737,
        "Lon": 121.583129808238,
        "Sequence": 10,
        "StationID": "8601"
      },
      {
        "Name": "民權大橋",
        "Lat": 25.066982973174284,
        "Lon": 121.57895384595646,
        "Sequence": 11,
        "StationID": "8602"
      },
      {
        "Name": "三民國小",
        "Lat": 25.063093,
        "Lon": 121.564002,
        "Sequence": 12,
        "StationID": "10403"
      },
      {
        "Name": "民權國小",
        "Lat": 25.06265373,
        "Lon": 121.5605346,
        "Sequence": 13,
        "StationID": "8650"
      },
      {
        "Name": "中華航空",
        "Lat": 25.06209189,
        "Lon": 121.5555141,
        "Sequence": 14,
        "StationID": "8604"
      },
      {
        "Name": "民權敦化路口",
        "Lat": 25.06203573,
        "Lon": 121.5482873,
        "Sequence": 15,
        "StationID": "60134"
      },
      {
        "Name": "民權復興路口",
        "Lat": 25.06222037,
        "Lon": 121.5446524,
        "Sequence": 16,
        "StationID": "1000329"
      },
      {
        "Name": "民權龍江路口",
        "Lat": 25.0623959365736,
        "Lon": 121.541275218891,
        "Sequence": 17,
        "StationID": "1000184"
      },
      {
        "Name": "民權建國路口",
        "Lat": 25.06248317,
        "Lon": 121.53746,
        "Sequence": 18,
        "StationID": "4081"
      },
      {
        "Name": "民權松江路口",
        "Lat": 25.06252486,
        "Lon": 121.5334388,
        "Sequence": 19,
        "StationID": "1240"
      },
      {
        "Name": "民權吉林路口",
        "Lat": 25.062636,
        "Lon": 121.529148,
        "Sequence": 20,
        "StationID": "1000162"
      },
      {
        "Name": "捷運中山國小站",
        "Lat": 25.0627519578754,
        "Lon": 121.5259472364,
        "Sequence": 21,
        "StationID": "1165603308"
      },
      {
        "Name": "民權中山路口",
        "Lat": 25.06285356,
        "Lon": 121.5230024,
        "Sequence": 22,
        "StationID": "1236"
      },
      {
        "Name": "捷運民權西路站",
        "Lat": 25.062948670718,
        "Lon": 121.518977516403,
        "Sequence": 23,
        "StationID": "1000393"
      },
      {
        "Name": "民權大龍街口",
        "Lat": 25.062976,
        "Lon": 121.516467,
        "Sequence": 24,
        "StationID": "1427"
      },
      {
        "Name": "三重派出所(重新路)",
        "Lat": 25.063667,
        "Lon": 121.501606,
        "Sequence": 25,
        "StationID": "3488"
      },
      {
        "Name": "捷運台北橋站",
        "Lat": 25.06321,
        "Lon": 121.500403,
        "Sequence": 26,
        "StationID": "13200"
      },
      {
        "Name": "天台廣場",
        "Lat": 25.061930885,
        "Lon": 121.496784994,
        "Sequence": 27,
        "StationID": "3452"
      },
      {
        "Name": "大同路口",
        "Lat": 25.0614913406773,
        "Lon": 121.494254721567,
        "Sequence": 28,
        "StationID": "1000149"
      },
      {
        "Name": "聯合醫院(三重院區)",
        "Lat": 25.06145,
        "Lon": 121.49077,
        "Sequence": 29,
        "StationID": "13212"
      },
      {
        "Name": "三重區公所(新北大道)",
        "Lat": 25.061474,
        "Lon": 121.488152,
        "Sequence": 30,
        "StationID": "3394"
      },
      {
        "Name": "新北大道中華路口",
        "Lat": 25.061616,
        "Lon": 121.483074,
        "Sequence": 31,
        "StationID": "3979"
      },
      {
        "Name": "新北大道重光街口",
        "Lat": 25.0616455497332,
        "Lon": 121.466776101293,
        "Sequence": 32,
        "StationID": "3494"
      },
      {
        "Name": "新北大道化成路口",
        "Lat": 25.061176,
        "Lon": 121.464221,
        "Sequence": 33,
        "StationID": "4141"
      },
      {
        "Name": "思源新北大道路口",
        "Lat": 25.05944269,
        "Lon": 121.4595888,
        "Sequence": 34,
        "StationID": "3551"
      },
      {
        "Name": "頭前國中",
        "Lat": 25.0553,
        "Lon": 121.45958,
        "Sequence": 35,
        "StationID": "3598"
      },
      {
        "Name": "頭前國中(中原路)",
        "Lat": 25.054455,
        "Lon": 121.458557,
        "Sequence": 36,
        "StationID": "50607"
      },
      {
        "Name": "中原路一",
        "Lat": 25.054408,
        "Lon": 121.454085,
        "Sequence": 37,
        "StationID": "3506"
      },
      {
        "Name": "中華中原路口",
        "Lat": 25.05302,
        "Lon": 121.45202,
        "Sequence": 38,
        "StationID": "20388"
      },
      {
        "Name": "聯邦社區",
        "Lat": 25.051113,
        "Lon": 121.452804,
        "Sequence": 39,
        "StationID": "3603"
      },
      {
        "Name": "中港",
        "Lat": 25.0492912897265,
        "Lon": 121.451623157219,
        "Sequence": 40,
        "StationID": "30035"
      },
      {
        "Name": "中和街口",
        "Lat": 25.049202,
        "Lon": 121.448824,
        "Sequence": 41,
        "StationID": "8208"
      },
      {
        "Name": "新莊高中(幸福路)",
        "Lat": 25.049113403307,
        "Lon": 121.445371964966,
        "Sequence": 42,
        "StationID": "3572"
      },
      {
        "Name": "新莊高中(新莊文藝中心)",
        "Lat": 25.049549,
        "Lon": 121.444921,
        "Sequence": 43,
        "StationID": "8206"
      },
      {
        "Name": "中平國中",
        "Lat": 25.051888,
        "Lon": 121.444782,
        "Sequence": 44,
        "StationID": "8205"
      },
      {
        "Name": "中原路",
        "Lat": 25.05416,
        "Lon": 121.44715,
        "Sequence": 45,
        "StationID": "3503"
      },
      {
        "Name": "中信國小",
        "Lat": 25.055363,
        "Lon": 121.447835,
        "Sequence": 46,
        "StationID": "1165604546"
      },
      {
        "Name": "捷運新莊副都心站(中央路)",
        "Lat": 25.057744,
        "Lon": 121.446968,
        "Sequence": 47,
        "StationID": "1165603329"
      },
      {
        "Name": "行政院新莊聯合辦公大樓(中平路)",
        "Lat": 25.056918,
        "Lon": 121.444029,
        "Sequence": 48,
        "StationID": "1165603323"
      },
      {
        "Name": "捷運泰山站",
        "Lat": 25.05314,
        "Lon": 121.439231,
        "Sequence": 49,
        "StationID": "73619"
      },
      {
        "Name": "捷運泰山站(泰林路)",
        "Lat": 25.05312196,
        "Lon": 121.4382775,
        "Sequence": 50,
        "StationID": "36072"
      },
      {
        "Name": "泰林仁德路口",
        "Lat": 25.057291,
        "Lon": 121.435831,
        "Sequence": 51,
        "StationID": "36074"
      }
    ]
  }
]