[
  {
    "Route": "紅7",
    "SubRoute": "紅7",
    "Direction": 0,
    "Stops": [
      {
        "Name": "捷運劍潭站(北藝中心)",
        "Lat": 25.084952,
        "Lon": 121.525031,
        "Sequence": 1,
        "StationID": "1000256"
      },
      {
        "Name": "陽明戲院",
        "Lat": 25.0874398,
        "Lon": 121.5260219,
        "Sequence": 2,
        "StationID": "7261"
      },
      {
        "Name": "小北街",
        "Lat": 25.0907094764658,
        "Lon": 121.526963489882,
        "Sequence": 3,
        "StationID": "10208"
      },
      {
        "Name": "士林區農會",
        "Lat": 25.0928638299869,
        "Lon": 121.525671636781,
        "Sequence": 4,
        "StationID": "583"
      },
      {
        "Name": "士林國中",
        "Lat": 25.094828,
        "Lon": 121.523269,
        "Sequence": 5,
        "StationID": "1000275"
      },
      {
        "Name": "士林區行政中心(中正)",
        "Lat": 25.093132,
        "Lon": 121.519396,
        "Sequence": 6,
        "StationID": "575"
      },
      {
        "Name": "陽明高中",
        "Lat": 25.092141,
        "Lon": 121.517889,
        "Sequence": 7,
        "StationID": "1000115"
      },
      {
        "Name": "社子市場",
        "Lat": 25.08750559,
        "Lon": 121.5090743,
        "Sequence": 8,
        "StationID": "5987"
      },
      {
        "Name": "社正路",
        "Lat": 25.08883486,
        "Lon": 121.5098955,
        "Sequence": 9,
        "StationID": "742"
      },
      {
        "Name": "國泰人壽大樓",
        "Lat": 25.09057,
        "Lon": 121.50954,
        "Sequence": 10,
        "StationID": "36109"
      },
      {
        "Name": "社子公園",
        "Lat": 25.09179635,
        "Lon": 121.5070241,
        "Sequence": 11,
        "StationID": "737"
      },
      {
        "Name": "永平街口",
        "Lat": 25.09236688,
        "Lon": 121.5046468,
        "Sequence": 12,
        "StationID": "36108"
      },
      {
        "Name": "永倫里(社中)",
        "Lat": 25.09153,
        "Lon": 121.50203,
        "Sequence": 13,
        "StationID": "5041"
      },
      {
        "Name": "永倫里(延平)",
        "Lat": 25.091148,
        "Lon": 121.500682,
        "Sequence": 14,
        "StationID": "5981"
      },
      {
        "Name": "洲美橋",
        "Lat": 25.0926589514351,
        "Lon": 121.499221916662,
        "Sequence": 15,
        "StationID": "892"
      },
      {
        "Name": "中窟",
        "Lat": 25.09534,
        "Lon": 121.49649,
        "Sequence": 16,
        "StationID": "622"
      },
      {
        "Name": "福安里一",
        "Lat": 25.097666,
        "Lon": 121.494972,
        "Sequence": 17,
        "StationID": "1165606555"
      },
      {
        "Name": "許英媽廟",
        "Lat": 25.09914,
        "Lon": 121.49549,
        "Sequence": 18,
        "StationID": "817"
      },
      {
        "Name": "福安宮",
        "Lat": 25.10061,
        "Lon": 121.496,
        "Sequence": 19,
        "StationID": "16210"
      },
      {
        "Name": "明安宮",
        "Lat": 25.10207,
        "Lon": 121.49608,
        "Sequence": 20,
        "StationID": "230"
      },
      {
        "Name": "工業區",
        "Lat": 25.1042,
        "Lon": 121.4958,
        "Sequence": 21,
        "StationID": "600"
      },
      {
        "Name": "浮洲活動中心",
        "Lat": 25.10978,
        "Lon": 121.49004,
        "Sequence": 22,
        "StationID": "780"
      },
      {
        "Name": "萬金路口",
        "Lat": 25.1093014,
        "Lon": 121.4864995,
        "Sequence": 23,
        "StationID": "1000913"
      }
    ]
  },
  {
    "Route": "紅7",
    "SubRoute": "紅7",
    "Direction": 1,
    "Stops": [
      {
        "Name": "沙埔",
        "Lat": 25.1061,
        "Lon": 121.48682,
        "Sequence": 1,
        "StationID": "706"
      },
      {
        "Name": "福安國中",
        "Lat": 25.10323827,
        "Lon": 121.4872193,
        "Sequence": 2,
        "StationID": "895"
      },
      {
        "Name": "臨江園",
        "Lat": 25.1017,
        "Lon": 121.48915,
        "Sequence": 3,
        "StationID": "942"
      },
      {
        "Name": "地藏禪寺",
        "Lat": 25.09956,
        "Lon": 121.49168,
        "Sequence": 4,
        "StationID": "691"
      },
      {
        "Name": "下竹圍",
        "Lat": 25.09816,
        "Lon": 121.49333,
        "Sequence": 5,
        "StationID": "3869"
      },
      {
        "Name": "福安區民活動中心",
        "Lat": 25.09707,
        "Lon": 121.49461,
        "Sequence": 6,
        "StationID": "894"
      },
      {
        "Name": "福安里",
        "Lat": 25.09612,
        "Lon": 121.49561,
        "Sequence": 7,
        "StationID": "893"
      },
      {
        "Name": "普濟堂",
        "Lat": 25.094151501983,
        "Lon": 121.497441758086,
        "Sequence": 8,
        "StationID": "830"
      },
      {
        "Name": "永倫里(社中)",
        "Lat": 25.0915924041245,
        "Lon": 121.502293348396,
        "Sequence": 9,
        "StationID": "36106"
      },
      {
        "Name": "永平街口",
        "Lat": 25.09227372,
        "Lon": 121.5047689,
        "Sequence": 10,
        "StationID": "1165606175"
      },
      {
        "Name": "社子公園",
        "Lat": 25.09164,
        "Lon": 121.5072,
        "Sequence": 11,
        "StationID": "36107"
      },
      {
        "Name": "國泰人壽大樓",
        "Lat": 25.09056,
        "Lon": 121.50942,
        "Sequence": 12,
        "StationID": "791"
      },
      {
        "Name": "社正路",
        "Lat": 25.08893644,
        "Lon": 121.5099769,
        "Sequence": 13,
        "StationID": "36105"
      },
      {
        "Name": "社子市場",
        "Lat": 25.0880464,
        "Lon": 121.5087166,
        "Sequence": 14,
        "StationID": "738"
      },
      {
        "Name": "陽明高中",
        "Lat": 25.09192,
        "Lon": 121.51817,
        "Sequence": 15,
        "StationID": "860"
      },
      {
        "Name": "士林區行政中心(中正)",
        "Lat": 25.092636,
        "Lon": 121.519189,
        "Sequence": 16,
        "StationID": "581"
      },
      {
        "Name": "士林國中",
        "Lat": 25.0946048451863,
        "Lon": 121.52330153373,
        "Sequence": 17,
        "StationID": "586"
      },
      {
        "Name": "士林國小",
        "Lat": 25.094058815207,
        "Lon": 121.524789386925,
        "Sequence": 18,
        "StationID": "5040"
      },
      {
        "Name": "小北街",
        "Lat": 25.090999,
        "Lon": 121.526725,
        "Sequence": 19,
        "StationID": "1165604808"
      },
      {
        "Name": "陽明戲院",
        "Lat": 25.08770498,
        "Lon": 121.5259209,
        "Sequence": 20,
        "StationID": "862"
      },
      {
        "Name": "捷運劍潭站(中山)",
        "Lat": 25.085353,
        "Lon": 121.525327,
        "Sequence": 21,
        "StationID": "803"
      }
    ]
  }
]