[
  {
    "Route": "內科通勤專車17",
    "SubRoute": "內科17(士林-內科)",
    "Direction": 0,
    "Stops": [
      {
        "Name": "士林高商",
        "Lat": 25.09415239272792,
        "Lon": 121.51711224794106,
        "Sequence": 1,
        "StationID": "580"
      },
      {
        "Name": "士林區行政中心(中正)",
        "Lat": 25.092636,
        "Lon": 121.519189,
        "Sequence": 2,
        "StationID": "581"
      },
      {
        "Name": "士林國中",
        "Lat": 25.0946048451863,
        "Lon": 121.52330153373,
        "Sequence": 3,
        "StationID": "586"
      },
      {
        "Name": "捷運士林站(中正)",
        "Lat": 25.09550407,
        "Lon": 121.5270438,
        "Sequence": 4,
        "StationID": "795"
      },
      {
        "Name": "捷運士林站(中山)",
        "Lat": 25.092853732851424,
        "Lon": 121.5276799453955,
        "Sequence": 5,
        "StationID": "796"
      },
      {
        "Name": "台電台北北區營業處",
        "Lat": 25.09069989,
        "Lon": 121.5273919,
        "Sequence": 6,
        "StationID": "1000264"
      },
      {
        "Name": "銘傳大學",
        "Lat": 25.08800277,
        "Lon": 121.5269357,
        "Sequence": 7,
        "StationID": "913"
      },
      {
        "Name": "捷運劍潭站(中山)",
        "Lat": 25.085353,
        "Lon": 121.525327,
        "Sequence": 8,
        "StationID": "803"
      },
      {
        "Name": "劍潭",
        "Lat": 25.0817595131148,
        "Lon": 121.524712226022,
        "Sequence": 9,
        "StationID": "1000266"
      },
      {
        "Name": "基湖站",
        "Lat": 25.0801,
        "Lon": 121.56489,
        "Sequence": 12,
        "StationID": "8405"
      },
      {
        "Name": "基湖路口",
        "Lat": 25.08025003,
        "Lon": 121.5662362,
        "Sequence": 13,
        "StationID": "8404"
      },
      {
        "Name": "仁寶大樓",
        "Lat": 25.07921316,
        "Lon": 121.5684974,
        "Sequence": 14,
        "StationID": "1007"
      },
      {
        "Name": "瑞光港墘路口",
        "Lat": 25.077753,
        "Lon": 121.571868,
        "Sequence": 15,
        "StationID": "1013"
      },
      {
        "Name": "瑞光路",
        "Lat": 25.074821,
        "Lon": 121.577343,
        "Sequence": 16,
        "StationID": "1132"
      }
    ]
  },
  {
    "Route": "內科通勤專車17",
    "SubRoute": "內科17(內科-士林)",
    "Direction": 1,
    "Stops": [
      {
        "Name": "瑞光路",
        "Lat": 25.074821,
        "Lon": 121.577343,
        "Sequence": 1,
        "StationID": "1132"
      },
      {
        "Name": "瑞光港墘路口",
        "Lat": 25.07729684,
        "Lon": 121.5731066,
        "Sequence": 2,
        "StationID": "1000895"
      },
      {
        "Name": "仁寶大樓",
        "Lat": 25.079478,
        "Lon": 121.568256,
        "Sequence": 3,
        "StationID": "1000896"
      },
      {
        "Name": "基湖路口",
        "Lat": 25.0805158061818,
        "Lon": 121.565903409458,
        "Sequence": 4,
        "StationID": "8403"
      },
      {
        "Name": "基湖站",
        "Lat": 25.07973077,
        "Lon": 121.5646071,
        "Sequence": 5,
        "StationID": "1083"
      },
      {
        "Name": "劍潭",
        "Lat": 25.0805889011559,
        "Lon": 121.524381872313,
        "Sequence": 9,
        "StationID": "50629"
      },
      {
        "Name": "捷運劍潭站(北藝中心)",
        "Lat": 25.084952,
        "Lon": 121.525031,
        "Sequence": 10,
        "StationID": "1000256"
      },
      {
        "Name": "小北街",
        "Lat": 25.0907094764658,
        "Lon": 121.526963489882,
        "Sequence": 11,
        "StationID": "10208"
      },
      {
        "Name": "士林國中",
        "Lat": 25.094772,
        "Lon": 121.522929,
        "Sequence": 12,
        "StationID": "1165604814"
      },
      {
        "Name": "士林區行政中心(中正)",
        "Lat": 25.09406,
        "Lon": 121.52085,
        "Sequence": 13,
        "StationID": "1165608555"
      }
    ]
  }
]