[
  {
    "Route": "905副",
    "SubRoute": "905副",
    "Direction": 0,
    "Stops": [
      {
        "Name": "錦秀路口",
        "Lat": 24.945972,
        "Lon": 121.479176,
        "Sequence": 1,
        "StationID": "1165603298"
      },
      {
        "Name": "碧瑤",
        "Lat": 24.94681,
        "Lon": 121.47982,
        "Sequence": 2,
        "StationID": "60048"
      },
      {
        "Name": "日興市民活動中心",
        "Lat": 24.948762,
        "Lon": 121.481962,
        "Sequence": 3,
        "StationID": "4119"
      },
      {
        "Name": "三城",
        "Lat": 24.949637,
        "Lon": 121.483119,
        "Sequence": 4,
        "StationID": "1000372"
      },
      {
        "Name": "建業路",
        "Lat": 24.95121,
        "Lon": 121.484465,
        "Sequence": 5,
        "StationID": "1000374"
      },
      {
        "Name": "二城",
        "Lat": 24.95159154,
        "Lon": 121.4860328,
        "Sequence": 6,
        "StationID": "1000375"
      },
      {
        "Name": "中央印製廠",
        "Lat": 24.951722671131,
        "Lon": 121.488385431569,
        "Sequence": 7,
        "StationID": "1000376"
      },
      {
        "Name": "中央新城",
        "Lat": 24.951708,
        "Lon": 121.489551,
        "Sequence": 8,
        "StationID": "2868"
      },
      {
        "Name": "頭城",
        "Lat": 24.95177354,
        "Lon": 121.4915448,
        "Sequence": 9,
        "StationID": "1000379"
      },
      {
        "Name": "頭城一",
        "Lat": 24.952962,
        "Lon": 121.493053,
        "Sequence": 10,
        "StationID": "2975"
      },
      {
        "Name": "大茅埔",
        "Lat": 24.95431753,
        "Lon": 121.4946626,
        "Sequence": 11,
        "StationID": "1000380"
      },
      {
        "Name": "康樂新村",
        "Lat": 24.955162,
        "Lon": 121.496698,
        "Sequence": 12,
        "StationID": "1000381"
      },
      {
        "Name": "仁康醫院",
        "Lat": 24.956348,
        "Lon": 121.499054,
        "Sequence": 13,
        "StationID": "3983"
      },
      {
        "Name": "薏仁坑",
        "Lat": 24.95733611,
        "Lon": 121.502106,
        "Sequence": 14,
        "StationID": "3982"
      },
      {
        "Name": "安康車子路口",
        "Lat": 24.958027,
        "Lon": 121.505929,
        "Sequence": 15,
        "StationID": "3984"
      },
      {
        "Name": "台北菸廠",
        "Lat": 24.959017,
        "Lon": 121.509284,
        "Sequence": 16,
        "StationID": "2887"
      },
      {
        "Name": "浪漫貴族",
        "Lat": 24.960016,
        "Lon": 121.511483,
        "Sequence": 17,
        "StationID": "1000401"
      },
      {
        "Name": "公崙新村(豐榮醫院)",
        "Lat": 24.962041,
        "Lon": 121.512648,
        "Sequence": 18,
        "StationID": "1000402"
      },
      {
        "Name": "安康派出所",
        "Lat": 24.963642,
        "Lon": 121.515311,
        "Sequence": 19,
        "StationID": "1000403"
      },
      {
        "Name": "輕軌安康站",
        "Lat": 24.96503,
        "Lon": 121.517257,
        "Sequence": 20,
        "StationID": "4134"
      },
      {
        "Name": "及人中學",
        "Lat": 24.967108,
        "Lon": 121.518062,
        "Sequence": 21,
        "StationID": "1000504"
      },
      {
        "Name": "十四份",
        "Lat": 24.969329,
        "Lon": 121.518795,
        "Sequence": 22,
        "StationID": "1000505"
      },
      {
        "Name": "光華街口",
        "Lat": 24.970794,
        "Lon": 121.51914,
        "Sequence": 23,
        "StationID": "72245"
      },
      {
        "Name": "輕軌陽光運動公園站",
        "Lat": 24.972839,
        "Lon": 121.519852,
        "Sequence": 24,
        "StationID": "1000506"
      },
      {
        "Name": "石頭厝",
        "Lat": 24.974308,
        "Lon": 121.51912,
        "Sequence": 25,
        "StationID": "1000510"
      },
      {
        "Name": "安和路二段",
        "Lat": 24.976061,
        "Lon": 121.517372,
        "Sequence": 26,
        "StationID": "1000512"
      },
      {
        "Name": "陽光運動公園(新店花市)",
        "Lat": 24.97725375,
        "Lon": 121.5167886,
        "Sequence": 27,
        "StationID": "1000974"
      },
      {
        "Name": "和平高中",
        "Lat": 25.01963,
        "Lon": 121.54746,
        "Sequence": 29,
        "StationID": "2254"
      },
      {
        "Name": "敦化和平路口",
        "Lat": 25.02391,
        "Lon": 121.54898,
        "Sequence": 30,
        "StationID": "209"
      },
      {
        "Name": "成功國宅",
        "Lat": 25.02759922,
        "Lon": 121.5490337,
        "Sequence": 31,
        "StationID": "13101"
      },
      {
        "Name": "大安國中",
        "Lat": 25.02967,
        "Lon": 121.54906,
        "Sequence": 32,
        "StationID": "2186"
      },
      {
        "Name": "信義敦化路口",
        "Lat": 25.03196,
        "Lon": 121.54906,
        "Sequence": 33,
        "StationID": "13102"
      },
      {
        "Name": "仁愛國中(外交學院)",
        "Lat": 25.035951071734246,
        "Lon": 121.5490897913242,
        "Sequence": 34,
        "StationID": "4170"
      },
      {
        "Name": "安和敦化路口",
        "Lat": 25.039336,
        "Lon": 121.549163,
        "Sequence": 35,
        "StationID": "2211"
      },
      {
        "Name": "捷運忠孝敦化站",
        "Lat": 25.0430127,
        "Lon": 121.549174,
        "Sequence": 36,
        "StationID": "2259"
      },
      {
        "Name": "市民大道口",
        "Lat": 25.04575795,
        "Lon": 121.5491941,
        "Sequence": 37,
        "StationID": "13104"
      },
      {
        "Name": "市立體育場",
        "Lat": 25.048949,
        "Lon": 121.549204,
        "Sequence": 38,
        "StationID": "1510"
      },
      {
        "Name": "臺北小巨蛋",
        "Lat": 25.05258,
        "Lon": 121.54933,
        "Sequence": 39,
        "StationID": "13105"
      },
      {
        "Name": "長庚醫院",
        "Lat": 25.05668072,
        "Lon": 121.5492693,
        "Sequence": 40,
        "StationID": "1544"
      },
      {
        "Name": "公教住宅",
        "Lat": 25.05792823,
        "Lon": 121.5525641,
        "Sequence": 41,
        "StationID": "1495"
      },
      {
        "Name": "介壽國中",
        "Lat": 25.058201423962956,
        "Lon": 121.55569442816517,
        "Sequence": 42,
        "StationID": "1497"
      },
      {
        "Name": "聯合二村",
        "Lat": 25.0585017739443,
        "Lon": 121.559216750962,
        "Sequence": 43,
        "StationID": "1597"
      },
      {
        "Name": "民生社區活動中心",
        "Lat": 25.0586405271738,
        "Lon": 121.560927032747,
        "Sequence": 44,
        "StationID": "1506"
      },
      {
        "Name": "廣合新村",
        "Lat": 25.06067,
        "Lon": 121.56339,
        "Sequence": 45,
        "StationID": "1594"
      },
      {
        "Name": "三民國小",
        "Lat": 25.06279839209022,
        "Lon": 121.56364748952177,
        "Sequence": 46,
        "StationID": "8671"
      },
      {
        "Name": "新益里",
        "Lat": 25.062286,
        "Lon": 121.566155,
        "Sequence": 47,
        "StationID": "1503"
      }
    ]
  },
  {
    "Route": "905副",
    "SubRoute": "905副",
    "Direction": 1,
    "Stops": [
      {
        "Name": "民生國中",
        "Lat": 25.05966141,
        "Lon": 121.5679233,
        "Sequence": 1,
        "StationID": "1507"
      },
      {
        "Name": "新東街口",
        "Lat": 25.0591755,
        "Lon": 121.5663295,
        "Sequence": 2,
        "StationID": "60133"
      },
      {
        "Name": "民生社區活動中心",
        "Lat": 25.058808540179,
        "Lon": 121.561144568697,
        "Sequence": 3,
        "StationID": "1000074"
      },
      {
        "Name": "聯合二村",
        "Lat": 25.0586249332513,
        "Lon": 121.558923442523,
        "Sequence": 4,
        "StationID": "1000075"
      },
      {
        "Name": "介壽國中",
        "Lat": 25.058415078013,
        "Lon": 121.556044429017,
        "Sequence": 5,
        "StationID": "10408"
      },
      {
        "Name": "公教住宅",
        "Lat": 25.05813129,
        "Lon": 121.5526273,
        "Sequence": 6,
        "StationID": "10421"
      },
      {
        "Name": "長春敦化路口",
        "Lat": 25.05458,
        "Lon": 121.54883,
        "Sequence": 7,
        "StationID": "1298"
      },
      {
        "Name": "臺北小巨蛋",
        "Lat": 25.052139,
        "Lon": 121.548768,
        "Sequence": 8,
        "StationID": "13107"
      },
      {
        "Name": "八德敦化路口",
        "Lat": 25.04864,
        "Lon": 121.54874,
        "Sequence": 9,
        "StationID": "1488"
      },
      {
        "Name": "市民敦化路口",
        "Lat": 25.04527113,
        "Lon": 121.548797,
        "Sequence": 10,
        "StationID": "13109"
      },
      {
        "Name": "忠孝敦化路口",
        "Lat": 25.04186596,
        "Lon": 121.5487541,
        "Sequence": 11,
        "StationID": "2262"
      },
      {
        "Name": "仁愛敦化路口",
        "Lat": 25.039043,
        "Lon": 121.548697,
        "Sequence": 12,
        "StationID": "13111"
      },
      {
        "Name": "信義敦化路口",
        "Lat": 25.033775,
        "Lon": 121.548726,
        "Sequence": 13,
        "StationID": "13112"
      },
      {
        "Name": "大安國中",
        "Lat": 25.03207451,
        "Lon": 121.5483934,
        "Sequence": 14,
        "StationID": "1165610330"
      },
      {
        "Name": "成功國宅",
        "Lat": 25.0284111,
        "Lon": 121.5484575,
        "Sequence": 15,
        "StationID": "2241"
      },
      {
        "Name": "鳳雛公園",
        "Lat": 25.026461,
        "Lon": 121.548418,
        "Sequence": 16,
        "StationID": "13115"
      },
      {
        "Name": "敦化和平路口",
        "Lat": 25.02391,
        "Lon": 121.54858,
        "Sequence": 17,
        "StationID": "13116"
      },
      {
        "Name": "和平高中",
        "Lat": 25.02024,
        "Lon": 121.54763,
        "Sequence": 18,
        "StationID": "2253"
      },
      {
        "Name": "基隆長興街口",
        "Lat": 25.01851242321545,
        "Lon": 121.5456371524934,
        "Sequence": 19,
        "StationID": "2244"
      },
      {
        "Name": "臺大癌醫(基隆路)",
        "Lat": 25.01576,
        "Lon": 121.542278,
        "Sequence": 20,
        "StationID": "2226"
      },
      {
        "Name": "陽光運動公園(新店花市)",
        "Lat": 24.97735333,
        "Lon": 121.5165771,
        "Sequence": 21,
        "StationID": "2944"
      },
      {
        "Name": "安和路二段",
        "Lat": 24.975951,
        "Lon": 121.517269,
        "Sequence": 22,
        "StationID": "2899"
      },
      {
        "Name": "石頭厝",
        "Lat": 24.97410976,
        "Lon": 121.5188677,
        "Sequence": 23,
        "StationID": "2894"
      },
      {
        "Name": "輕軌陽光運動公園站",
        "Lat": 24.97278102,
        "Lon": 121.5195205,
        "Sequence": 24,
        "StationID": "2916"
      },
      {
        "Name": "光華街口",
        "Lat": 24.97032,
        "Lon": 121.51876,
        "Sequence": 25,
        "StationID": "72246"
      },
      {
        "Name": "十四份",
        "Lat": 24.96923,
        "Lon": 121.51843,
        "Sequence": 26,
        "StationID": "2850"
      },
      {
        "Name": "及人中學",
        "Lat": 24.96730265,
        "Lon": 121.5177866,
        "Sequence": 27,
        "StationID": "2882"
      },
      {
        "Name": "輕軌安康站",
        "Lat": 24.964849,
        "Lon": 121.51695,
        "Sequence": 28,
        "StationID": "4135"
      },
      {
        "Name": "安康派出所",
        "Lat": 24.963346,
        "Lon": 121.514015,
        "Sequence": 29,
        "StationID": "2900"
      },
      {
        "Name": "公崙新村(豐榮醫院)",
        "Lat": 24.961978,
        "Lon": 121.512518,
        "Sequence": 30,
        "StationID": "2876"
      },
      {
        "Name": "浪漫貴族",
        "Lat": 24.95991,
        "Lon": 121.51084,
        "Sequence": 31,
        "StationID": "2917"
      },
      {
        "Name": "台北菸廠",
        "Lat": 24.95887022,
        "Lon": 121.5084746,
        "Sequence": 32,
        "StationID": "2886"
      },
      {
        "Name": "安康車子路口",
        "Lat": 24.95808137,
        "Lon": 121.5048646,
        "Sequence": 33,
        "StationID": "2905"
      },
      {
        "Name": "薏仁坑",
        "Lat": 24.957301,
        "Lon": 121.501307,
        "Sequence": 34,
        "StationID": "2979"
      },
      {
        "Name": "仁康醫院",
        "Lat": 24.956813,
        "Lon": 121.499692,
        "Sequence": 35,
        "StationID": "2901"
      },
      {
        "Name": "康樂新村",
        "Lat": 24.95549,
        "Lon": 121.4972383,
        "Sequence": 36,
        "StationID": "2922"
      },
      {
        "Name": "大茅埔",
        "Lat": 24.954594,
        "Lon": 121.494847,
        "Sequence": 37,
        "StationID": "2859"
      },
      {
        "Name": "頭城一",
        "Lat": 24.952911,
        "Lon": 121.492819,
        "Sequence": 38,
        "StationID": "2977"
      },
      {
        "Name": "頭城",
        "Lat": 24.95188782,
        "Lon": 121.4914979,
        "Sequence": 39,
        "StationID": "2974"
      },
      {
        "Name": "中央印製廠",
        "Lat": 24.951867,
        "Lon": 121.488257,
        "Sequence": 40,
        "StationID": "2866"
      },
      {
        "Name": "二城",
        "Lat": 24.951821,
        "Lon": 121.48623,
        "Sequence": 41,
        "StationID": "2851"
      },
      {
        "Name": "建業路",
        "Lat": 24.95122,
        "Lon": 121.48431,
        "Sequence": 42,
        "StationID": "2913"
      },
      {
        "Name": "三城",
        "Lat": 24.949649,
        "Lon": 121.482922,
        "Sequence": 43,
        "StationID": "2856"
      },
      {
        "Name": "日興市民活動中心",
        "Lat": 24.948736,
        "Lon": 121.481227,
        "Sequence": 44,
        "StationID": "4120"
      },
      {
        "Name": "碧瑤",
        "Lat": 24.946929,
        "Lon": 121.47968,
        "Sequence": 45,
        "StationID": "2955"
      }
    ]
  },
  {
    "Route": "905副",
    "SubRoute": "905副返程半",
    "Direction": 1,
    "Stops": [
      {
        "Name": "民生國中",
        "Lat": 25.05966141,
        "Lon": 121.5679233,
        "Sequence": 1,
        "StationID": "1507"
      },
      {
        "Name": "新東街口",
        "Lat": 25.0591755,
        "Lon": 121.5663295,
        "Sequence": 2,
        "StationID": "60133"
      },
      {
        "Name": "民生社區活動中心",
        "Lat": 25.058808540179,
        "Lon": 121.561144568697,
        "Sequence": 3,
        "StationID": "1000074"
      },
      {
        "Name": "聯合二村",
        "Lat": 25.0586249332513,
        "Lon": 121.558923442523,
        "Sequence": 4,
        "StationID": "1000075"
      },
      {
        "Name": "介壽國中",
        "Lat": 25.058415078013,
        "Lon": 121.556044429017,
        "Sequence": 5,
        "StationID": "10408"
      },
      {
        "Name": "公教住宅",
        "Lat": 25.05813129,
        "Lon": 121.5526273,
        "Sequence": 6,
        "StationID": "10421"
      },
      {
        "Name": "長春敦化路口",
        "Lat": 25.05458,
        "Lon": 121.54883,
        "Sequence": 7,
        "StationID": "1298"
      },
      {
        "Name": "臺北小巨蛋",
        "Lat": 25.052139,
        "Lon": 121.548768,
        "Sequence": 8,
        "StationID": "13107"
      },
      {
        "Name": "八德敦化路口",
        "Lat": 25.04864,
        "Lon": 121.54874,
        "Sequence": 9,
        "StationID": "1488"
      },
      {
        "Name": "市民敦化路口",
        "Lat": 25.04527113,
        "Lon": 121.548797,
        "Sequence": 10,
        "StationID": "13109"
      },
      {
        "Name": "忠孝敦化路口",
        "Lat": 25.04186596,
        "Lon": 121.5487541,
        "Sequence": 11,
        "StationID": "2262"
      },
      {
        "Name": "仁愛敦化路口",
        "Lat": 25.039043,
        "Lon": 121.548697,
        "Sequence": 12,
        "StationID": "13111"
      },
      {
        "Name": "信義敦化路口",
        "Lat": 25.033775,
        "Lon": 121.548726,
        "Sequence": 13,
        "StationID": "13112"
      },
      {
        "Name": "大安國中",
        "Lat": 25.03207451,
        "Lon": 121.5483934,
        "Sequence": 14,
        "StationID": "1165610330"
      },
      {
        "Name": "成功國宅",
        "Lat": 25.0284111,
        "Lon": 121.5484575,
        "Sequence": 15,
        "StationID": "2241"
      },
      {
        "Name": "鳳雛公園",
        "Lat": 25.026461,
        "Lon": 121.548418,
        "Sequence": 16,
        "StationID": "13115"
      },
      {
        "Name": "敦化和平路口",
        "Lat": 25.02391,
        "Lon": 121.54858,
        "Sequence": 17,
        "StationID": "13116"
      },
      {
        "Name": "和平高中",
        "Lat": 25.02024,
        "Lon": 121.54763,
        "Sequence": 18,
        "StationID": "2253"
      },
      {
        "Name": "基隆長興街口",
        "Lat": 25.01851242321545,
        "Lon": 121.5456371524934,
        "Sequence": 19,
        "StationID": "2244"
      },
      {
        "Name": "臺大癌醫(基隆路)",
        "Lat": 25.01576,
        "Lon": 121.542278,
        "Sequence": 20,
        "StationID": "2226"
      },
      {
        "Name": "陽光運動公園(新店花市)",
        "Lat": 24.97735333,
        "Lon": 121.5165771,
        "Sequence": 21,
        "StationID": "2944"
      },
      {
        "Name": "安和路二段",
        "Lat": 24.975951,
        "Lon": 121.517269,
        "Sequence": 22,
        "StationID": "2899"
      },
      {
        "Name": "石頭厝",
        "Lat": 24.97410976,
        "Lon": 121.5188677,
        "Sequence": 23,
        "StationID": "2894"
      },
      {
        "Name": "輕軌陽光運動公園站",
        "Lat": 24.97278102,
        "Lon": 121.5195205,
        "Sequence": 24,
        "StationID": "2916"
      },
      {
        "Name": "光華街口",
        "Lat": 24.97032,
        "Lon": 121.51876,
        "Sequence": 25,
        "StationID": "72246"
      },
      {
        "Name": "十四份",
        "Lat": 24.96923,
        "Lon": 121.51843,
        "Sequence": 26,
        "StationID": "2850"
      },
      {
        "Name": "及人中學",
        "Lat": 24.96730265,
        "Lon": 121.5177866,
        "Sequence": 27,
        "StationID": "2882"
      },
      {
        "Name": "輕軌安康站",
        "Lat": 24.964849,
        "Lon": 121.51695,
        "Sequence": 28,
        "StationID": "4135"
      },
      {
        "Name": "安康派出所",
        "Lat": 24.963346,
        "Lon": 121.514015,
        "Sequence": 29,
        "StationID": "2900"
      },
      {
        "Name": "公崙新村(豐榮醫院)",
        "Lat": 24.961978,
        "Lon": 121.512518,
        "Sequence": 30,
        "StationID": "2876"
      },
      {
        "Name": "浪漫貴族",
        "Lat": 24.95991,
        "Lon": 121.51084,
        "Sequence": 31,
        "StationID": "2917"
      },
      {
        "Name": "台北菸廠",
        "Lat": 24.95887022,
        "Lon": 121.5084746,
        "Sequence": 32,
        "StationID": "2886"
      },
      {
        "Name": "安康車子路口",
        "Lat": 24.95808137,
        "Lon": 121.5048646,
        "Sequence": 33,
        "StationID": "2905"
      },
      {
        "Name": "薏仁坑",
        "Lat": 24.957301,
        "Lon": 121.501307,
        "Sequence": 34,
        "StationID": "2979"
      },
      {
        "Name": "仁康醫院",
        "Lat": 24.956813,
        "Lon": 121.499692,
        "Sequence": 35,
        "StationID": "2901"
      },
      {
        "Name": "康樂新村",
        "Lat": 24.95549,
        "Lon": 121.4972383,
        "Sequence": 36,
        "StationID": "2922"
      },
      {
        "Name": "大茅埔",
        "Lat": 24.954594,
        "Lon": 121.494847,
        "Sequence": 37,
        "StationID": "2859"
      },
      {
        "Name": "頭城一",
        "Lat": 24.952911,
        "Lon": 121.492819,
        "Sequence": 38,
        "StationID": "2977"
      },
      {
        "Name": "頭城",
        "Lat": 24.95188782,
        "Lon": 121.4914979,
        "Sequence": 39,
        "StationID": "2974"
      },
      {
        "Name": "中央印製廠",
        "Lat": 24.951867,
        "Lon": 121.488257,
        "Sequence": 40,
        "StationID": "2866"
      },
      {
        "Name": "二城",
        "Lat": 24.951821,
        "Lon": 121.48623,
        "Sequence": 41,
        "StationID": "2851"
      },
      {
        "Name": "建業路",
        "Lat": 24.95122,
        "Lon": 121.48431,
        "Sequence": 42,
        "StationID": "2913"
      },
      {
        "Name": "三城",
        "Lat": 24.949649,
        "Lon": 121.482922,
        "Sequence": 43,
        "StationID": "2856"
      },
      {
        "Name": "日興市民活動中心",
        "Lat": 24.948736,
        "Lon": 121.481227,
        "Sequence": 44,
        "StationID": "4120"
      },
      {
        "Name": "碧瑤",
        "Lat": 24.946929,
        "Lon": 121.47968,
        "Sequence": 45,
        "StationID": "2955"
      }
    ]
  }
]