[
  {
    "Route": "南京幹線",
    "SubRoute": "南京幹線",
    "Direction": 0,
    "Stops": [
      {
        "Name": "東新國小",
        "Lat": 25.0576,
        "Lon": 121.60365,
        "Sequence": 1
      },
      {
        "Name": "南港高工(重陽)",
        "Lat": 25.058155,
        "Lon": 121.60707,
        "Sequence": 2
      },
      {
        "Name": "育成高中",
        "Lat": 25.05884,
        "Lon": 121.60939,
        "Sequence": 3
      },
      {
        "Name": "三重里",
        "Lat": 25.05927148642987,
        "Lon": 121.61043408707262,
        "Sequence": 4
      },
      {
        "Name": "園區街",
        "Lat": 25.05897,
        "Lon": 121.61241,
        "Sequence": 5
      },
      {
        "Name": "南港軟體園區北站",
        "Lat": 25.0596223969091,
        "Lon": 121.614279736525,
        "Sequence": 6
      },
      {
        "Name": "捷運東湖站(南湖高中)",
        "Lat": 25.066845,
        "Lon": 121.611416,
        "Sequence": 7
      },
      {
        "Name": "明湖國中",
        "Lat": 25.0702607638519,
        "Lon": 121.611642249953,
        "Sequence": 8
      },
      {
        "Name": "明湖國小(公共電視台)",
        "Lat": 25.0718101504888,
        "Lon": 121.609308386226,
        "Sequence": 9
      },
      {
        "Name": "捷運葫洲站(康寧大學)",
        "Lat": 25.0726213066526,
        "Lon": 121.607610913193,
        "Sequence": 10
      },
      {
        "Name": "金湖路口",
        "Lat": 25.0735474046187,
        "Lon": 121.60468992917,
        "Sequence": 11
      },
      {
        "Name": "衛勤訓練中心",
        "Lat": 25.07383,
        "Lon": 121.602397,
        "Sequence": 12
      },
      {
        "Name": "紫雲里",
        "Lat": 25.0775703139034,
        "Lon": 121.600364932077,
        "Sequence": 13
      },
      {
        "Name": "美國在臺協會",
        "Lat": 25.079518,
        "Lon": 121.599295,
        "Sequence": 14
      },
      {
        "Name": "康寧派出所",
        "Lat": 25.08111607,
        "Lon": 121.5978951,
        "Sequence": 15
      },
      {
        "Name": "清白里",
        "Lat": 25.082986,
        "Lon": 121.596227,
        "Sequence": 16
      },
      {
        "Name": "捷運內湖站",
        "Lat": 25.0834615421604,
        "Lon": 121.593879114086,
        "Sequence": 17
      },
      {
        "Name": "湖光市場",
        "Lat": 25.081779319488682,
        "Lon": 121.59179366923021,
        "Sequence": 18
      },
      {
        "Name": "成功路三段",
        "Lat": 25.0798544258006,
        "Lon": 121.589838083526,
        "Sequence": 19
      },
      {
        "Name": "方濟中學",
        "Lat": 25.076435413204408,
        "Lon": 121.59007719697958,
        "Sequence": 20
      },
      {
        "Name": "將軍嶺",
        "Lat": 25.073372,
        "Lon": 121.58972,
        "Sequence": 21
      },
      {
        "Name": "國防醫學中心",
        "Lat": 25.0710371489715,
        "Lon": 121.589869957803,
        "Sequence": 22
      },
      {
        "Name": "湖興",
        "Lat": 25.0680308659982,
        "Lon": 121.590661157725,
        "Sequence": 23
      },
      {
        "Name": "上灣仔",
        "Lat": 25.0670002134225,
        "Lon": 121.590521443523,
        "Sequence": 24
      },
      {
        "Name": "石潭金豐街口",
        "Lat": 25.0632823,
        "Lon": 121.5904106,
        "Sequence": 25
      },
      {
        "Name": "南京金莊路口",
        "Lat": 25.0618022015955,
        "Lon": 121.589212889978,
        "Sequence": 26
      },
      {
        "Name": "潭美公園",
        "Lat": 25.059637621521563,
        "Lon": 121.58567426682049,
        "Sequence": 27
      },
      {
        "Name": "南京舊宗路口",
        "Lat": 25.056369580641974,
        "Lon": 121.57950353609606,
        "Sequence": 28
      },
      {
        "Name": "麥帥一橋",
        "Lat": 25.0554380798046,
        "Lon": 121.577715906746,
        "Sequence": 29
      },
      {
        "Name": "南京公寓(捷運南京三民)",
        "Lat": 25.051513187536237,
        "Lon": 121.56665364964157,
        "Sequence": 30
      },
      {
        "Name": "南京三民路口",
        "Lat": 25.05158012283465,
        "Lon": 121.56111056329053,
        "Sequence": 31
      },
      {
        "Name": "南京寧安街口",
        "Lat": 25.0516596699759,
        "Lon": 121.555516323112,
        "Sequence": 32
      },
      {
        "Name": "南京敦化路口(小巨蛋)",
        "Lat": 25.0517934820293,
        "Lon": 121.549520919642,
        "Sequence": 33
      },
      {
        "Name": "捷運南京復興站",
        "Lat": 25.05191518176843,
        "Lon": 121.5444563164689,
        "Sequence": 34
      },
      {
        "Name": "南京龍江路口",
        "Lat": 25.051994714534274,
        "Lon": 121.54085264591662,
        "Sequence": 35
      },
      {
        "Name": "南京建國路口",
        "Lat": 25.0520896887846,
        "Lon": 121.537271345417,
        "Sequence": 36
      },
      {
        "Name": "捷運松江南京站",
        "Lat": 25.0521144980622,
        "Lon": 121.533302047123,
        "Sequence": 37
      },
      {
        "Name": "南京吉林路口",
        "Lat": 25.0521129968997,
        "Lon": 121.530332504829,
        "Sequence": 38
      },
      {
        "Name": "南京林森路口",
        "Lat": 25.0521676118001,
        "Lon": 121.525717467074,
        "Sequence": 39
      },
      {
        "Name": "捷運中山站(志仁高中)",
        "Lat": 25.052867,
        "Lon": 121.519866,
        "Sequence": 40
      },
      {
        "Name": "後車站",
        "Lat": 25.05143327,
        "Lon": 121.5151374,
        "Sequence": 41
      }
    ]
  },
  {
    "Route": "南京幹線",
    "SubRoute": "南京幹線",
    "Direction": 1,
    "Stops": [
      {
        "Name": "圓環(重慶)",
        "Lat": 25.052844,
        "Lon": 121.514207,
        "Sequence": 1
      },
      {
        "Name": "圓環(南京)",
        "Lat": 25.053651217399,
        "Lon": 121.515705430802,
        "Sequence": 2
      },
      {
        "Name": "捷運中山站(志仁高中)",
        "Lat": 25.0527107746344,
        "Lon": 121.519674930441,
        "Sequence": 3
      },
      {
        "Name": "南京林森路口",
        "Lat": 25.052069472359,
        "Lon": 121.525060474751,
        "Sequence": 4
      },
      {
        "Name": "南京吉林路口",
        "Lat": 25.0520078098529,
        "Lon": 121.529855025946,
        "Sequence": 5
      },
      {
        "Name": "捷運松江南京站",
        "Lat": 25.0519912439505,
        "Lon": 121.532641149751,
        "Sequence": 6
      },
      {
        "Name": "南京建國路口",
        "Lat": 25.0519389515979,
        "Lon": 121.53627250499,
        "Sequence": 7
      },
      {
        "Name": "南京龍江路口",
        "Lat": 25.05189813653983,
        "Lon": 121.54002052720857,
        "Sequence": 8
      },
      {
        "Name": "捷運南京復興站",
        "Lat": 25.0518040049938,
        "Lon": 121.543561439976,
        "Sequence": 9
      },
      {
        "Name": "南京敦化路口(小巨蛋)",
        "Lat": 25.0517035084006,
        "Lon": 121.548353475095,
        "Sequence": 10
      },
      {
        "Name": "南京寧安街口",
        "Lat": 25.051594154729063,
        "Lon": 121.55469770362868,
        "Sequence": 11
      },
      {
        "Name": "南京三民路口",
        "Lat": 25.05148353485096,
        "Lon": 121.5602663380149,
        "Sequence": 12
      },
      {
        "Name": "南京公寓(捷運南京三民)",
        "Lat": 25.0512559293088,
        "Lon": 121.566535683299,
        "Sequence": 13
      },
      {
        "Name": "麥帥一橋",
        "Lat": 25.054593,
        "Lon": 121.577219,
        "Sequence": 14
      },
      {
        "Name": "南京舊宗路口",
        "Lat": 25.0560262183777,
        "Lon": 121.579810502461,
        "Sequence": 15
      },
      {
        "Name": "潭美公園",
        "Lat": 25.0591848,
        "Lon": 121.5857387,
        "Sequence": 16
      },
      {
        "Name": "成功路二段(交流道)",
        "Lat": 25.0646545,
        "Lon": 121.5910436,
        "Sequence": 17
      },
      {
        "Name": "上灣仔",
        "Lat": 25.066818699184,
        "Lon": 121.590714855835,
        "Sequence": 18
      },
      {
        "Name": "湖興",
        "Lat": 25.067861865327,
        "Lon": 121.59085370773,
        "Sequence": 19
      },
      {
        "Name": "國防醫學中心",
        "Lat": 25.0712104683315,
        "Lon": 121.590031196316,
        "Sequence": 20
      },
      {
        "Name": "將軍嶺",
        "Lat": 25.0738091792986,
        "Lon": 121.590016770287,
        "Sequence": 21
      },
      {
        "Name": "方濟中學",
        "Lat": 25.0768845629687,
        "Lon": 121.590231346227,
        "Sequence": 22
      },
      {
        "Name": "成功路三段",
        "Lat": 25.0796177267452,
        "Lon": 121.589939880159,
        "Sequence": 23
      },
      {
        "Name": "湖光市場",
        "Lat": 25.0816997666211,
        "Lon": 121.59200882874,
        "Sequence": 24
      },
      {
        "Name": "捷運內湖站",
        "Lat": 25.08334,
        "Lon": 121.594132,
        "Sequence": 25
      },
      {
        "Name": "清白里",
        "Lat": 25.08329381,
        "Lon": 121.5956787,
        "Sequence": 26
      },
      {
        "Name": "康寧派出所",
        "Lat": 25.08099496,
        "Lon": 121.5977367,
        "Sequence": 27
      },
      {
        "Name": "美國在臺協會",
        "Lat": 25.079466,
        "Lon": 121.599056,
        "Sequence": 28
      },
      {
        "Name": "紫雲里",
        "Lat": 25.0780426740961,
        "Lon": 121.600001703154,
        "Sequence": 29
      },
      {
        "Name": "衛勤訓練中心",
        "Lat": 25.073588,
        "Lon": 121.602349,
        "Sequence": 30
      },
      {
        "Name": "金湖路口",
        "Lat": 25.0734224462912,
        "Lon": 121.604275942446,
        "Sequence": 31
      },
      {
        "Name": "捷運葫洲站(康寧大學)",
        "Lat": 25.07246542,
        "Lon": 121.6075013,
        "Sequence": 32
      },
      {
        "Name": "明湖國小(公共電視台)",
        "Lat": 25.0716328345384,
        "Lon": 121.609320074507,
        "Sequence": 33
      },
      {
        "Name": "明湖國中",
        "Lat": 25.06996983,
        "Lon": 121.6116528,
        "Sequence": 34
      },
      {
        "Name": "捷運東湖站(南湖高中)",
        "Lat": 25.0674930032886,
        "Lon": 121.61150222666,
        "Sequence": 35
      },
      {
        "Name": "園區街",
        "Lat": 25.05914,
        "Lon": 121.61282,
        "Sequence": 36
      },
      {
        "Name": "三重里",
        "Lat": 25.05937408357435,
        "Lon": 121.61005754124962,
        "Sequence": 37
      },
      {
        "Name": "育成高中",
        "Lat": 25.05887707963565,
        "Lon": 121.60895745708942,
        "Sequence": 38
      },
      {
        "Name": "南港高工(重陽)",
        "Lat": 25.058039,
        "Lon": 121.605866,
        "Sequence": 39
      },
      {
        "Name": "東新國小",
        "Lat": 25.05778835407,
        "Lon": 121.602725808672,
        "Sequence": 40
      }
    ]
  },
  {
    "Route": "南京幹線",
    "SubRoute": "南京幹線去程半",
    "Direction": 0,
    "Stops": [
      {
        "Name": "東新國小",
        "Lat": 25.0576,
        "Lon": 121.60365,
        "Sequence": 1
      },
      {
        "Name": "南港高工(重陽)",
        "Lat": 25.058155,
        "Lon": 121.60707,
        "Sequence": 2
      },
      {
        "Name": "育成高中",
        "Lat": 25.05884,
        "Lon": 121.60939,
        "Sequence": 3
      },
      {
        "Name": "三重里",
        "Lat": 25.05927148642987,
        "Lon": 121.61043408707262,
        "Sequence": 4
      },
      {
        "Name": "園區街",
        "Lat": 25.05897,
        "Lon": 121.61241,
        "Sequence": 5
      },
      {
        "Name": "南港軟體園區北站",
        "Lat": 25.0596223969091,
        "Lon": 121.614279736525,
        "Sequence": 6
      },
      {
        "Name": "捷運東湖站(南湖高中)",
        "Lat": 25.066845,
        "Lon": 121.611416,
        "Sequence": 7
      },
      {
        "Name": "明湖國中",
        "Lat": 25.0702607638519,
        "Lon": 121.611642249953,
        "Sequence": 8
      },
      {
        "Name": "明湖國小(公共電視台)",
        "Lat": 25.0718101504888,
        "Lon": 121.609308386226,
        "Sequence": 9
      },
      {
        "Name": "捷運葫洲站(康寧大學)",
        "Lat": 25.0726213066526,
        "Lon": 121.607610913193,
        "Sequence": 10
      },
      {
        "Name": "金湖路口",
        "Lat": 25.0735474046187,
        "Lon": 121.60468992917,
        "Sequence": 11
      },
      {
        "Name": "衛勤訓練中心",
        "Lat": 25.07383,
        "Lon": 121.602397,
        "Sequence": 12
      },
      {
        "Name": "紫雲里",
        "Lat": 25.0775703139034,
        "Lon": 121.600364932077,
        "Sequence": 13
      },
      {
        "Name": "美國在臺協會",
        "Lat": 25.079518,
        "Lon": 121.599295,
        "Sequence": 14
      },
      {
        "Name": "康寧派出所",
        "Lat": 25.08111607,
        "Lon": 121.5978951,
        "Sequence": 15
      },
      {
        "Name": "清白里",
        "Lat": 25.082986,
        "Lon": 121.596227,
        "Sequence": 16
      },
      {
        "Name": "捷運內湖站",
        "Lat": 25.0834615421604,
        "Lon": 121.593879114086,
        "Sequence": 17
      },
      {
        "Name": "湖光市場",
        "Lat": 25.081779319488682,
        "Lon": 121.59179366923021,
        "Sequence": 18
      },
      {
        "Name": "成功路三段",
        "Lat": 25.0798544258006,
        "Lon": 121.589838083526,
        "Sequence": 19
      },
      {
        "Name": "方濟中學",
        "Lat": 25.076435413204408,
        "Lon": 121.59007719697958,
        "Sequence": 20
      },
      {
        "Name": "將軍嶺",
        "Lat": 25.073372,
        "Lon": 121.58972,
        "Sequence": 21
      },
      {
        "Name": "國防醫學中心",
        "Lat": 25.0710371489715,
        "Lon": 121.589869957803,
        "Sequence": 22
      },
      {
        "Name": "湖興",
        "Lat": 25.0680308659982,
        "Lon": 121.590661157725,
        "Sequence": 23
      },
      {
        "Name": "上灣仔",
        "Lat": 25.0670002134225,
        "Lon": 121.590521443523,
        "Sequence": 24
      },
      {
        "Name": "石潭金豐街口",
        "Lat": 25.0632823,
        "Lon": 121.5904106,
        "Sequence": 25
      },
      {
        "Name": "南京金莊路口",
        "Lat": 25.0618022015955,
        "Lon": 121.589212889978,
        "Sequence": 26
      },
      {
        "Name": "潭美公園",
        "Lat": 25.059637621521563,
        "Lon": 121.58567426682049,
        "Sequence": 27
      },
      {
        "Name": "南京舊宗路口",
        "Lat": 25.056369580641974,
        "Lon": 121.57950353609606,
        "Sequence": 28
      },
      {
        "Name": "麥帥一橋",
        "Lat": 25.0554380798046,
        "Lon": 121.577715906746,
        "Sequence": 29
      },
      {
        "Name": "南京公寓(捷運南京三民)",
        "Lat": 25.051513187536237,
        "Lon": 121.56665364964157,
        "Sequence": 30
      },
      {
        "Name": "南京三民路口",
        "Lat": 25.05158012283465,
        "Lon": 121.56111056329053,
        "Sequence": 31
      },
      {
        "Name": "南京寧安街口",
        "Lat": 25.0516596699759,
        "Lon": 121.555516323112,
        "Sequence": 32
      },
      {
        "Name": "南京敦化路口(小巨蛋)",
        "Lat": 25.0517934820293,
        "Lon": 121.549520919642,
        "Sequence": 33
      },
      {
        "Name": "捷運南京復興站",
        "Lat": 25.05191518176843,
        "Lon": 121.5444563164689,
        "Sequence": 34
      },
      {
        "Name": "南京龍江路口",
        "Lat": 25.051994714534274,
        "Lon": 121.54085264591662,
        "Sequence": 35
      },
      {
        "Name": "南京建國路口",
        "Lat": 25.0520896887846,
        "Lon": 121.537271345417,
        "Sequence": 36
      },
      {
        "Name": "捷運松江南京站",
        "Lat": 25.0521144980622,
        "Lon": 121.533302047123,
        "Sequence": 37
      },
      {
        "Name": "南京吉林路口",
        "Lat": 25.0521129968997,
        "Lon": 121.530332504829,
        "Sequence": 38
      },
      {
        "Name": "南京林森路口",
        "Lat": 25.0521676118001,
        "Lon": 121.525717467074,
        "Sequence": 39
      },
      {
        "Name": "捷運中山站(志仁高中)",
        "Lat": 25.052867,
        "Lon": 121.519866,
        "Sequence": 40
      },
      {
        "Name": "後車站",
        "Lat": 25.05143327,
        "Lon": 121.5151374,
        "Sequence": 41
      }
    ]
  },
  {
    "Route": "南京幹線",
    "SubRoute": "南京幹線返程半",
    "Direction": 1,
    "Stops": [
      {
        "Name": "圓環(重慶)",
        "Lat": 25.052844,
        "Lon": 121.514207,
        "Sequence": 1
      },
      {
        "Name": "圓環(南京)",
        "Lat": 25.053651217399,
        "Lon": 121.515705430802,
        "Sequence": 2
      },
      {
        "Name": "捷運中山站(志仁高中)",
        "Lat": 25.0527107746344,
        "Lon": 121.519674930441,
        "Sequence": 3
      },
      {
        "Name": "南京林森路口",
        "Lat": 25.052069472359,
        "Lon": 121.525060474751,
        "Sequence": 4
      },
      {
        "Name": "南京吉林路口",
        "Lat": 25.0520078098529,
        "Lon": 121.529855025946,
        "Sequence": 5
      },
      {
        "Name": "捷運松江南京站",
        "Lat": 25.0519912439505,
        "Lon": 121.532641149751,
        "Sequence": 6
      },
      {
        "Name": "南京建國路口",
        "Lat": 25.0519389515979,
        "Lon": 121.53627250499,
        "Sequence": 7
      },
      {
        "Name": "南京龍江路口",
        "Lat": 25.05189813653983,
        "Lon": 121.54002052720857,
        "Sequence": 8
      },
      {
        "Name": "捷運南京復興站",
        "Lat": 25.0518040049938,
        "Lon": 121.543561439976,
        "Sequence": 9
      },
      {
        "Name": "南京敦化路口(小巨蛋)",
        "Lat": 25.0517035084006,
        "Lon": 121.548353475095,
        "Sequence": 10
      },
      {
        "Name": "南京寧安街口",
        "Lat": 25.051594154729063,
        "Lon": 121.55469770362868,
        "Sequence": 11
      },
      {
        "Name": "南京三民路口",
        "Lat": 25.05148353485096,
        "Lon": 121.5602663380149,
        "Sequence": 12
      },
      {
        "Name": "南京公寓(捷運南京三民)",
        "Lat": 25.0512559293088,
        "Lon": 121.566535683299,
        "Sequence": 13
      },
      {
        "Name": "麥帥一橋",
        "Lat": 25.054593,
        "Lon": 121.577219,
        "Sequence": 14
      },
      {
        "Name": "南京舊宗路口",
        "Lat": 25.0560262183777,
        "Lon": 121.579810502461,
        "Sequence": 15
      },
      {
        "Name": "潭美公園",
        "Lat": 25.0591848,
        "Lon": 121.5857387,
        "Sequence": 16
      },
      {
        "Name": "成功路二段(交流道)",
        "Lat": 25.0646545,
        "Lon": 121.5910436,
        "Sequence": 17
      },
      {
        "Name": "上灣仔",
        "Lat": 25.066818699184,
        "Lon": 121.590714855835,
        "Sequence": 18
      },
      {
        "Name": "湖興",
        "Lat": 25.067861865327,
        "Lon": 121.59085370773,
        "Sequence": 19
      },
      {
        "Name": "國防醫學中心",
        "Lat": 25.0712104683315,
        "Lon": 121.590031196316,
        "Sequence": 20
      },
      {
        "Name": "將軍嶺",
        "Lat": 25.0738091792986,
        "Lon": 121.590016770287,
        "Sequence": 21
      },
      {
        "Name": "方濟中學",
        "Lat": 25.0768845629687,
        "Lon": 121.590231346227,
        "Sequence": 22
      },
      {
        "Name": "成功路三段",
        "Lat": 25.0796177267452,
        "Lon": 121.589939880159,
        "Sequence": 23
      },
      {
        "Name": "湖光市場",
        "Lat": 25.0816997666211,
        "Lon": 121.59200882874,
        "Sequence": 24
      },
      {
        "Name": "捷運內湖站",
        "Lat": 25.08334,
        "Lon": 121.594132,
        "Sequence": 25
      },
      {
        "Name": "清白里",
        "Lat": 25.08329381,
        "Lon": 121.5956787,
        "Sequence": 26
      },
      {
        "Name": "康寧派出所",
        "Lat": 25.08099496,
        "Lon": 121.5977367,
        "Sequence": 27
      },
      {
        "Name": "美國在臺協會",
        "Lat": 25.079466,
        "Lon": 121.599056,
        "Sequence": 28
      },
      {
        "Name": "紫雲里",
        "Lat": 25.0780426740961,
        "Lon": 121.600001703154,
        "Sequence": 29
      },
      {
        "Name": "衛勤訓練中心",
        "Lat": 25.073588,
        "Lon": 121.602349,
        "Sequence": 30
      },
      {
        "Name": "金湖路口",
        "Lat": 25.0734224462912,
        "Lon": 121.604275942446,
        "Sequence": 31
      },
      {
        "Name": "捷運葫洲站(康寧大學)",
        "Lat": 25.07246542,
        "Lon": 121.6075013,
        "Sequence": 32
      },
      {
        "Name": "明湖國小(公共電視台)",
        "Lat": 25.0716328345384,
        "Lon": 121.609320074507,
        "Sequence": 33
      },
      {
        "Name": "明湖國中",
        "Lat": 25.06996983,
        "Lon": 121.6116528,
        "Sequence": 34
      },
      {
        "Name": "捷運東湖站(南湖高中)",
        "Lat": 25.0674930032886,
        "Lon": 121.61150222666,
        "Sequence": 35
      },
      {
        "Name": "園區街",
        "Lat": 25.05914,
        "Lon": 121.61282,
        "Sequence": 36
      },
      {
        "Name": "三重里",
        "Lat": 25.05937408357435,
        "Lon": 121.61005754124962,
        "Sequence": 37
      },
      {
        "Name": "育成高中",
        "Lat": 25.05887707963565,
        "Lon": 121.60895745708942,
        "Sequence": 38
      },
      {
        "Name": "南港高工(重陽)",
        "Lat": 25.058039,
        "Lon": 121.605866,
        "Sequence": 39
      },
      {
        "Name": "東新國小",
        "Lat": 25.05778835407,
        "Lon": 121.602725808672,
        "Sequence": 40
      }
    ]
  }
]