[
  {
    "Route": "北環幹線",
    "SubRoute": "北環幹線繞駛士科路返程半",
    "Direction": 1,
    "Stops": [
      {
        "Name": "中華科技大學(正門)",
        "Lat": 25.03382827,
        "Lon": 121.6097652,
        "Sequence": 1,
        "StationID": "4085"
      },
      {
        "Name": "中華科技大學",
        "Lat": 25.033428,
        "Lon": 121.611345,
        "Sequence": 2,
        "StationID": "1613"
      },
      {
        "Name": "軍人公墓",
        "Lat": 25.0332955,
        "Lon": 121.6121944,
        "Sequence": 3,
        "StationID": "1000965"
      },
      {
        "Name": "凌雲站",
        "Lat": 25.0346121838879,
        "Lon": 121.61448946069,
        "Sequence": 4,
        "StationID": "3870"
      },
      {
        "Name": "九如里二",
        "Lat": 25.034863,
        "Lon": 121.61612,
        "Sequence": 5,
        "StationID": "1618"
      },
      {
        "Name": "凌雲五村",
        "Lat": 25.035872068306,
        "Lon": 121.61695169081,
        "Sequence": 6,
        "StationID": "50024"
      },
      {
        "Name": "九如里一",
        "Lat": 25.03770122,
        "Lon": 121.6170236,
        "Sequence": 7,
        "StationID": "1616"
      },
      {
        "Name": "胡適公園",
        "Lat": 25.040597,
        "Lon": 121.617633,
        "Sequence": 8,
        "StationID": "50023"
      },
      {
        "Name": "中研院",
        "Lat": 25.043422,
        "Lon": 121.616561,
        "Sequence": 9,
        "StationID": "50026"
      },
      {
        "Name": "中研新村",
        "Lat": 25.045074,
        "Lon": 121.615639,
        "Sequence": 10,
        "StationID": "1000313"
      },
      {
        "Name": "圓拱橋",
        "Lat": 25.047462,
        "Lon": 121.615728,
        "Sequence": 11,
        "StationID": "50022"
      },
      {
        "Name": "南港水廠",
        "Lat": 25.048610235261958,
        "Lon": 121.61601678871844,
        "Sequence": 12,
        "StationID": "50021"
      },
      {
        "Name": "誠正國中",
        "Lat": 25.0515460114719,
        "Lon": 121.61603141641,
        "Sequence": 13,
        "StationID": "50020"
      },
      {
        "Name": "南港展覽館",
        "Lat": 25.05534,
        "Lon": 121.6156,
        "Sequence": 14,
        "StationID": "1664"
      },
      {
        "Name": "南港軟體園區南站",
        "Lat": 25.05641711,
        "Lon": 121.6141291,
        "Sequence": 15,
        "StationID": "1678"
      },
      {
        "Name": "南港軟體園區北站",
        "Lat": 25.0596223969091,
        "Lon": 121.614279736525,
        "Sequence": 16,
        "StationID": "1680"
      },
      {
        "Name": "捷運東湖站(南湖高中)",
        "Lat": 25.066845,
        "Lon": 121.611416,
        "Sequence": 17,
        "StationID": "1000209"
      },
      {
        "Name": "明湖國中",
        "Lat": 25.0702607638519,
        "Lon": 121.611642249953,
        "Sequence": 18,
        "StationID": "8534"
      },
      {
        "Name": "明湖國小(公共電視台)",
        "Lat": 25.0718101504888,
        "Lon": 121.609308386226,
        "Sequence": 19,
        "StationID": "50442"
      },
      {
        "Name": "捷運葫洲站(康寧大學)",
        "Lat": 25.0726213066526,
        "Lon": 121.607610913193,
        "Sequence": 20,
        "StationID": "1165606697"
      },
      {
        "Name": "康寧醫院",
        "Lat": 25.07543061,
        "Lon": 121.6072451,
        "Sequence": 21,
        "StationID": "8629"
      },
      {
        "Name": "黃石公廟",
        "Lat": 25.078107,
        "Lon": 121.607197,
        "Sequence": 22,
        "StationID": "1118"
      },
      {
        "Name": "大湖公園",
        "Lat": 25.08303681690925,
        "Lon": 121.60525229995443,
        "Sequence": 23,
        "StationID": "50448"
      },
      {
        "Name": "捷運大湖公園站",
        "Lat": 25.08373507,
        "Lon": 121.6025457,
        "Sequence": 24,
        "StationID": "3997"
      },
      {
        "Name": "大湖",
        "Lat": 25.08478664,
        "Lon": 121.6000154,
        "Sequence": 25,
        "StationID": "974"
      },
      {
        "Name": "金龍里",
        "Lat": 25.0845601194501,
        "Lon": 121.59638478301,
        "Sequence": 26,
        "StationID": "1000737"
      },
      {
        "Name": "捷運內湖站",
        "Lat": 25.0834615421604,
        "Lon": 121.593879114086,
        "Sequence": 27,
        "StationID": "1071"
      },
      {
        "Name": "湖光市場",
        "Lat": 25.081779319488682,
        "Lon": 121.59179366923021,
        "Sequence": 28,
        "StationID": "1103"
      },
      {
        "Name": "成功路三段",
        "Lat": 25.0798544258006,
        "Lon": 121.589838083526,
        "Sequence": 29,
        "StationID": "1029"
      },
      {
        "Name": "內湖高中",
        "Lat": 25.07901319,
        "Lon": 121.5883097,
        "Sequence": 30,
        "StationID": "8523"
      },
      {
        "Name": "捷運文德站(碧湖公園)",
        "Lat": 25.078655,
        "Lon": 121.584351,
        "Sequence": 31,
        "StationID": "1109"
      },
      {
        "Name": "湖光國宅",
        "Lat": 25.07859,
        "Lon": 121.58078,
        "Sequence": 32,
        "StationID": "8415"
      },
      {
        "Name": "西湖圖書館(湖光教會)",
        "Lat": 25.07910692,
        "Lon": 121.5779835,
        "Sequence": 33,
        "StationID": "1000499"
      },
      {
        "Name": "捷運港墘站(內湖高工)",
        "Lat": 25.0798366021365,
        "Lon": 121.57610868441,
        "Sequence": 34,
        "StationID": "8527"
      },
      {
        "Name": "麗山國中",
        "Lat": 25.0806380998734,
        "Lon": 121.573860343024,
        "Sequence": 35,
        "StationID": "4084"
      },
      {
        "Name": "麗山街",
        "Lat": 25.081473,
        "Lon": 121.571386,
        "Sequence": 36,
        "StationID": "1153"
      },
      {
        "Name": "恕德家商",
        "Lat": 25.082118261496,
        "Lon": 121.569461375068,
        "Sequence": 37,
        "StationID": "50515"
      },
      {
        "Name": "捷運西湖站",
        "Lat": 25.0824213906562,
        "Lon": 121.565868143978,
        "Sequence": 38,
        "StationID": "1000723"
      },
      {
        "Name": "治磐新村",
        "Lat": 25.0830692818289,
        "Lon": 121.564098538475,
        "Sequence": 39,
        "StationID": "194"
      },
      {
        "Name": "文湖國小",
        "Lat": 25.0843810062584,
        "Lon": 121.561535778783,
        "Sequence": 40,
        "StationID": "8670"
      },
      {
        "Name": "美麗華",
        "Lat": 25.0848172776379,
        "Lon": 121.558119339359,
        "Sequence": 41,
        "StationID": "1322"
      },
      {
        "Name": "捷運劍南路站",
        "Lat": 25.085303158353604,
        "Lon": 121.55468793143969,
        "Sequence": 42,
        "StationID": "1000695"
      },
      {
        "Name": "外雙溪(故宮)",
        "Lat": 25.096654067919133,
        "Lon": 121.54728315713145,
        "Sequence": 43,
        "StationID": "3948"
      },
      {
        "Name": "故宮路口",
        "Lat": 25.098068128396,
        "Lon": 121.5459327705,
        "Sequence": 44,
        "StationID": "9449"
      },
      {
        "Name": "中影文化城",
        "Lat": 25.0972634661547,
        "Lon": 121.543765927365,
        "Sequence": 45,
        "StationID": "9448"
      },
      {
        "Name": "東吳大學(錢穆故居)",
        "Lat": 25.097411,
        "Lon": 121.541307,
        "Sequence": 46,
        "StationID": "728"
      },
      {
        "Name": "梅林新村",
        "Lat": 25.097585,
        "Lon": 121.539849,
        "Sequence": 47,
        "StationID": "807"
      },
      {
        "Name": "雙溪公園",
        "Lat": 25.098005332485762,
        "Lon": 121.53824562909286,
        "Sequence": 48,
        "StationID": "9446"
      },
      {
        "Name": "泰北中學",
        "Lat": 25.0977513146504,
        "Lon": 121.534030294965,
        "Sequence": 49,
        "StationID": "778"
      },
      {
        "Name": "士林官邸(中正)",
        "Lat": 25.0965,
        "Lon": 121.53144,
        "Sequence": 50,
        "StationID": "3953"
      },
      {
        "Name": "福林國小",
        "Lat": 25.0962,
        "Lon": 121.52976,
        "Sequence": 51,
        "StationID": "3954"
      },
      {
        "Name": "捷運士林站(中正)",
        "Lat": 25.095428,
        "Lon": 121.525882,
        "Sequence": 52,
        "StationID": "1165605299"
      },
      {
        "Name": "士林國中",
        "Lat": 25.094828,
        "Lon": 121.523269,
        "Sequence": 53,
        "StationID": "1000275"
      },
      {
        "Name": "士林區行政中心(中正)",
        "Lat": 25.093132,
        "Lon": 121.519396,
        "Sequence": 54,
        "StationID": "575"
      },
      {
        "Name": "陽明高中",
        "Lat": 25.092141,
        "Lon": 121.517889,
        "Sequence": 55,
        "StationID": "1000115"
      },
      {
        "Name": "士林監理站",
        "Lat": 25.095240716768018,
        "Lon": 121.51459702986995,
        "Sequence": 56,
        "StationID": "3328"
      },
      {
        "Name": "建民里",
        "Lat": 25.10244,
        "Lon": 121.512463,
        "Sequence": 57,
        "StationID": "280"
      },
      {
        "Name": "創富中心",
        "Lat": 25.10352,
        "Lon": 121.51221,
        "Sequence": 58,
        "StationID": "1165607075"
      },
      {
        "Name": "士科路",
        "Lat": 25.103237,
        "Lon": 121.514514,
        "Sequence": 59,
        "StationID": "1165610288"
      },
      {
        "Name": "福國承信路口",
        "Lat": 25.101757,
        "Lon": 121.513267,
        "Sequence": 60,
        "StationID": "1165608875"
      },
      {
        "Name": "福美承平路口",
        "Lat": 25.10059120420348,
        "Lon": 121.50703302755403,
        "Sequence": 61,
        "StationID": "1165606675"
      },
      {
        "Name": "三王宮",
        "Lat": 25.1005585521,
        "Lon": 121.5059969206,
        "Sequence": 62,
        "StationID": "1165604737"
      },
      {
        "Name": "福美站",
        "Lat": 25.1004994023069,
        "Lon": 121.504482054692,
        "Sequence": 63,
        "StationID": "1165604735"
      }
    ]
  },
  {
    "Route": "北環幹線",
    "SubRoute": "北環幹線繞駛士科路去程半",
    "Direction": 0,
    "Stops": [
      {
        "Name": "福美站",
        "Lat": 25.1003822071101,
        "Lon": 121.504476019722,
        "Sequence": 1,
        "StationID": "1165604734"
      },
      {
        "Name": "三王宮",
        "Lat": 25.10041172252245,
        "Lon": 121.50562988182526,
        "Sequence": 2,
        "StationID": "1165604736"
      },
      {
        "Name": "福美承平路口",
        "Lat": 25.100501,
        "Lon": 121.507447,
        "Sequence": 3,
        "StationID": "1165606676"
      },
      {
        "Name": "遠雄商舟大樓",
        "Lat": 25.100517081943632,
        "Lon": 121.50899838312725,
        "Sequence": 4,
        "StationID": "1165610470"
      },
      {
        "Name": "士科路",
        "Lat": 25.10300026,
        "Lon": 121.514664,
        "Sequence": 5,
        "StationID": "1165610287"
      },
      {
        "Name": "文承承信路口",
        "Lat": 25.104852,
        "Lon": 121.512887,
        "Sequence": 6,
        "StationID": "1165609625"
      },
      {
        "Name": "建民里",
        "Lat": 25.10302567688198,
        "Lon": 121.51195122674679,
        "Sequence": 7,
        "StationID": "758"
      },
      {
        "Name": "兒童新樂園",
        "Lat": 25.096205,
        "Lon": 121.515234,
        "Sequence": 8,
        "StationID": "4133"
      },
      {
        "Name": "士林高商",
        "Lat": 25.09415239272792,
        "Lon": 121.51711224794106,
        "Sequence": 9,
        "StationID": "580"
      },
      {
        "Name": "士林區行政中心(中正)",
        "Lat": 25.092636,
        "Lon": 121.519189,
        "Sequence": 10,
        "StationID": "581"
      },
      {
        "Name": "士林國中",
        "Lat": 25.0946048451863,
        "Lon": 121.52330153373,
        "Sequence": 11,
        "StationID": "586"
      },
      {
        "Name": "捷運士林站(中正)",
        "Lat": 25.09550407,
        "Lon": 121.5270438,
        "Sequence": 12,
        "StationID": "795"
      },
      {
        "Name": "福林國小",
        "Lat": 25.09583325,
        "Lon": 121.5290055,
        "Sequence": 13,
        "StationID": "896"
      },
      {
        "Name": "士林官邸(中正)",
        "Lat": 25.096324,
        "Lon": 121.531395,
        "Sequence": 14,
        "StationID": "1000618"
      },
      {
        "Name": "泰北中學",
        "Lat": 25.0972847950979,
        "Lon": 121.533481875716,
        "Sequence": 15,
        "StationID": "777"
      },
      {
        "Name": "雙溪公園",
        "Lat": 25.097779,
        "Lon": 121.53792,
        "Sequence": 16,
        "StationID": "950"
      },
      {
        "Name": "梅林新村",
        "Lat": 25.0972328685249,
        "Lon": 121.540175948519,
        "Sequence": 17,
        "StationID": "805"
      },
      {
        "Name": "東吳大學(錢穆故居)",
        "Lat": 25.097131,
        "Lon": 121.541888,
        "Sequence": 18,
        "StationID": "729"
      },
      {
        "Name": "中影文化城",
        "Lat": 25.09704,
        "Lon": 121.54455,
        "Sequence": 19,
        "StationID": "624"
      },
      {
        "Name": "外雙溪(故宮)",
        "Lat": 25.09735486763365,
        "Lon": 121.54679912183309,
        "Sequence": 20,
        "StationID": "660"
      },
      {
        "Name": "自強隧道",
        "Lat": 25.0858624708036,
        "Lon": 121.551895985064,
        "Sequence": 21,
        "StationID": "1254"
      },
      {
        "Name": "捷運劍南路站",
        "Lat": 25.08484,
        "Lon": 121.555253,
        "Sequence": 22,
        "StationID": "1000117"
      },
      {
        "Name": "美麗華",
        "Lat": 25.0845384449731,
        "Lon": 121.558196913178,
        "Sequence": 23,
        "StationID": "1000127"
      },
      {
        "Name": "文湖國小",
        "Lat": 25.0841512660387,
        "Lon": 121.5615165067,
        "Sequence": 24,
        "StationID": "1008"
      },
      {
        "Name": "治磐新村",
        "Lat": 25.0829452709661,
        "Lon": 121.56384168984,
        "Sequence": 25,
        "StationID": "8521"
      },
      {
        "Name": "捷運西湖站",
        "Lat": 25.0821974042872,
        "Lon": 121.565884872161,
        "Sequence": 26,
        "StationID": "1000698"
      },
      {
        "Name": "恕德家商",
        "Lat": 25.0819632554949,
        "Lon": 121.56904542401,
        "Sequence": 27,
        "StationID": "1075"
      },
      {
        "Name": "麗山街",
        "Lat": 25.081132,
        "Lon": 121.57184,
        "Sequence": 28,
        "StationID": "8410"
      },
      {
        "Name": "捷運港墘站(內湖高工)",
        "Lat": 25.0801493693391,
        "Lon": 121.574618145655,
        "Sequence": 29,
        "StationID": "997"
      },
      {
        "Name": "西湖圖書館(湖光教會)",
        "Lat": 25.078683,
        "Lon": 121.578396,
        "Sequence": 30,
        "StationID": "1041"
      },
      {
        "Name": "湖光國宅",
        "Lat": 25.0783569202296,
        "Lon": 121.581597209792,
        "Sequence": 31,
        "StationID": "1104"
      },
      {
        "Name": "捷運文德站(碧湖公園)",
        "Lat": 25.07840172,
        "Lon": 121.5841327,
        "Sequence": 32,
        "StationID": "4083"
      },
      {
        "Name": "內湖高中",
        "Lat": 25.0787035812339,
        "Lon": 121.587565869008,
        "Sequence": 33,
        "StationID": "998"
      },
      {
        "Name": "成功路三段",
        "Lat": 25.0796177267452,
        "Lon": 121.589939880159,
        "Sequence": 34,
        "StationID": "8520"
      },
      {
        "Name": "湖光市場",
        "Lat": 25.0816997666211,
        "Lon": 121.59200882874,
        "Sequence": 35,
        "StationID": "8537"
      },
      {
        "Name": "捷運內湖站",
        "Lat": 25.08334,
        "Lon": 121.594132,
        "Sequence": 36,
        "StationID": "8538"
      },
      {
        "Name": "秀湖",
        "Lat": 25.08456,
        "Lon": 121.59841,
        "Sequence": 37,
        "StationID": "1000732"
      },
      {
        "Name": "大湖",
        "Lat": 25.08453,
        "Lon": 121.600182,
        "Sequence": 38,
        "StationID": "968"
      },
      {
        "Name": "捷運大湖公園站",
        "Lat": 25.08343,
        "Lon": 121.602592,
        "Sequence": 39,
        "StationID": "3998"
      },
      {
        "Name": "大湖公園",
        "Lat": 25.08288733,
        "Lon": 121.6048,
        "Sequence": 40,
        "StationID": "8524"
      },
      {
        "Name": "黃石公廟",
        "Lat": 25.077575,
        "Lon": 121.606985,
        "Sequence": 41,
        "StationID": "4009"
      },
      {
        "Name": "康寧醫院",
        "Lat": 25.076003252282835,
        "Lon": 121.60709165757346,
        "Sequence": 42,
        "StationID": "1094"
      },
      {
        "Name": "康寧社區",
        "Lat": 25.07432866824676,
        "Lon": 121.60631194598926,
        "Sequence": 43,
        "StationID": "3999"
      },
      {
        "Name": "捷運葫洲站(康寧大學)",
        "Lat": 25.07246542,
        "Lon": 121.6075013,
        "Sequence": 44,
        "StationID": "1165606698"
      },
      {
        "Name": "明湖國小(公共電視台)",
        "Lat": 25.0716328345384,
        "Lon": 121.609320074507,
        "Sequence": 45,
        "StationID": "1049"
      },
      {
        "Name": "明湖國中",
        "Lat": 25.06996983,
        "Lon": 121.6116528,
        "Sequence": 46,
        "StationID": "1093"
      },
      {
        "Name": "捷運東湖站(南湖高中)",
        "Lat": 25.0674930032886,
        "Lon": 121.61150222666,
        "Sequence": 47,
        "StationID": "1073"
      },
      {
        "Name": "南港軟體園區北站",
        "Lat": 25.0587135046885,
        "Lon": 121.61407454595626,
        "Sequence": 48,
        "StationID": "1000251"
      },
      {
        "Name": "南港軟體園區南站",
        "Lat": 25.05655055325109,
        "Lon": 121.61389139258283,
        "Sequence": 49,
        "StationID": "1000252"
      },
      {
        "Name": "南港展覽館",
        "Lat": 25.054699,
        "Lon": 121.616456,
        "Sequence": 50,
        "StationID": "1165606825"
      },
      {
        "Name": "誠正國中",
        "Lat": 25.0518036904539,
        "Lon": 121.615865875754,
        "Sequence": 51,
        "StationID": "1711"
      },
      {
        "Name": "南港水廠",
        "Lat": 25.049543,
        "Lon": 121.615625,
        "Sequence": 52,
        "StationID": "1650"
      },
      {
        "Name": "圓拱橋",
        "Lat": 25.047199,
        "Lon": 121.615363,
        "Sequence": 53,
        "StationID": "1707"
      },
      {
        "Name": "中研新村",
        "Lat": 25.044722099556466,
        "Lon": 121.61558513647303,
        "Sequence": 54,
        "StationID": "1611"
      },
      {
        "Name": "中研院",
        "Lat": 25.04313,
        "Lon": 121.61648,
        "Sequence": 55,
        "StationID": "1610"
      },
      {
        "Name": "胡適公園",
        "Lat": 25.039528,
        "Lon": 121.617338,
        "Sequence": 56,
        "StationID": "1687"
      },
      {
        "Name": "九如里一",
        "Lat": 25.03813813,
        "Lon": 121.6169015,
        "Sequence": 57,
        "StationID": "1620"
      },
      {
        "Name": "凌雲五村",
        "Lat": 25.036259,
        "Lon": 121.616893,
        "Sequence": 58,
        "StationID": "1690"
      },
      {
        "Name": "九如里二",
        "Lat": 25.03500483,
        "Lon": 121.6161708,
        "Sequence": 59,
        "StationID": "1621"
      },
      {
        "Name": "凌雲站",
        "Lat": 25.03474253,
        "Lon": 121.6147203,
        "Sequence": 60,
        "StationID": "1686"
      },
      {
        "Name": "中華科技大學(正門)",
        "Lat": 25.03382827,
        "Lon": 121.6097652,
        "Sequence": 61,
        "StationID": "4085"
      }
    ]
  },
  {
    "Route": "北環幹線",
    "SubRoute": "北環幹線狗狗公車去程半",
    "Direction": 0,
    "Stops": [
      {
        "Name": "福美站",
        "Lat": 25.1003822071101,
        "Lon": 121.504476019722,
        "Sequence": 1,
        "StationID": "1165604734"
      },
      {
        "Name": "三王宮",
        "Lat": 25.10041172252245,
        "Lon": 121.50562988182526,
        "Sequence": 2,
        "StationID": "1165604736"
      },
      {
        "Name": "福美承平路口",
        "Lat": 25.100501,
        "Lon": 121.507447,
        "Sequence": 3,
        "StationID": "1165606676"
      },
      {
        "Name": "遠雄商舟大樓",
        "Lat": 25.100517081943632,
        "Lon": 121.50899838312725,
        "Sequence": 4,
        "StationID": "1165610470"
      },
      {
        "Name": "兒童新樂園",
        "Lat": 25.096205,
        "Lon": 121.515234,
        "Sequence": 5,
        "StationID": "4133"
      },
      {
        "Name": "士林高商",
        "Lat": 25.09415239272792,
        "Lon": 121.51711224794106,
        "Sequence": 6,
        "StationID": "580"
      },
      {
        "Name": "士林區行政中心(中正)",
        "Lat": 25.092636,
        "Lon": 121.519189,
        "Sequence": 7,
        "StationID": "581"
      },
      {
        "Name": "士林國中",
        "Lat": 25.0946048451863,
        "Lon": 121.52330153373,
        "Sequence": 8,
        "StationID": "586"
      },
      {
        "Name": "捷運士林站(中正)",
        "Lat": 25.09550407,
        "Lon": 121.5270438,
        "Sequence": 9,
        "StationID": "795"
      },
      {
        "Name": "福林國小",
        "Lat": 25.09583325,
        "Lon": 121.5290055,
        "Sequence": 10,
        "StationID": "896"
      },
      {
        "Name": "士林官邸(中正)",
        "Lat": 25.096324,
        "Lon": 121.531395,
        "Sequence": 11,
        "StationID": "1000618"
      },
      {
        "Name": "泰北中學",
        "Lat": 25.0972847950979,
        "Lon": 121.533481875716,
        "Sequence": 12,
        "StationID": "777"
      },
      {
        "Name": "雙溪公園",
        "Lat": 25.097779,
        "Lon": 121.53792,
        "Sequence": 13,
        "StationID": "950"
      },
      {
        "Name": "梅林新村",
        "Lat": 25.0972328685249,
        "Lon": 121.540175948519,
        "Sequence": 14,
        "StationID": "805"
      },
      {
        "Name": "東吳大學(錢穆故居)",
        "Lat": 25.097131,
        "Lon": 121.541888,
        "Sequence": 15,
        "StationID": "729"
      },
      {
        "Name": "中影文化城",
        "Lat": 25.09704,
        "Lon": 121.54455,
        "Sequence": 16,
        "StationID": "624"
      },
      {
        "Name": "外雙溪(故宮)",
        "Lat": 25.09735486763365,
        "Lon": 121.54679912183309,
        "Sequence": 17,
        "StationID": "660"
      },
      {
        "Name": "自強隧道",
        "Lat": 25.0858624708036,
        "Lon": 121.551895985064,
        "Sequence": 18,
        "StationID": "1254"
      },
      {
        "Name": "捷運劍南路站",
        "Lat": 25.08484,
        "Lon": 121.555253,
        "Sequence": 19,
        "StationID": "1000117"
      },
      {
        "Name": "美麗華",
        "Lat": 25.0845384449731,
        "Lon": 121.558196913178,
        "Sequence": 20,
        "StationID": "1000127"
      },
      {
        "Name": "文湖國小",
        "Lat": 25.0841512660387,
        "Lon": 121.5615165067,
        "Sequence": 21,
        "StationID": "1008"
      },
      {
        "Name": "治磐新村",
        "Lat": 25.0829452709661,
        "Lon": 121.56384168984,
        "Sequence": 22,
        "StationID": "8521"
      },
      {
        "Name": "捷運西湖站",
        "Lat": 25.0821974042872,
        "Lon": 121.565884872161,
        "Sequence": 23,
        "StationID": "1000698"
      },
      {
        "Name": "恕德家商",
        "Lat": 25.0819632554949,
        "Lon": 121.56904542401,
        "Sequence": 24,
        "StationID": "1075"
      },
      {
        "Name": "麗山街",
        "Lat": 25.081132,
        "Lon": 121.57184,
        "Sequence": 25,
        "StationID": "8410"
      },
      {
        "Name": "捷運港墘站(內湖高工)",
        "Lat": 25.0801493693391,
        "Lon": 121.574618145655,
        "Sequence": 26,
        "StationID": "997"
      },
      {
        "Name": "西湖圖書館(湖光教會)",
        "Lat": 25.078683,
        "Lon": 121.578396,
        "Sequence": 27,
        "StationID": "1041"
      },
      {
        "Name": "湖光國宅",
        "Lat": 25.0783569202296,
        "Lon": 121.581597209792,
        "Sequence": 28,
        "StationID": "1104"
      },
      {
        "Name": "捷運文德站(碧湖公園)",
        "Lat": 25.07840172,
        "Lon": 121.5841327,
        "Sequence": 29,
        "StationID": "4083"
      },
      {
        "Name": "內湖高中",
        "Lat": 25.0787035812339,
        "Lon": 121.587565869008,
        "Sequence": 30,
        "StationID": "998"
      },
      {
        "Name": "成功路三段",
        "Lat": 25.0796177267452,
        "Lon": 121.589939880159,
        "Sequence": 31,
        "StationID": "8520"
      },
      {
        "Name": "湖光市場",
        "Lat": 25.0816997666211,
        "Lon": 121.59200882874,
        "Sequence": 32,
        "StationID": "8537"
      },
      {
        "Name": "捷運內湖站",
        "Lat": 25.08334,
        "Lon": 121.594132,
        "Sequence": 33,
        "StationID": "8538"
      },
      {
        "Name": "秀湖",
        "Lat": 25.08456,
        "Lon": 121.59841,
        "Sequence": 34,
        "StationID": "1000732"
      },
      {
        "Name": "大湖",
        "Lat": 25.08453,
        "Lon": 121.600182,
        "Sequence": 35,
        "StationID": "968"
      },
      {
        "Name": "捷運大湖公園站",
        "Lat": 25.08343,
        "Lon": 121.602592,
        "Sequence": 36,
        "StationID": "3998"
      },
      {
        "Name": "大湖公園",
        "Lat": 25.08288733,
        "Lon": 121.6048,
        "Sequence": 37,
        "StationID": "8524"
      },
      {
        "Name": "黃石公廟",
        "Lat": 25.077575,
        "Lon": 121.606985,
        "Sequence": 38,
        "StationID": "4009"
      },
      {
        "Name": "康寧醫院",
        "Lat": 25.076003252282835,
        "Lon": 121.60709165757346,
        "Sequence": 39,
        "StationID": "1094"
      },
      {
        "Name": "康寧社區",
        "Lat": 25.07432866824676,
        "Lon": 121.60631194598926,
        "Sequence": 40,
        "StationID": "3999"
      },
      {
        "Name": "捷運葫洲站(康寧大學)",
        "Lat": 25.07246542,
        "Lon": 121.6075013,
        "Sequence": 41,
        "StationID": "1165606698"
      },
      {
        "Name": "明湖國小(公共電視台)",
        "Lat": 25.0716328345384,
        "Lon": 121.609320074507,
        "Sequence": 42,
        "StationID": "1049"
      },
      {
        "Name": "明湖國中",
        "Lat": 25.06996983,
        "Lon": 121.6116528,
        "Sequence": 43,
        "StationID": "1093"
      },
      {
        "Name": "捷運東湖站(南湖高中)",
        "Lat": 25.0674930032886,
        "Lon": 121.61150222666,
        "Sequence": 44,
        "StationID": "1073"
      },
      {
        "Name": "南港軟體園區北站",
        "Lat": 25.0587135046885,
        "Lon": 121.61407454595626,
        "Sequence": 45,
        "StationID": "1000251"
      },
      {
        "Name": "南港軟體園區南站",
        "Lat": 25.05655055325109,
        "Lon": 121.61389139258283,
        "Sequence": 46,
        "StationID": "1000252"
      },
      {
        "Name": "南港展覽館",
        "Lat": 25.054699,
        "Lon": 121.616456,
        "Sequence": 47,
        "StationID": "1165606825"
      },
      {
        "Name": "誠正國中",
        "Lat": 25.0518036904539,
        "Lon": 121.615865875754,
        "Sequence": 48,
        "StationID": "1711"
      },
      {
        "Name": "南港水廠",
        "Lat": 25.049543,
        "Lon": 121.615625,
        "Sequence": 49,
        "StationID": "1650"
      },
      {
        "Name": "圓拱橋",
        "Lat": 25.047199,
        "Lon": 121.615363,
        "Sequence": 50,
        "StationID": "1707"
      },
      {
        "Name": "中研新村",
        "Lat": 25.044722099556466,
        "Lon": 121.61558513647303,
        "Sequence": 51,
        "StationID": "1611"
      },
      {
        "Name": "中研院",
        "Lat": 25.04313,
        "Lon": 121.61648,
        "Sequence": 52,
        "StationID": "1610"
      },
      {
        "Name": "胡適公園",
        "Lat": 25.039528,
        "Lon": 121.617338,
        "Sequence": 53,
        "StationID": "1687"
      },
      {
        "Name": "九如里一",
        "Lat": 25.03813813,
        "Lon": 121.6169015,
        "Sequence": 54,
        "StationID": "1620"
      },
      {
        "Name": "凌雲五村",
        "Lat": 25.036259,
        "Lon": 121.616893,
        "Sequence": 55,
        "StationID": "1690"
      },
      {
        "Name": "九如里二",
        "Lat": 25.03500483,
        "Lon": 121.6161708,
        "Sequence": 56,
        "StationID": "1621"
      },
      {
        "Name": "凌雲站",
        "Lat": 25.03474253,
        "Lon": 121.6147203,
        "Sequence": 57,
        "StationID": "1686"
      },
      {
        "Name": "中華科技大學(正門)",
        "Lat": 25.03382827,
        "Lon": 121.6097652,
        "Sequence": 58,
        "StationID": "4085"
      }
    ]
  },
  {
    "Route": "北環幹線",
    "SubRoute": "北環幹線狗狗公車返程半",
    "Direction": 1,
    "Stops": [
      {
        "Name": "中華科技大學(正門)",
        "Lat": 25.03382827,
        "Lon": 121.6097652,
        "Sequence": 1,
        "StationID": "4085"
      },
      {
        "Name": "中華科技大學",
        "Lat": 25.033428,
        "Lon": 121.611345,
        "Sequence": 2,
        "StationID": "1613"
      },
      {
        "Name": "軍人公墓",
        "Lat": 25.0332955,
        "Lon": 121.6121944,
        "Sequence": 3,
        "StationID": "1000965"
      },
      {
        "Name": "凌雲站",
        "Lat": 25.0346121838879,
        "Lon": 121.61448946069,
        "Sequence": 4,
        "StationID": "3870"
      },
      {
        "Name": "九如里二",
        "Lat": 25.034863,
        "Lon": 121.61612,
        "Sequence": 5,
        "StationID": "1618"
      },
      {
        "Name": "凌雲五村",
        "Lat": 25.035872068306,
        "Lon": 121.61695169081,
        "Sequence": 6,
        "StationID": "50024"
      },
      {
        "Name": "九如里一",
        "Lat": 25.03770122,
        "Lon": 121.6170236,
        "Sequence": 7,
        "StationID": "1616"
      },
      {
        "Name": "胡適公園",
        "Lat": 25.040597,
        "Lon": 121.617633,
        "Sequence": 8,
        "StationID": "50023"
      },
      {
        "Name": "中研院",
        "Lat": 25.043422,
        "Lon": 121.616561,
        "Sequence": 9,
        "StationID": "50026"
      },
      {
        "Name": "中研新村",
        "Lat": 25.045074,
        "Lon": 121.615639,
        "Sequence": 10,
        "StationID": "1000313"
      },
      {
        "Name": "圓拱橋",
        "Lat": 25.047462,
        "Lon": 121.615728,
        "Sequence": 11,
        "StationID": "50022"
      },
      {
        "Name": "南港水廠",
        "Lat": 25.048610235261958,
        "Lon": 121.61601678871844,
        "Sequence": 12,
        "StationID": "50021"
      },
      {
        "Name": "誠正國中",
        "Lat": 25.0515460114719,
        "Lon": 121.61603141641,
        "Sequence": 13,
        "StationID": "50020"
      },
      {
        "Name": "南港展覽館",
        "Lat": 25.05534,
        "Lon": 121.6156,
        "Sequence": 14,
        "StationID": "1664"
      },
      {
        "Name": "南港軟體園區南站",
        "Lat": 25.05641711,
        "Lon": 121.6141291,
        "Sequence": 15,
        "StationID": "1678"
      },
      {
        "Name": "南港軟體園區北站",
        "Lat": 25.0596223969091,
        "Lon": 121.614279736525,
        "Sequence": 16,
        "StationID": "1680"
      },
      {
        "Name": "捷運東湖站(南湖高中)",
        "Lat": 25.066845,
        "Lon": 121.611416,
        "Sequence": 17,
        "StationID": "1000209"
      },
      {
        "Name": "明湖國中",
        "Lat": 25.0702607638519,
        "Lon": 121.611642249953,
        "Sequence": 18,
        "StationID": "8534"
      },
      {
        "Name": "明湖國小(公共電視台)",
        "Lat": 25.0718101504888,
        "Lon": 121.609308386226,
        "Sequence": 19,
        "StationID": "50442"
      },
      {
        "Name": "捷運葫洲站(康寧大學)",
        "Lat": 25.0726213066526,
        "Lon": 121.607610913193,
        "Sequence": 20,
        "StationID": "1165606697"
      },
      {
        "Name": "康寧醫院",
        "Lat": 25.07543061,
        "Lon": 121.6072451,
        "Sequence": 21,
        "StationID": "8629"
      },
      {
        "Name": "黃石公廟",
        "Lat": 25.078107,
        "Lon": 121.607197,
        "Sequence": 22,
        "StationID": "1118"
      },
      {
        "Name": "大湖公園",
        "Lat": 25.08303681690925,
        "Lon": 121.60525229995443,
        "Sequence": 23,
        "StationID": "50448"
      },
      {
        "Name": "捷運大湖公園站",
        "Lat": 25.08373507,
        "Lon": 121.6025457,
        "Sequence": 24,
        "StationID": "3997"
      },
      {
        "Name": "大湖",
        "Lat": 25.08478664,
        "Lon": 121.6000154,
        "Sequence": 25,
        "StationID": "974"
      },
      {
        "Name": "金龍里",
        "Lat": 25.0845601194501,
        "Lon": 121.59638478301,
        "Sequence": 26,
        "StationID": "1000737"
      },
      {
        "Name": "捷運內湖站",
        "Lat": 25.0834615421604,
        "Lon": 121.593879114086,
        "Sequence": 27,
        "StationID": "1071"
      },
      {
        "Name": "湖光市場",
        "Lat": 25.081779319488682,
        "Lon": 121.59179366923021,
        "Sequence": 28,
        "StationID": "1103"
      },
      {
        "Name": "成功路三段",
        "Lat": 25.0798544258006,
        "Lon": 121.589838083526,
        "Sequence": 29,
        "StationID": "1029"
      },
      {
        "Name": "內湖高中",
        "Lat": 25.07901319,
        "Lon": 121.5883097,
        "Sequence": 30,
        "StationID": "8523"
      },
      {
        "Name": "捷運文德站(碧湖公園)",
        "Lat": 25.078655,
        "Lon": 121.584351,
        "Sequence": 31,
        "StationID": "1109"
      },
      {
        "Name": "湖光國宅",
        "Lat": 25.07859,
        "Lon": 121.58078,
        "Sequence": 32,
        "StationID": "8415"
      },
      {
        "Name": "西湖圖書館(湖光教會)",
        "Lat": 25.07910692,
        "Lon": 121.5779835,
        "Sequence": 33,
        "StationID": "1000499"
      },
      {
        "Name": "捷運港墘站(內湖高工)",
        "Lat": 25.0798366021365,
        "Lon": 121.57610868441,
        "Sequence": 34,
        "StationID": "8527"
      },
      {
        "Name": "麗山國中",
        "Lat": 25.0806380998734,
        "Lon": 121.573860343024,
        "Sequence": 35,
        "StationID": "4084"
      },
      {
        "Name": "麗山街",
        "Lat": 25.081473,
        "Lon": 121.571386,
        "Sequence": 36,
        "StationID": "1153"
      },
      {
        "Name": "恕德家商",
        "Lat": 25.082118261496,
        "Lon": 121.569461375068,
        "Sequence": 37,
        "StationID": "50515"
      },
      {
        "Name": "捷運西湖站",
        "Lat": 25.0824213906562,
        "Lon": 121.565868143978,
        "Sequence": 38,
        "StationID": "1000723"
      },
      {
        "Name": "治磐新村",
        "Lat": 25.0830692818289,
        "Lon": 121.564098538475,
        "Sequence": 39,
        "StationID": "194"
      },
      {
        "Name": "文湖國小",
        "Lat": 25.0843810062584,
        "Lon": 121.561535778783,
        "Sequence": 40,
        "StationID": "8670"
      },
      {
        "Name": "美麗華",
        "Lat": 25.0848172776379,
        "Lon": 121.558119339359,
        "Sequence": 41,
        "StationID": "1322"
      },
      {
        "Name": "捷運劍南路站",
        "Lat": 25.085303158353604,
        "Lon": 121.55468793143969,
        "Sequence": 42,
        "StationID": "1000695"
      },
      {
        "Name": "外雙溪(故宮)",
        "Lat": 25.096654067919133,
        "Lon": 121.54728315713145,
        "Sequence": 43,
        "StationID": "3948"
      },
      {
        "Name": "故宮路口",
        "Lat": 25.098068128396,
        "Lon": 121.5459327705,
        "Sequence": 44,
        "StationID": "9449"
      },
      {
        "Name": "中影文化城",
        "Lat": 25.0972634661547,
        "Lon": 121.543765927365,
        "Sequence": 45,
        "StationID": "9448"
      },
      {
        "Name": "東吳大學(錢穆故居)",
        "Lat": 25.097411,
        "Lon": 121.541307,
        "Sequence": 46,
        "StationID": "728"
      },
      {
        "Name": "梅林新村",
        "Lat": 25.097585,
        "Lon": 121.539849,
        "Sequence": 47,
        "StationID": "807"
      },
      {
        "Name": "雙溪公園",
        "Lat": 25.098005332485762,
        "Lon": 121.53824562909286,
        "Sequence": 48,
        "StationID": "9446"
      },
      {
        "Name": "泰北中學",
        "Lat": 25.0977513146504,
        "Lon": 121.534030294965,
        "Sequence": 49,
        "StationID": "778"
      },
      {
        "Name": "士林官邸(中正)",
        "Lat": 25.0965,
        "Lon": 121.53144,
        "Sequence": 50,
        "StationID": "3953"
      },
      {
        "Name": "福林國小",
        "Lat": 25.0962,
        "Lon": 121.52976,
        "Sequence": 51,
        "StationID": "3954"
      },
      {
        "Name": "捷運士林站(中正)",
        "Lat": 25.095428,
        "Lon": 121.525882,
        "Sequence": 52,
        "StationID": "1165605299"
      },
      {
        "Name": "士林國中",
        "Lat": 25.094828,
        "Lon": 121.523269,
        "Sequence": 53,
        "StationID": "1000275"
      },
      {
        "Name": "士林區行政中心(中正)",
        "Lat": 25.093132,
        "Lon": 121.519396,
        "Sequence": 54,
        "StationID": "575"
      },
      {
        "Name": "陽明高中",
        "Lat": 25.092141,
        "Lon": 121.517889,
        "Sequence": 55,
        "StationID": "1000115"
      },
      {
        "Name": "士林監理站",
        "Lat": 25.095240716768018,
        "Lon": 121.51459702986995,
        "Sequence": 56,
        "StationID": "3328"
      },
      {
        "Name": "福美承平路口",
        "Lat": 25.10059120420348,
        "Lon": 121.50703302755403,
        "Sequence": 57,
        "StationID": "1165606675"
      },
      {
        "Name": "三王宮",
        "Lat": 25.1005585521,
        "Lon": 121.5059969206,
        "Sequence": 58,
        "StationID": "1165604737"
      },
      {
        "Name": "福美站",
        "Lat": 25.1004994023069,
        "Lon": 121.504482054692,
        "Sequence": 59,
        "StationID": "1165604735"
      }
    ]
  },
  {
    "Route": "北環幹線",
    "SubRoute": "北環幹線不繞駛士科路去程半",
    "Direction": 0,
    "Stops": [
      {
        "Name": "福美站",
        "Lat": 25.1003822071101,
        "Lon": 121.504476019722,
        "Sequence": 1,
        "StationID": "1165604734"
      },
      {
        "Name": "三王宮",
        "Lat": 25.10041172252245,
        "Lon": 121.50562988182526,
        "Sequence": 2,
        "StationID": "1165604736"
      },
      {
        "Name": "福美承平路口",
        "Lat": 25.100501,
        "Lon": 121.507447,
        "Sequence": 3,
        "StationID": "1165606676"
      },
      {
        "Name": "遠雄商舟大樓",
        "Lat": 25.100517081943632,
        "Lon": 121.50899838312725,
        "Sequence": 4,
        "StationID": "1165610470"
      },
      {
        "Name": "兒童新樂園",
        "Lat": 25.096205,
        "Lon": 121.515234,
        "Sequence": 5,
        "StationID": "4133"
      },
      {
        "Name": "士林高商",
        "Lat": 25.09415239272792,
        "Lon": 121.51711224794106,
        "Sequence": 6,
        "StationID": "580"
      },
      {
        "Name": "士林區行政中心(中正)",
        "Lat": 25.092636,
        "Lon": 121.519189,
        "Sequence": 7,
        "StationID": "581"
      },
      {
        "Name": "士林國中",
        "Lat": 25.0946048451863,
        "Lon": 121.52330153373,
        "Sequence": 8,
        "StationID": "586"
      },
      {
        "Name": "捷運士林站(中正)",
        "Lat": 25.09550407,
        "Lon": 121.5270438,
        "Sequence": 9,
        "StationID": "795"
      },
      {
        "Name": "福林國小",
        "Lat": 25.09583325,
        "Lon": 121.5290055,
        "Sequence": 10,
        "StationID": "896"
      },
      {
        "Name": "士林官邸(中正)",
        "Lat": 25.096324,
        "Lon": 121.531395,
        "Sequence": 11,
        "StationID": "1000618"
      },
      {
        "Name": "泰北中學",
        "Lat": 25.0972847950979,
        "Lon": 121.533481875716,
        "Sequence": 12,
        "StationID": "777"
      },
      {
        "Name": "雙溪公園",
        "Lat": 25.097779,
        "Lon": 121.53792,
        "Sequence": 13,
        "StationID": "950"
      },
      {
        "Name": "梅林新村",
        "Lat": 25.0972328685249,
        "Lon": 121.540175948519,
        "Sequence": 14,
        "StationID": "805"
      },
      {
        "Name": "東吳大學(錢穆故居)",
        "Lat": 25.097131,
        "Lon": 121.541888,
        "Sequence": 15,
        "StationID": "729"
      },
      {
        "Name": "中影文化城",
        "Lat": 25.09704,
        "Lon": 121.54455,
        "Sequence": 16,
        "StationID": "624"
      },
      {
        "Name": "外雙溪(故宮)",
        "Lat": 25.09735486763365,
        "Lon": 121.54679912183309,
        "Sequence": 17,
        "StationID": "660"
      },
      {
        "Name": "自強隧道",
        "Lat": 25.0858624708036,
        "Lon": 121.551895985064,
        "Sequence": 18,
        "StationID": "1254"
      },
      {
        "Name": "捷運劍南路站",
        "Lat": 25.08484,
        "Lon": 121.555253,
        "Sequence": 19,
        "StationID": "1000117"
      },
      {
        "Name": "美麗華",
        "Lat": 25.0845384449731,
        "Lon": 121.558196913178,
        "Sequence": 20,
        "StationID": "1000127"
      },
      {
        "Name": "文湖國小",
        "Lat": 25.0841512660387,
        "Lon": 121.5615165067,
        "Sequence": 21,
        "StationID": "1008"
      },
      {
        "Name": "治磐新村",
        "Lat": 25.0829452709661,
        "Lon": 121.56384168984,
        "Sequence": 22,
        "StationID": "8521"
      },
      {
        "Name": "捷運西湖站",
        "Lat": 25.0821974042872,
        "Lon": 121.565884872161,
        "Sequence": 23,
        "StationID": "1000698"
      },
      {
        "Name": "恕德家商",
        "Lat": 25.0819632554949,
        "Lon": 121.56904542401,
        "Sequence": 24,
        "StationID": "1075"
      },
      {
        "Name": "麗山街",
        "Lat": 25.081132,
        "Lon": 121.57184,
        "Sequence": 25,
        "StationID": "8410"
      },
      {
        "Name": "捷運港墘站(內湖高工)",
        "Lat": 25.0801493693391,
        "Lon": 121.574618145655,
        "Sequence": 26,
        "StationID": "997"
      },
      {
        "Name": "西湖圖書館(湖光教會)",
        "Lat": 25.078683,
        "Lon": 121.578396,
        "Sequence": 27,
        "StationID": "1041"
      },
      {
        "Name": "湖光國宅",
        "Lat": 25.0783569202296,
        "Lon": 121.581597209792,
        "Sequence": 28,
        "StationID": "1104"
      },
      {
        "Name": "捷運文德站(碧湖公園)",
        "Lat": 25.07840172,
        "Lon": 121.5841327,
        "Sequence": 29,
        "StationID": "4083"
      },
      {
        "Name": "內湖高中",
        "Lat": 25.0787035812339,
        "Lon": 121.587565869008,
        "Sequence": 30,
        "StationID": "998"
      },
      {
        "Name": "成功路三段",
        "Lat": 25.0796177267452,
        "Lon": 121.589939880159,
        "Sequence": 31,
        "StationID": "8520"
      },
      {
        "Name": "湖光市場",
        "Lat": 25.0816997666211,
        "Lon": 121.59200882874,
        "Sequence": 32,
        "StationID": "8537"
      },
      {
        "Name": "捷運內湖站",
        "Lat": 25.08334,
        "Lon": 121.594132,
        "Sequence": 33,
        "StationID": "8538"
      },
      {
        "Name": "秀湖",
        "Lat": 25.08456,
        "Lon": 121.59841,
        "Sequence": 34,
        "StationID": "1000732"
      },
      {
        "Name": "大湖",
        "Lat": 25.08453,
        "Lon": 121.600182,
        "Sequence": 35,
        "StationID": "968"
      },
      {
        "Name": "捷運大湖公園站",
        "Lat": 25.08343,
        "Lon": 121.602592,
        "Sequence": 36,
        "StationID": "3998"
      },
      {
        "Name": "大湖公園",
        "Lat": 25.08288733,
        "Lon": 121.6048,
        "Sequence": 37,
        "StationID": "8524"
      },
      {
        "Name": "黃石公廟",
        "Lat": 25.077575,
        "Lon": 121.606985,
        "Sequence": 38,
        "StationID": "4009"
      },
      {
        "Name": "康寧醫院",
        "Lat": 25.076003252282835,
        "Lon": 121.60709165757346,
        "Sequence": 39,
        "StationID": "1094"
      },
      {
        "Name": "康寧社區",
        "Lat": 25.07432866824676,
        "Lon": 121.60631194598926,
        "Sequence": 40,
        "StationID": "3999"
      },
      {
        "Name": "捷運葫洲站(康寧大學)",
        "Lat": 25.07246542,
        "Lon": 121.6075013,
        "Sequence": 41,
        "StationID": "1165606698"
      },
      {
        "Name": "明湖國小(公共電視台)",
        "Lat": 25.0716328345384,
        "Lon": 121.609320074507,
        "Sequence": 42,
        "StationID": "1049"
      },
      {
        "Name": "明湖國中",
        "Lat": 25.06996983,
        "Lon": 121.6116528,
        "Sequence": 43,
        "StationID": "1093"
      },
      {
        "Name": "捷運東湖站(南湖高中)",
        "Lat": 25.0674930032886,
        "Lon": 121.61150222666,
        "Sequence": 44,
        "StationID": "1073"
      },
      {
        "Name": "南港軟體園區北站",
        "Lat": 25.0587135046885,
        "Lon": 121.61407454595626,
        "Sequence": 45,
        "StationID": "1000251"
      },
      {
        "Name": "南港軟體園區南站",
        "Lat": 25.05655055325109,
        "Lon": 121.61389139258283,
        "Sequence": 46,
        "StationID": "1000252"
      },
      {
        "Name": "南港展覽館",
        "Lat": 25.054699,
        "Lon": 121.616456,
        "Sequence": 47,
        "StationID": "1165606825"
      },
      {
        "Name": "誠正國中",
        "Lat": 25.0518036904539,
        "Lon": 121.615865875754,
        "Sequence": 48,
        "StationID": "1711"
      },
      {
        "Name": "南港水廠",
        "Lat": 25.049543,
        "Lon": 121.615625,
        "Sequence": 49,
        "StationID": "1650"
      },
      {
        "Name": "圓拱橋",
        "Lat": 25.047199,
        "Lon": 121.615363,
        "Sequence": 50,
        "StationID": "1707"
      },
      {
        "Name": "中研新村",
        "Lat": 25.044722099556466,
        "Lon": 121.61558513647303,
        "Sequence": 51,
        "StationID": "1611"
      },
      {
        "Name": "中研院",
        "Lat": 25.04313,
        "Lon": 121.61648,
        "Sequence": 52,
        "StationID": "1610"
      },
      {
        "Name": "胡適公園",
        "Lat": 25.039528,
        "Lon": 121.617338,
        "Sequence": 53,
        "StationID": "1687"
      },
      {
        "Name": "九如里一",
        "Lat": 25.03813813,
        "Lon": 121.6169015,
        "Sequence": 54,
        "StationID": "1620"
      },
      {
        "Name": "凌雲五村",
        "Lat": 25.036259,
        "Lon": 121.616893,
        "Sequence": 55,
        "StationID": "1690"
      },
      {
        "Name": "九如里二",
        "Lat": 25.03500483,
        "Lon": 121.6161708,
        "Sequence": 56,
        "StationID": "1621"
      },
      {
        "Name": "凌雲站",
        "Lat": 25.03474253,
        "Lon": 121.6147203,
        "Sequence": 57,
        "StationID": "1686"
      },
      {
        "Name": "中華科技大學(正門)",
        "Lat": 25.03382827,
        "Lon": 121.6097652,
        "Sequence": 58,
        "StationID": "4085"
      }
    ]
  },
  {
    "Route": "北環幹線",
    "SubRoute": "北環幹線不繞駛士科路返程半",
    "Direction": 1,
    "Stops": [
      {
        "Name": "中華科技大學(正門)",
        "Lat": 25.03382827,
        "Lon": 121.6097652,
        "Sequence": 1,
        "StationID": "4085"
      },
      {
        "Name": "中華科技大學",
        "Lat": 25.033428,
        "Lon": 121.611345,
        "Sequence": 2,
        "StationID": "1613"
      },
      {
        "Name": "軍人公墓",
        "Lat": 25.0332955,
        "Lon": 121.6121944,
        "Sequence": 3,
        "StationID": "1000965"
      },
      {
        "Name": "凌雲站",
        "Lat": 25.0346121838879,
        "Lon": 121.61448946069,
        "Sequence": 4,
        "StationID": "3870"
      },
      {
        "Name": "九如里二",
        "Lat": 25.034863,
        "Lon": 121.61612,
        "Sequence": 5,
        "StationID": "1618"
      },
      {
        "Name": "凌雲五村",
        "Lat": 25.035872068306,
        "Lon": 121.61695169081,
        "Sequence": 6,
        "StationID": "50024"
      },
      {
        "Name": "九如里一",
        "Lat": 25.03770122,
        "Lon": 121.6170236,
        "Sequence": 7,
        "StationID": "1616"
      },
      {
        "Name": "胡適公園",
        "Lat": 25.040597,
        "Lon": 121.617633,
        "Sequence": 8,
        "StationID": "50023"
      },
      {
        "Name": "中研院",
        "Lat": 25.043422,
        "Lon": 121.616561,
        "Sequence": 9,
        "StationID": "50026"
      },
      {
        "Name": "中研新村",
        "Lat": 25.045074,
        "Lon": 121.615639,
        "Sequence": 10,
        "StationID": "1000313"
      },
      {
        "Name": "圓拱橋",
        "Lat": 25.047462,
        "Lon": 121.615728,
        "Sequence": 11,
        "StationID": "50022"
      },
      {
        "Name": "南港水廠",
        "Lat": 25.048610235261958,
        "Lon": 121.61601678871844,
        "Sequence": 12,
        "StationID": "50021"
      },
      {
        "Name": "誠正國中",
        "Lat": 25.0515460114719,
        "Lon": 121.61603141641,
        "Sequence": 13,
        "StationID": "50020"
      },
      {
        "Name": "南港展覽館",
        "Lat": 25.05534,
        "Lon": 121.6156,
        "Sequence": 14,
        "StationID": "1664"
      },
      {
        "Name": "南港軟體園區南站",
        "Lat": 25.05641711,
        "Lon": 121.6141291,
        "Sequence": 15,
        "StationID": "1678"
      },
      {
        "Name": "南港軟體園區北站",
        "Lat": 25.0596223969091,
        "Lon": 121.614279736525,
        "Sequence": 16,
        "StationID": "1680"
      },
      {
        "Name": "捷運東湖站(南湖高中)",
        "Lat": 25.066845,
        "Lon": 121.611416,
        "Sequence": 17,
        "StationID": "1000209"
      },
      {
        "Name": "明湖國中",
        "Lat": 25.0702607638519,
        "Lon": 121.611642249953,
        "Sequence": 18,
        "StationID": "8534"
      },
      {
        "Name": "明湖國小(公共電視台)",
        "Lat": 25.0718101504888,
        "Lon": 121.609308386226,
        "Sequence": 19,
        "StationID": "50442"
      },
      {
        "Name": "捷運葫洲站(康寧大學)",
        "Lat": 25.0726213066526,
        "Lon": 121.607610913193,
        "Sequence": 20,
        "StationID": "1165606697"
      },
      {
        "Name": "康寧醫院",
        "Lat": 25.07543061,
        "Lon": 121.6072451,
        "Sequence": 21,
        "StationID": "8629"
      },
      {
        "Name": "黃石公廟",
        "Lat": 25.078107,
        "Lon": 121.607197,
        "Sequence": 22,
        "StationID": "1118"
      },
      {
        "Name": "大湖公園",
        "Lat": 25.08303681690925,
        "Lon": 121.60525229995443,
        "Sequence": 23,
        "StationID": "50448"
      },
      {
        "Name": "捷運大湖公園站",
        "Lat": 25.08373507,
        "Lon": 121.6025457,
        "Sequence": 24,
        "StationID": "3997"
      },
      {
        "Name": "大湖",
        "Lat": 25.08478664,
        "Lon": 121.6000154,
        "Sequence": 25,
        "StationID": "974"
      },
      {
        "Name": "金龍里",
        "Lat": 25.0845601194501,
        "Lon": 121.59638478301,
        "Sequence": 26,
        "StationID": "1000737"
      },
      {
        "Name": "捷運內湖站",
        "Lat": 25.0834615421604,
        "Lon": 121.593879114086,
        "Sequence": 27,
        "StationID": "1071"
      },
      {
        "Name": "湖光市場",
        "Lat": 25.081779319488682,
        "Lon": 121.59179366923021,
        "Sequence": 28,
        "StationID": "1103"
      },
      {
        "Name": "成功路三段",
        "Lat": 25.0798544258006,
        "Lon": 121.589838083526,
        "Sequence": 29,
        "StationID": "1029"
      },
      {
        "Name": "內湖高中",
        "Lat": 25.07901319,
        "Lon": 121.5883097,
        "Sequence": 30,
        "StationID": "8523"
      },
      {
        "Name": "捷運文德站(碧湖公園)",
        "Lat": 25.078655,
        "Lon": 121.584351,
        "Sequence": 31,
        "StationID": "1109"
      },
      {
        "Name": "湖光國宅",
        "Lat": 25.07859,
        "Lon": 121.58078,
        "Sequence": 32,
        "StationID": "8415"
      },
      {
        "Name": "西湖圖書館(湖光教會)",
        "Lat": 25.07910692,
        "Lon": 121.5779835,
        "Sequence": 33,
        "StationID": "1000499"
      },
      {
        "Name": "捷運港墘站(內湖高工)",
        "Lat": 25.0798366021365,
        "Lon": 121.57610868441,
        "Sequence": 34,
        "StationID": "8527"
      },
      {
        "Name": "麗山國中",
        "Lat": 25.0806380998734,
        "Lon": 121.573860343024,
        "Sequence": 35,
        "StationID": "4084"
      },
      {
        "Name": "麗山街",
        "Lat": 25.081473,
        "Lon": 121.571386,
        "Sequence": 36,
        "StationID": "1153"
      },
      {
        "Name": "恕德家商",
        "Lat": 25.082118261496,
        "Lon": 121.569461375068,
        "Sequence": 37,
        "StationID": "50515"
      },
      {
        "Name": "捷運西湖站",
        "Lat": 25.0824213906562,
        "Lon": 121.565868143978,
        "Sequence": 38,
        "StationID": "1000723"
      },
      {
        "Name": "治磐新村",
        "Lat": 25.0830692818289,
        "Lon": 121.564098538475,
        "Sequence": 39,
        "StationID": "194"
      },
      {
        "Name": "文湖國小",
        "Lat": 25.0843810062584,
        "Lon": 121.561535778783,
        "Sequence": 40,
        "StationID": "8670"
      },
      {
        "Name": "美麗華",
        "Lat": 25.0848172776379,
        "Lon": 121.558119339359,
        "Sequence": 41,
        "StationID": "1322"
      },
      {
        "Name": "捷運劍南路站",
        "Lat": 25.085303158353604,
        "Lon": 121.55468793143969,
        "Sequence": 42,
        "StationID": "1000695"
      },
      {
        "Name": "外雙溪(故宮)",
        "Lat": 25.096654067919133,
        "Lon": 121.54728315713145,
        "Sequence": 43,
        "StationID": "3948"
      },
      {
        "Name": "故宮路口",
        "Lat": 25.098068128396,
        "Lon": 121.5459327705,
        "Sequence": 44,
        "StationID": "9449"
      },
      {
        "Name": "中影文化城",
        "Lat": 25.0972634661547,
        "Lon": 121.543765927365,
        "Sequence": 45,
        "StationID": "9448"
      },
      {
        "Name": "東吳大學(錢穆故居)",
        "Lat": 25.097411,
        "Lon": 121.541307,
        "Sequence": 46,
        "StationID": "728"
      },
      {
        "Name": "梅林新村",
        "Lat": 25.097585,
        "Lon": 121.539849,
        "Sequence": 47,
        "StationID": "807"
      },
      {
        "Name": "雙溪公園",
        "Lat": 25.098005332485762,
        "Lon": 121.53824562909286,
        "Sequence": 48,
        "StationID": "9446"
      },
      {
        "Name": "泰北中學",
        "Lat": 25.0977513146504,
        "Lon": 121.534030294965,
        "Sequence": 49,
        "StationID": "778"
      },
      {
        "Name": "士林官邸(中正)",
        "Lat": 25.0965,
        "Lon": 121.53144,
        "Sequence": 50,
        "StationID": "3953"
      },
      {
        "Name": "福林國小",
        "Lat": 25.0962,
        "Lon": 121.52976,
        "Sequence": 51,
        "StationID": "3954"
      },
      {
        "Name": "捷運士林站(中正)",
        "Lat": 25.095428,
        "Lon": 121.525882,
        "Sequence": 52,
        "StationID": "1165605299"
      },
      {
        "Name": "士林國中",
        "Lat": 25.094828,
        "Lon": 121.523269,
        "Sequence": 53,
        "StationID": "1000275"
      },
      {
        "Name": "士林區行政中心(中正)",
        "Lat": 25.093132,
        "Lon": 121.519396,
        "Sequence": 54,
        "StationID": "575"
      },
      {
        "Name": "陽明高中",
        "Lat": 25.092141,
        "Lon": 121.517889,
        "Sequence": 55,
        "StationID": "1000115"
      },
      {
        "Name": "士林監理站",
        "Lat": 25.095240716768018,
        "Lon": 121.51459702986995,
        "Sequence": 56,
        "StationID": "3328"
      },
      {
        "Name": "福美承平路口",
        "Lat": 25.10059120420348,
        "Lon": 121.50703302755403,
        "Sequence": 57,
        "StationID": "1165606675"
      },
      {
        "Name": "三王宮",
        "Lat": 25.1005585521,
        "Lon": 121.5059969206,
        "Sequence": 58,
        "StationID": "1165604737"
      },
      {
        "Name": "福美站",
        "Lat": 25.1004994023069,
        "Lon": 121.504482054692,
        "Sequence": 59,
        "StationID": "1165604735"
      }
    ]
  }
]