[
  {
    "Route": "綠17",
    "SubRoute": "綠17",
    "Direction": 0,
    "Stops": [
      {
        "Name": "華中河濱公園",
        "Lat": 25.0171711735736,
        "Lon": 121.496094355207,
        "Sequence": 1,
        "StationID": "1800"
      },
      {
        "Name": "果菜市場",
        "Lat": 25.01987,
        "Lon": 121.497706,
        "Sequence": 2,
        "StationID": "4622"
      },
      {
        "Name": "萬大國小",
        "Lat": 25.0232906952259,
        "Lon": 121.499894100772,
        "Sequence": 3,
        "StationID": "4640"
      },
      {
        "Name": "德昌街口",
        "Lat": 25.025045,
        "Lon": 121.500485,
        "Sequence": 4,
        "StationID": "1830"
      },
      {
        "Name": "萬華國中",
        "Lat": 25.02947288426842,
        "Lon": 121.49892995282089,
        "Sequence": 5,
        "StationID": "4635"
      },
      {
        "Name": "華江高中(西藏)",
        "Lat": 25.0291760619122,
        "Lon": 121.49649203449,
        "Sequence": 6,
        "StationID": "4634"
      },
      {
        "Name": "華江高中(西園)",
        "Lat": 25.0295844111411,
        "Lon": 121.496162828269,
        "Sequence": 7,
        "StationID": "4627"
      },
      {
        "Name": "西園29服飾基地",
        "Lat": 25.03244,
        "Lon": 121.497718,
        "Sequence": 8,
        "StationID": "4628"
      },
      {
        "Name": "大理服飾",
        "Lat": 25.034147,
        "Lon": 121.498768,
        "Sequence": 9,
        "StationID": "4626"
      },
      {
        "Name": "龍山寺(西園)",
        "Lat": 25.03777047,
        "Lon": 121.4996729,
        "Sequence": 10,
        "StationID": "4625"
      },
      {
        "Name": "青山宮",
        "Lat": 25.04020151,
        "Lon": 121.5001129,
        "Sequence": 11,
        "StationID": "1165610454"
      },
      {
        "Name": "長沙街",
        "Lat": 25.04058647,
        "Lon": 121.5055776,
        "Sequence": 12,
        "StationID": "1774"
      },
      {
        "Name": "捷運西門站",
        "Lat": 25.041730058378,
        "Lon": 121.508285900629,
        "Sequence": 13,
        "StationID": "1793"
      },
      {
        "Name": "中華路北站",
        "Lat": 25.0456964941835,
        "Lon": 121.509380726049,
        "Sequence": 14,
        "StationID": "1744"
      },
      {
        "Name": "捷運北門站",
        "Lat": 25.0492507169836,
        "Lon": 121.510332531364,
        "Sequence": 15,
        "StationID": "50044"
      },
      {
        "Name": "玉泉里",
        "Lat": 25.052779,
        "Lon": 121.50867,
        "Sequence": 16,
        "StationID": "1165603335"
      },
      {
        "Name": "南京西寧路口",
        "Lat": 25.05361732,
        "Lon": 121.5087627,
        "Sequence": 17,
        "StationID": "4802"
      },
      {
        "Name": "民生西寧路口",
        "Lat": 25.05625997,
        "Lon": 121.5090367,
        "Sequence": 18,
        "StationID": "1420"
      }
    ]
  },
  {
    "Route": "綠17",
    "SubRoute": "綠17",
    "Direction": 1,
    "Stops": [
      {
        "Name": "大稻埕碼頭",
        "Lat": 25.0566427,
        "Lon": 121.507839,
        "Sequence": 1,
        "StationID": "16251"
      },
      {
        "Name": "延平宮",
        "Lat": 25.053427689294423,
        "Lon": 121.50711199339771,
        "Sequence": 2,
        "StationID": "219"
      },
      {
        "Name": "聯合醫院中興院區(塔城)",
        "Lat": 25.0513352337636,
        "Lon": 121.510398526977,
        "Sequence": 3,
        "StationID": "1484"
      },
      {
        "Name": "捷運北門站",
        "Lat": 25.049002,
        "Lon": 121.510134,
        "Sequence": 4,
        "StationID": "1000077"
      },
      {
        "Name": "中華路北站",
        "Lat": 25.0445846194834,
        "Lon": 121.508765096201,
        "Sequence": 5,
        "StationID": "1001169"
      },
      {
        "Name": "捷運西門站",
        "Lat": 25.041649236993,
        "Lon": 121.507887356667,
        "Sequence": 6,
        "StationID": "4608"
      },
      {
        "Name": "長沙街",
        "Lat": 25.04063727,
        "Lon": 121.5053475,
        "Sequence": 7,
        "StationID": "4176"
      },
      {
        "Name": "康定路口",
        "Lat": 25.04056277,
        "Lon": 121.5025428,
        "Sequence": 8,
        "StationID": "1792"
      },
      {
        "Name": "艋舺天后宮",
        "Lat": 25.04040446,
        "Lon": 121.4997853,
        "Sequence": 9,
        "StationID": "1165610524"
      },
      {
        "Name": "龍山寺(西園)",
        "Lat": 25.036339844420194,
        "Lon": 121.49923722375564,
        "Sequence": 10,
        "StationID": "1165606057"
      },
      {
        "Name": "大理服飾",
        "Lat": 25.034146,
        "Lon": 121.498448,
        "Sequence": 11,
        "StationID": "1738"
      },
      {
        "Name": "西園29服飾基地",
        "Lat": 25.03244,
        "Lon": 121.49746,
        "Sequence": 12,
        "StationID": "1825"
      },
      {
        "Name": "華江高中(西園)",
        "Lat": 25.0296582647227,
        "Lon": 121.495950804601,
        "Sequence": 13,
        "StationID": "1804"
      },
      {
        "Name": "聚福宮",
        "Lat": 25.02677111,
        "Lon": 121.4959018,
        "Sequence": 14,
        "StationID": "1824"
      },
      {
        "Name": "保德里",
        "Lat": 25.02410306,
        "Lon": 121.4972069,
        "Sequence": 15,
        "StationID": "1776"
      },
      {
        "Name": "東園國小",
        "Lat": 25.02284001,
        "Lon": 121.4978484,
        "Sequence": 16,
        "StationID": "1770"
      },
      {
        "Name": "果菜市場",
        "Lat": 25.01942,
        "Lon": 121.497234,
        "Sequence": 17,
        "StationID": "1165604854"
      },
      {
        "Name": "華中河濱公園",
        "Lat": 25.01714,
        "Lon": 121.49565,
        "Sequence": 18,
        "StationID": "1799"
      }
    ]
  }
]