[
  {
    "Route": "內科通勤專車5",
    "SubRoute": "內科5往內科",
    "Direction": 0,
    "Stops": [
      {
        "Name": "捷運市政府站",
        "Lat": 25.040991,
        "Lon": 121.565249,
        "Sequence": 1,
        "StationID": "2150"
      },
      {
        "Name": "潭美國小(舊宗)",
        "Lat": 25.057957,
        "Lon": 121.581074,
        "Sequence": 3,
        "StationID": "1000222"
      },
      {
        "Name": "新湖一路口",
        "Lat": 25.06054231,
        "Lon": 121.5791317,
        "Sequence": 4,
        "StationID": "1000223"
      },
      {
        "Name": "新湖舊宗路口",
        "Lat": 25.062,
        "Lon": 121.57861,
        "Sequence": 5,
        "StationID": "1124"
      },
      {
        "Name": "精技大樓",
        "Lat": 25.063647810032915,
        "Lon": 121.58149990509064,
        "Sequence": 6,
        "StationID": "1001443"
      }
    ]
  },
  {
    "Route": "內科通勤專車5",
    "SubRoute": "內科5往市政府",
    "Direction": 1,
    "Stops": [
      {
        "Name": "精技大樓",
        "Lat": 25.064394618249743,
        "Lon": 121.58235002103366,
        "Sequence": 1,
        "StationID": "1139"
      },
      {
        "Name": "東南客運停車場",
        "Lat": 25.0635997659263,
        "Lon": 121.580999258182,
        "Sequence": 2,
        "StationID": "4820"
      },
      {
        "Name": "新湖舊宗路口",
        "Lat": 25.0623176113037,
        "Lon": 121.578721077514,
        "Sequence": 3,
        "StationID": "4020"
      },
      {
        "Name": "新湖一路口",
        "Lat": 25.0605916742291,
        "Lon": 121.578858331191,
        "Sequence": 4,
        "StationID": "1000213"
      },
      {
        "Name": "潭美國小(舊宗)",
        "Lat": 25.058297,
        "Lon": 121.580495,
        "Sequence": 5,
        "StationID": "1000215"
      },
      {
        "Name": "松山高中(基隆路)",
        "Lat": 25.0444493988665,
        "Lon": 121.56628044728,
        "Sequence": 8,
        "StationID": "2095"
      },
      {
        "Name": "捷運市政府站",
        "Lat": 25.040991,
        "Lon": 121.565249,
        "Sequence": 9,
        "StationID": "2150"
      }
    ]
  }
]