[
  {
    "Route": "市民小巴11",
    "SubRoute": "市民小巴11",
    "Direction": 0,
    "Stops": [
      {
        "Name": "天母圓環",
        "Lat": 25.1250319279241,
        "Lon": 121.532355169312,
        "Sequence": 1,
        "StationID": "4990"
      },
      {
        "Name": "中銀山莊",
        "Lat": 25.126841,
        "Lon": 121.532981,
        "Sequence": 2,
        "StationID": "4989"
      },
      {
        "Name": "水管路",
        "Lat": 25.126761,
        "Lon": 121.534271,
        "Sequence": 3,
        "StationID": "4988"
      },
      {
        "Name": "天母里",
        "Lat": 25.126156,
        "Lon": 121.534967,
        "Sequence": 4,
        "StationID": "1165604742"
      },
      {
        "Name": "天和里",
        "Lat": 25.125738629282726,
        "Lon": 121.53439072411565,
        "Sequence": 5,
        "StationID": "4987"
      },
      {
        "Name": "天母圓環",
        "Lat": 25.125651,
        "Lon": 121.531411,
        "Sequence": 6,
        "StationID": "1165604707"
      },
      {
        "Name": "天母公園",
        "Lat": 25.124606,
        "Lon": 121.530327,
        "Sequence": 7,
        "StationID": "1165604708"
      },
      {
        "Name": "合庫訓練中心",
        "Lat": 25.123171,
        "Lon": 121.529167,
        "Sequence": 8,
        "StationID": "1165604709"
      },
      {
        "Name": "天玉里",
        "Lat": 25.1214083603177,
        "Lon": 121.52664417791,
        "Sequence": 9,
        "StationID": "50648"
      },
      {
        "Name": "天母國小",
        "Lat": 25.118950713724,
        "Lon": 121.52615807606,
        "Sequence": 10,
        "StationID": "50655"
      },
      {
        "Name": "天壽里",
        "Lat": 25.117695,
        "Lon": 121.525984,
        "Sequence": 11,
        "StationID": "1165606497"
      },
      {
        "Name": "賴厝",
        "Lat": 25.1141183409596,
        "Lon": 121.527040561596,
        "Sequence": 12,
        "StationID": "50632"
      },
      {
        "Name": "士東國小",
        "Lat": 25.1115197312941,
        "Lon": 121.525723879398,
        "Sequence": 13,
        "StationID": "584"
      },
      {
        "Name": "蘭雅國小",
        "Lat": 25.1079571,
        "Lon": 121.52313,
        "Sequence": 14,
        "StationID": "4893"
      },
      {
        "Name": "捷運芝山站(福華)",
        "Lat": 25.104075,
        "Lon": 121.522316,
        "Sequence": 15,
        "StationID": "7263"
      }
    ]
  },
  {
    "Route": "市民小巴11",
    "SubRoute": "市民小巴11",
    "Direction": 1,
    "Stops": [
      {
        "Name": "蘭雅國小",
        "Lat": 25.10889729,
        "Lon": 121.5235,
        "Sequence": 1,
        "StationID": "4892"
      },
      {
        "Name": "士東國小",
        "Lat": 25.1114606666738,
        "Lon": 121.525980301506,
        "Sequence": 2,
        "StationID": "50631"
      },
      {
        "Name": "賴厝",
        "Lat": 25.1136575672193,
        "Lon": 121.527168964819,
        "Sequence": 3,
        "StationID": "934"
      },
      {
        "Name": "天壽里",
        "Lat": 25.116512,
        "Lon": 121.526445,
        "Sequence": 4,
        "StationID": "1165606496"
      },
      {
        "Name": "天玉里",
        "Lat": 25.12118051,
        "Lon": 121.5267177,
        "Sequence": 5,
        "StationID": "646"
      },
      {
        "Name": "合庫訓練中心",
        "Lat": 25.123061,
        "Lon": 121.529171,
        "Sequence": 6,
        "StationID": "4992"
      },
      {
        "Name": "天母公園",
        "Lat": 25.124601,
        "Lon": 121.530461,
        "Sequence": 7,
        "StationID": "4991"
      },
      {
        "Name": "天母圓環",
        "Lat": 25.1250319279241,
        "Lon": 121.532355169312,
        "Sequence": 8,
        "StationID": "4990"
      },
      {
        "Name": "天和里",
        "Lat": 25.12558,
        "Lon": 121.53427,
        "Sequence": 9,
        "StationID": "1165605975"
      },
      {
        "Name": "天母里",
        "Lat": 25.12621371,
        "Lon": 121.5350442,
        "Sequence": 10,
        "StationID": "1165610491"
      },
      {
        "Name": "天母古道登山口",
        "Lat": 25.12754,
        "Lon": 121.53368,
        "Sequence": 11,
        "StationID": "1165605966"
      },
      {
        "Name": "天母圓環",
        "Lat": 25.125651,
        "Lon": 121.531411,
        "Sequence": 12,
        "StationID": "1165604707"
      }
    ]
  }
]