[
  {
    "Route": "225區",
    "SubRoute": "225區",
    "Direction": 0,
    "Stops": [
      {
        "Name": "忠義國小",
        "Lat": 25.088955263417,
        "Lon": 121.46338504299,
        "Sequence": 1,
        "StationID": "3668"
      },
      {
        "Name": "柳堤公園",
        "Lat": 25.08762404,
        "Lon": 121.4621514,
        "Sequence": 2,
        "StationID": "4791"
      },
      {
        "Name": "中原公園",
        "Lat": 25.084617,
        "Lon": 121.462835,
        "Sequence": 3,
        "StationID": "15082"
      },
      {
        "Name": "長榮中原路口",
        "Lat": 25.084413,
        "Lon": 121.461506,
        "Sequence": 4,
        "StationID": "4792"
      },
      {
        "Name": "長榮光明路口",
        "Lat": 25.08676744,
        "Lon": 121.4600359,
        "Sequence": 5,
        "StationID": "4793"
      },
      {
        "Name": "永平市場",
        "Lat": 25.090129,
        "Lon": 121.459668,
        "Sequence": 6,
        "StationID": "15081"
      },
      {
        "Name": "長榮路",
        "Lat": 25.0923306,
        "Lon": 121.4606387,
        "Sequence": 7,
        "StationID": "50419"
      },
      {
        "Name": "捷運蘆洲站",
        "Lat": 25.091505,
        "Lon": 121.463227,
        "Sequence": 8,
        "StationID": "1000423"
      },
      {
        "Name": "蘆洲總站",
        "Lat": 25.089056,
        "Lon": 121.465804,
        "Sequence": 9,
        "StationID": "3698"
      },
      {
        "Name": "王爺廟口",
        "Lat": 25.08814,
        "Lon": 121.46664,
        "Sequence": 10,
        "StationID": "3655"
      },
      {
        "Name": "空中大學(中正路)",
        "Lat": 25.08671129,
        "Lon": 121.4677982,
        "Sequence": 11,
        "StationID": "3670"
      },
      {
        "Name": "中原公寓",
        "Lat": 25.08574782,
        "Lon": 121.4684977,
        "Sequence": 12,
        "StationID": "77"
      },
      {
        "Name": "蘆洲國小",
        "Lat": 25.08302,
        "Lon": 121.470464,
        "Sequence": 13,
        "StationID": "3695"
      },
      {
        "Name": "蘆洲監理站",
        "Lat": 25.081628,
        "Lon": 121.472348,
        "Sequence": 14,
        "StationID": "3696"
      },
      {
        "Name": "蘆洲派出所",
        "Lat": 25.081859,
        "Lon": 121.473209,
        "Sequence": 15,
        "StationID": "3693"
      },
      {
        "Name": "溪墘",
        "Lat": 25.081453,
        "Lon": 121.476637,
        "Sequence": 16,
        "StationID": "3684"
      },
      {
        "Name": "捷運徐匯中學站",
        "Lat": 25.080762,
        "Lon": 121.479191,
        "Sequence": 17,
        "StationID": "4108"
      },
      {
        "Name": "徐匯中學",
        "Lat": 25.0795793818446,
        "Lon": 121.481238194798,
        "Sequence": 18,
        "StationID": "3449"
      },
      {
        "Name": "幸福市場",
        "Lat": 25.078537,
        "Lon": 121.483076,
        "Sequence": 19,
        "StationID": "3427"
      },
      {
        "Name": "建和新村",
        "Lat": 25.07777593,
        "Lon": 121.4845214,
        "Sequence": 20,
        "StationID": "3441"
      },
      {
        "Name": "捷運三和國中站",
        "Lat": 25.07691628,
        "Lon": 121.4859364,
        "Sequence": 21,
        "StationID": "3391"
      },
      {
        "Name": "三和國中",
        "Lat": 25.075482682654,
        "Lon": 121.48856950179,
        "Sequence": 22,
        "StationID": "4126"
      },
      {
        "Name": "格致中學(三和路)",
        "Lat": 25.073995,
        "Lon": 121.491151,
        "Sequence": 23,
        "StationID": "3450"
      },
      {
        "Name": "厚德派出所",
        "Lat": 25.07293,
        "Lon": 121.492963,
        "Sequence": 24,
        "StationID": "3438"
      },
      {
        "Name": "德林寺(三和路)",
        "Lat": 25.071998,
        "Lon": 121.49431,
        "Sequence": 25,
        "StationID": "10424"
      },
      {
        "Name": "龍門路口(三和路)",
        "Lat": 25.0710388497354,
        "Lon": 121.495689942899,
        "Sequence": 26,
        "StationID": "1001201"
      },
      {
        "Name": "捷運三重國小站",
        "Lat": 25.07022903,
        "Lon": 121.496763,
        "Sequence": 27,
        "StationID": "3402"
      },
      {
        "Name": "三重國小",
        "Lat": 25.06934,
        "Lon": 121.49806,
        "Sequence": 28,
        "StationID": "4803"
      },
      {
        "Name": "三和長榮路口",
        "Lat": 25.0683597687088,
        "Lon": 121.499510882057,
        "Sequence": 29,
        "StationID": "3434"
      },
      {
        "Name": "長生街口",
        "Lat": 25.0671811216025,
        "Lon": 121.500788879211,
        "Sequence": 30,
        "StationID": "3433"
      },
      {
        "Name": "三重派出所(福德北路)",
        "Lat": 25.064639,
        "Lon": 121.502278,
        "Sequence": 31,
        "StationID": "3398"
      },
      {
        "Name": "捷運民權西路站",
        "Lat": 25.0628480067,
        "Lon": 121.5178677888,
        "Sequence": 32,
        "StationID": "1000398"
      },
      {
        "Name": "民權中山路口",
        "Lat": 25.06271419,
        "Lon": 121.5223009,
        "Sequence": 33,
        "StationID": "1235"
      },
      {
        "Name": "捷運中山國小站",
        "Lat": 25.06266873,
        "Lon": 121.5253813,
        "Sequence": 34,
        "StationID": "4098"
      },
      {
        "Name": "民權吉林路口",
        "Lat": 25.06254664,
        "Lon": 121.5300637,
        "Sequence": 35,
        "StationID": "1000112"
      },
      {
        "Name": "民權松江路口",
        "Lat": 25.0624771,
        "Lon": 121.5328589,
        "Sequence": 36,
        "StationID": "1239"
      },
      {
        "Name": "民權建國路口",
        "Lat": 25.06236889,
        "Lon": 121.5364984,
        "Sequence": 37,
        "StationID": "1242"
      },
      {
        "Name": "民權龍江路口",
        "Lat": 25.0623255291835,
        "Lon": 121.540554014847,
        "Sequence": 38,
        "StationID": "1000186"
      },
      {
        "Name": "民權復興路口",
        "Lat": 25.06227185,
        "Lon": 121.5438692,
        "Sequence": 39,
        "StationID": "1000326"
      },
      {
        "Name": "民權敦化路口",
        "Lat": 25.062020643130538,
        "Lon": 121.54762539917303,
        "Sequence": 40,
        "StationID": "1244"
      }
    ]
  },
  {
    "Route": "225區",
    "SubRoute": "225區",
    "Direction": 1,
    "Stops": [
      {
        "Name": "松山機場",
        "Lat": 25.063277,
        "Lon": 121.55196,
        "Sequence": 1,
        "StationID": "1536"
      },
      {
        "Name": "民權敦化路口",
        "Lat": 25.06203573,
        "Lon": 121.5482873,
        "Sequence": 2,
        "StationID": "60134"
      },
      {
        "Name": "民權復興路口",
        "Lat": 25.06222037,
        "Lon": 121.5446524,
        "Sequence": 3,
        "StationID": "1000329"
      },
      {
        "Name": "民權龍江路口",
        "Lat": 25.0623959365736,
        "Lon": 121.541275218891,
        "Sequence": 4,
        "StationID": "1000184"
      },
      {
        "Name": "民權建國路口",
        "Lat": 25.06248317,
        "Lon": 121.53746,
        "Sequence": 5,
        "StationID": "4081"
      },
      {
        "Name": "民權松江路口",
        "Lat": 25.06252486,
        "Lon": 121.5334388,
        "Sequence": 6,
        "StationID": "1240"
      },
      {
        "Name": "民權吉林路口",
        "Lat": 25.062636,
        "Lon": 121.529148,
        "Sequence": 7,
        "StationID": "1000162"
      },
      {
        "Name": "捷運中山國小站",
        "Lat": 25.0627519578754,
        "Lon": 121.5259472364,
        "Sequence": 8,
        "StationID": "1165603308"
      },
      {
        "Name": "民權中山路口",
        "Lat": 25.06285356,
        "Lon": 121.5230024,
        "Sequence": 9,
        "StationID": "1236"
      },
      {
        "Name": "捷運民權西路站",
        "Lat": 25.062948670718,
        "Lon": 121.518977516403,
        "Sequence": 10,
        "StationID": "1000393"
      },
      {
        "Name": "民權大龍街口",
        "Lat": 25.062976,
        "Lon": 121.516467,
        "Sequence": 11,
        "StationID": "1427"
      },
      {
        "Name": "三重派出所(福德北路)",
        "Lat": 25.0654421476294,
        "Lon": 121.502140176662,
        "Sequence": 12,
        "StationID": "10433"
      },
      {
        "Name": "長生街口",
        "Lat": 25.0669346622284,
        "Lon": 121.50123787463,
        "Sequence": 13,
        "StationID": "58041"
      },
      {
        "Name": "三和長榮路口",
        "Lat": 25.0685145593238,
        "Lon": 121.49949705522,
        "Sequence": 14,
        "StationID": "10426"
      },
      {
        "Name": "三重國小",
        "Lat": 25.06949,
        "Lon": 121.49817,
        "Sequence": 15,
        "StationID": "4804"
      },
      {
        "Name": "捷運三重國小站",
        "Lat": 25.070556,
        "Lon": 121.496767,
        "Sequence": 16,
        "StationID": "10434"
      },
      {
        "Name": "德林寺(三和路)",
        "Lat": 25.07212332,
        "Lon": 121.4944102,
        "Sequence": 17,
        "StationID": "10423"
      },
      {
        "Name": "厚德派出所",
        "Lat": 25.07349256,
        "Lon": 121.4924535,
        "Sequence": 18,
        "StationID": "10422"
      },
      {
        "Name": "格致中學(三和路)",
        "Lat": 25.074357,
        "Lon": 121.490969,
        "Sequence": 19,
        "StationID": "10429"
      },
      {
        "Name": "三和國中",
        "Lat": 25.07639978,
        "Lon": 121.4873983,
        "Sequence": 20,
        "StationID": "4127"
      },
      {
        "Name": "捷運三和國中站",
        "Lat": 25.07710199,
        "Lon": 121.486132,
        "Sequence": 21,
        "StationID": "10428"
      },
      {
        "Name": "建和新村",
        "Lat": 25.0780278,
        "Lon": 121.4844874,
        "Sequence": 22,
        "StationID": "10427"
      },
      {
        "Name": "幸福市場",
        "Lat": 25.0789135,
        "Lon": 121.4828427,
        "Sequence": 23,
        "StationID": "10430"
      },
      {
        "Name": "捷運徐匯中學站",
        "Lat": 25.080319,
        "Lon": 121.480476,
        "Sequence": 24,
        "StationID": "10431"
      },
      {
        "Name": "民和公寓",
        "Lat": 25.0810914736106,
        "Lon": 121.4791180235,
        "Sequence": 25,
        "StationID": "15087"
      },
      {
        "Name": "溪墘",
        "Lat": 25.08167,
        "Lon": 121.47682,
        "Sequence": 26,
        "StationID": "3683"
      },
      {
        "Name": "蘆洲派出所",
        "Lat": 25.08207017,
        "Lon": 121.4735458,
        "Sequence": 27,
        "StationID": "1000394"
      },
      {
        "Name": "蘆洲監理站(中正路)",
        "Lat": 25.08184559,
        "Lon": 121.4716472,
        "Sequence": 28,
        "StationID": "3697"
      },
      {
        "Name": "蘆洲國小",
        "Lat": 25.08330021,
        "Lon": 121.4703582,
        "Sequence": 29,
        "StationID": "15070"
      },
      {
        "Name": "中原公寓",
        "Lat": 25.085252,
        "Lon": 121.469088,
        "Sequence": 30,
        "StationID": "15069"
      },
      {
        "Name": "空中大學(中正路)",
        "Lat": 25.087176,
        "Lon": 121.467676,
        "Sequence": 31,
        "StationID": "3671"
      },
      {
        "Name": "王爺廟口",
        "Lat": 25.08809,
        "Lon": 121.466902,
        "Sequence": 32,
        "StationID": "15068"
      },
      {
        "Name": "蘆洲總站",
        "Lat": 25.0891287596823,
        "Lon": 121.465970849851,
        "Sequence": 33,
        "StationID": "15067"
      },
      {
        "Name": "捷運蘆洲站",
        "Lat": 25.09148696,
        "Lon": 121.4638568,
        "Sequence": 34,
        "StationID": "15072"
      },
      {
        "Name": "長榮路",
        "Lat": 25.09231282,
        "Lon": 121.4603296,
        "Sequence": 35,
        "StationID": "3674"
      },
      {
        "Name": "永平市場",
        "Lat": 25.090164,
        "Lon": 121.459433,
        "Sequence": 36,
        "StationID": "3658"
      },
      {
        "Name": "長榮光明路口",
        "Lat": 25.08679659,
        "Lon": 121.4597668,
        "Sequence": 37,
        "StationID": "4795"
      },
      {
        "Name": "長榮中原路口",
        "Lat": 25.084376,
        "Lon": 121.46132,
        "Sequence": 38,
        "StationID": "4794"
      },
      {
        "Name": "中原公園",
        "Lat": 25.08459665,
        "Lon": 121.4629311,
        "Sequence": 39,
        "StationID": "3663"
      },
      {
        "Name": "柳堤公園",
        "Lat": 25.0870808,
        "Lon": 121.4626006,
        "Sequence": 40,
        "StationID": "4790"
      },
      {
        "Name": "忠義國小",
        "Lat": 25.089006447072155,
        "Lon": 121.46379943420793,
        "Sequence": 41,
        "StationID": "15083"
      }
    ]
  }
]