[
  {
    "Route": "重慶幹線",
    "SubRoute": "重慶幹線",
    "Direction": 0,
    "Stops": [
      {
        "Name": "捷運石牌站(西安)",
        "Lat": 25.114729,
        "Lon": 121.51501,
        "Sequence": 1,
        "StationID": "1001371"
      },
      {
        "Name": "捷運石牌站(東華)",
        "Lat": 25.11515658,
        "Lon": 121.5154878,
        "Sequence": 2,
        "StationID": "364"
      },
      {
        "Name": "綜合市場(捷運石牌站)",
        "Lat": 25.1157212492135,
        "Lon": 121.515801262638,
        "Sequence": 3,
        "StationID": "500"
      },
      {
        "Name": "永明派出所",
        "Lat": 25.117369,
        "Lon": 121.516564,
        "Sequence": 4,
        "StationID": "3977"
      },
      {
        "Name": "榮總",
        "Lat": 25.1185668257628,
        "Lon": 121.51968525315,
        "Sequence": 5,
        "StationID": "483"
      },
      {
        "Name": "榮光新村(榮總東院)",
        "Lat": 25.12021257,
        "Lon": 121.5227594,
        "Sequence": 6,
        "StationID": "14629"
      },
      {
        "Name": "永欣里",
        "Lat": 25.1218225,
        "Lon": 121.5236475,
        "Sequence": 7,
        "StationID": "14630"
      },
      {
        "Name": "福德廟(石牌)",
        "Lat": 25.12356742,
        "Lon": 121.5256724,
        "Sequence": 8,
        "StationID": "14619"
      },
      {
        "Name": "天北站",
        "Lat": 25.12283081,
        "Lon": 121.5265869,
        "Sequence": 9,
        "StationID": "634"
      },
      {
        "Name": "天玉里",
        "Lat": 25.1214083603177,
        "Lon": 121.52664417791,
        "Sequence": 10,
        "StationID": "50648"
      },
      {
        "Name": "天母國小",
        "Lat": 25.118950713724,
        "Lon": 121.52615807606,
        "Sequence": 11,
        "StationID": "50655"
      },
      {
        "Name": "齊福華廈",
        "Lat": 25.11838172,
        "Lon": 121.5275693,
        "Sequence": 12,
        "StationID": "3890"
      },
      {
        "Name": "天母廣場",
        "Lat": 25.11927,
        "Lon": 121.53084,
        "Sequence": 13,
        "StationID": "50635"
      },
      {
        "Name": "天母新村",
        "Lat": 25.121299,
        "Lon": 121.5315658,
        "Sequence": 14,
        "StationID": "50638"
      },
      {
        "Name": "天母",
        "Lat": 25.12424,
        "Lon": 121.53273,
        "Sequence": 15,
        "StationID": "635"
      },
      {
        "Name": "天母",
        "Lat": 25.12420428,
        "Lon": 121.53245,
        "Sequence": 16,
        "StationID": "50634"
      },
      {
        "Name": "農訓協會",
        "Lat": 25.12262,
        "Lon": 121.53187,
        "Sequence": 17,
        "StationID": "1000328"
      },
      {
        "Name": "天母新村",
        "Lat": 25.12124699952,
        "Lon": 121.53134848347,
        "Sequence": 18,
        "StationID": "644"
      },
      {
        "Name": "天母廣場",
        "Lat": 25.1193246795518,
        "Lon": 121.53060908611,
        "Sequence": 19,
        "StationID": "645"
      },
      {
        "Name": "齊福華廈",
        "Lat": 25.11850567,
        "Lon": 121.5276437,
        "Sequence": 20,
        "StationID": "4981"
      },
      {
        "Name": "天母國小",
        "Lat": 25.11878529,
        "Lon": 121.5262529,
        "Sequence": 21,
        "StationID": "638"
      },
      {
        "Name": "天玉里",
        "Lat": 25.12118051,
        "Lon": 121.5267177,
        "Sequence": 22,
        "StationID": "646"
      },
      {
        "Name": "天北站",
        "Lat": 25.12302715,
        "Lon": 121.5266397,
        "Sequence": 23,
        "StationID": "50646"
      },
      {
        "Name": "福德廟(石牌)",
        "Lat": 25.12357001,
        "Lon": 121.525261,
        "Sequence": 24,
        "StationID": "55001"
      },
      {
        "Name": "永欣里",
        "Lat": 25.12221658,
        "Lon": 121.5238999,
        "Sequence": 25,
        "StationID": "14620"
      },
      {
        "Name": "榮光新村(榮總東院)",
        "Lat": 25.12028036,
        "Lon": 121.5226771,
        "Sequence": 26,
        "StationID": "482"
      },
      {
        "Name": "榮總一",
        "Lat": 25.1188249158648,
        "Lon": 121.520551599272,
        "Sequence": 27,
        "StationID": "55004"
      },
      {
        "Name": "榮總",
        "Lat": 25.1184508084325,
        "Lon": 121.518052504684,
        "Sequence": 28,
        "StationID": "14624"
      },
      {
        "Name": "永明派出所",
        "Lat": 25.1172201622833,
        "Lon": 121.516366480061,
        "Sequence": 29,
        "StationID": "14625"
      },
      {
        "Name": "綜合市場(捷運石牌站)",
        "Lat": 25.115911,
        "Lon": 121.515502,
        "Sequence": 30,
        "StationID": "14626"
      },
      {
        "Name": "石牌國小",
        "Lat": 25.114301,
        "Lon": 121.51277,
        "Sequence": 31,
        "StationID": "3956"
      },
      {
        "Name": "石牌路",
        "Lat": 25.113305413702086,
        "Lon": 121.5105335296023,
        "Sequence": 32,
        "StationID": "3957"
      },
      {
        "Name": "石牌福星宮",
        "Lat": 25.1095368758096,
        "Lon": 121.512347026452,
        "Sequence": 33,
        "StationID": "153"
      },
      {
        "Name": "文林國小",
        "Lat": 25.10803433,
        "Lon": 121.5139733,
        "Sequence": 34,
        "StationID": "94"
      },
      {
        "Name": "中正高中",
        "Lat": 25.105059,
        "Lon": 121.517803,
        "Sequence": 35,
        "StationID": "60"
      },
      {
        "Name": "捷運芝山站(戲曲中心)",
        "Lat": 25.1022630440787,
        "Lon": 121.520473605143,
        "Sequence": 36,
        "StationID": "800"
      },
      {
        "Name": "捷運芝山站一",
        "Lat": 25.1008497293525,
        "Lon": 121.522307508871,
        "Sequence": 37,
        "StationID": "1000347"
      },
      {
        "Name": "士林",
        "Lat": 25.0959118891448,
        "Lon": 121.524279381093,
        "Sequence": 38,
        "StationID": "569"
      },
      {
        "Name": "士林國中",
        "Lat": 25.094772,
        "Lon": 121.522929,
        "Sequence": 39,
        "StationID": "1165604814"
      },
      {
        "Name": "士林區行政中心(中正)",
        "Lat": 25.09406,
        "Lon": 121.52085,
        "Sequence": 40,
        "StationID": "1165608555"
      },
      {
        "Name": "陽明高中",
        "Lat": 25.092141,
        "Lon": 121.517889,
        "Sequence": 41,
        "StationID": "1000115"
      },
      {
        "Name": "葫東重慶路口",
        "Lat": 25.084340383790973,
        "Lon": 121.51144611421903,
        "Sequence": 42,
        "StationID": "887"
      },
      {
        "Name": "士林簡易庭",
        "Lat": 25.08192,
        "Lon": 121.51261,
        "Sequence": 43,
        "StationID": "591"
      },
      {
        "Name": "啟聰學校",
        "Lat": 25.07451003,
        "Lon": 121.5136892,
        "Sequence": 44,
        "StationID": "1000383"
      },
      {
        "Name": "酒泉重慶路口",
        "Lat": 25.07328,
        "Lon": 121.51367,
        "Sequence": 45,
        "StationID": "1505"
      },
      {
        "Name": "民族重慶路口",
        "Lat": 25.0688798965403,
        "Lon": 121.5137100606,
        "Sequence": 46,
        "StationID": "1000066"
      },
      {
        "Name": "昌吉重慶路口",
        "Lat": 25.06615028,
        "Lon": 121.5136438,
        "Sequence": 47,
        "StationID": "1001006"
      },
      {
        "Name": "捷運大橋頭站",
        "Lat": 25.0633249732882,
        "Lon": 121.513516380874,
        "Sequence": 48,
        "StationID": "8622"
      },
      {
        "Name": "涼州重慶路口",
        "Lat": 25.060980060423,
        "Lon": 121.513509342762,
        "Sequence": 49,
        "StationID": "8624"
      },
      {
        "Name": "民生重慶路口",
        "Lat": 25.0571504842388,
        "Lon": 121.51369271164,
        "Sequence": 50,
        "StationID": "1421"
      },
      {
        "Name": "朝陽公園(鈕釦街)",
        "Lat": 25.055504,
        "Lon": 121.514022,
        "Sequence": 51,
        "StationID": "1165605935"
      },
      {
        "Name": "圓環(重慶)",
        "Lat": 25.0530178614119,
        "Lon": 121.514023920514,
        "Sequence": 52,
        "StationID": "16018"
      },
      {
        "Name": "後車站",
        "Lat": 25.050402129064192,
        "Lon": 121.51344796988172,
        "Sequence": 53,
        "StationID": "1000683"
      },
      {
        "Name": "臺北車站(重慶)",
        "Lat": 25.046552005302367,
        "Lon": 121.51316241098594,
        "Sequence": 54,
        "StationID": "1891"
      },
      {
        "Name": "臺北郵局(撫臺街洋樓)",
        "Lat": 25.046034860361424,
        "Lon": 121.51018571259864,
        "Sequence": 55,
        "StationID": "4747"
      },
      {
        "Name": "中華路北站",
        "Lat": 25.0455115050969,
        "Lon": 121.509144127644,
        "Sequence": 56,
        "StationID": "1000078"
      },
      {
        "Name": "捷運西門站",
        "Lat": 25.0425165606871,
        "Lon": 121.508266771006,
        "Sequence": 57,
        "StationID": "1000079"
      },
      {
        "Name": "小南門",
        "Lat": 25.0380081419194,
        "Lon": 121.506812536211,
        "Sequence": 58,
        "StationID": "1975"
      },
      {
        "Name": "龍山國中",
        "Lat": 25.03584463,
        "Lon": 121.5038948,
        "Sequence": 59,
        "StationID": "1835"
      },
      {
        "Name": "萬華車站",
        "Lat": 25.03486363,
        "Lon": 121.5010585,
        "Sequence": 60,
        "StationID": "4619"
      },
      {
        "Name": "莒光路口",
        "Lat": 25.03176,
        "Lon": 121.50051,
        "Sequence": 61,
        "StationID": "1796"
      },
      {
        "Name": "萬大路",
        "Lat": 25.030744,
        "Lon": 121.500473,
        "Sequence": 62,
        "StationID": "1811"
      },
      {
        "Name": "西藏路口",
        "Lat": 25.0289649585261,
        "Lon": 121.50037694828528,
        "Sequence": 63,
        "StationID": "1759"
      },
      {
        "Name": "德昌街口",
        "Lat": 25.025052181005517,
        "Lon": 121.50026027816166,
        "Sequence": 64,
        "StationID": "1829"
      },
      {
        "Name": "萬大國小",
        "Lat": 25.024019027640023,
        "Lon": 121.49999538902145,
        "Sequence": 65,
        "StationID": "1810"
      },
      {
        "Name": "果菜市場",
        "Lat": 25.01942,
        "Lon": 121.497234,
        "Sequence": 66,
        "StationID": "1165604854"
      },
      {
        "Name": "華中河濱公園",
        "Lat": 25.01714,
        "Lon": 121.49565,
        "Sequence": 67,
        "StationID": "1799"
      }
    ]
  },
  {
    "Route": "重慶幹線",
    "SubRoute": "重慶幹線",
    "Direction": 1,
    "Stops": [
      {
        "Name": "華中河濱公園",
        "Lat": 25.0171711735736,
        "Lon": 121.496094355207,
        "Sequence": 1,
        "StationID": "1800"
      },
      {
        "Name": "果菜市場",
        "Lat": 25.01987,
        "Lon": 121.497706,
        "Sequence": 2,
        "StationID": "4622"
      },
      {
        "Name": "萬大國小",
        "Lat": 25.0232906952259,
        "Lon": 121.499894100772,
        "Sequence": 3,
        "StationID": "4640"
      },
      {
        "Name": "德昌街口",
        "Lat": 25.025045,
        "Lon": 121.500485,
        "Sequence": 4,
        "StationID": "1830"
      },
      {
        "Name": "西藏路口",
        "Lat": 25.028737,
        "Lon": 121.500599,
        "Sequence": 5,
        "StationID": "4639"
      },
      {
        "Name": "萬大路",
        "Lat": 25.0308055,
        "Lon": 121.500635,
        "Sequence": 6,
        "StationID": "4638"
      },
      {
        "Name": "莒光路口",
        "Lat": 25.031831103587,
        "Lon": 121.500615375179,
        "Sequence": 7,
        "StationID": "1795"
      },
      {
        "Name": "萬華車站",
        "Lat": 25.033974,
        "Lon": 121.501128,
        "Sequence": 8,
        "StationID": "1814"
      },
      {
        "Name": "龍山寺(康定)",
        "Lat": 25.0363140633243,
        "Lon": 121.501464019539,
        "Sequence": 9,
        "StationID": "1000975"
      },
      {
        "Name": "祖師廟(貴陽)",
        "Lat": 25.0399728811606,
        "Lon": 121.502490233032,
        "Sequence": 10,
        "StationID": "1784"
      },
      {
        "Name": "貴陽街",
        "Lat": 25.03944952637,
        "Lon": 121.50582384788,
        "Sequence": 11,
        "StationID": "1806"
      },
      {
        "Name": "捷運西門站",
        "Lat": 25.041730058378,
        "Lon": 121.508285900629,
        "Sequence": 12,
        "StationID": "1793"
      },
      {
        "Name": "中華路北站",
        "Lat": 25.0456964941835,
        "Lon": 121.509380726049,
        "Sequence": 13,
        "StationID": "1744"
      },
      {
        "Name": "捷運北門站",
        "Lat": 25.0492507169836,
        "Lon": 121.510332531364,
        "Sequence": 14,
        "StationID": "50044"
      },
      {
        "Name": "延平鄭州路口",
        "Lat": 25.05089,
        "Lon": 121.512006,
        "Sequence": 15,
        "StationID": "1928"
      },
      {
        "Name": "延平長安路口",
        "Lat": 25.053232,
        "Lon": 121.511847,
        "Sequence": 16,
        "StationID": "6000"
      },
      {
        "Name": "圓環(鈕釦街)",
        "Lat": 25.0539552344985,
        "Lon": 121.513268344324,
        "Sequence": 17,
        "StationID": "4665"
      },
      {
        "Name": "民生重慶路口",
        "Lat": 25.0567660236851,
        "Lon": 121.513825816749,
        "Sequence": 18,
        "StationID": "1422"
      },
      {
        "Name": "涼州重慶路口",
        "Lat": 25.060581358412865,
        "Lon": 121.51358595205109,
        "Sequence": 19,
        "StationID": "8625"
      },
      {
        "Name": "捷運大橋頭站",
        "Lat": 25.062704,
        "Lon": 121.513583,
        "Sequence": 20,
        "StationID": "8623"
      },
      {
        "Name": "昌吉重慶路口",
        "Lat": 25.06581169232777,
        "Lon": 121.51372071650857,
        "Sequence": 21,
        "StationID": "1441"
      },
      {
        "Name": "民族重慶路口",
        "Lat": 25.06841536079837,
        "Lon": 121.51377816707611,
        "Sequence": 22,
        "StationID": "1000167"
      },
      {
        "Name": "酒泉重慶路口",
        "Lat": 25.07180965,
        "Lon": 121.5138317,
        "Sequence": 23,
        "StationID": "1455"
      },
      {
        "Name": "啟聰學校",
        "Lat": 25.07431025376296,
        "Lon": 121.51400277550044,
        "Sequence": 24,
        "StationID": "1000386"
      },
      {
        "Name": "士林簡易庭",
        "Lat": 25.08159839,
        "Lon": 121.5132091,
        "Sequence": 25,
        "StationID": "50639"
      },
      {
        "Name": "葫東重慶路口",
        "Lat": 25.08435,
        "Lon": 121.51196,
        "Sequence": 26,
        "StationID": "50640"
      },
      {
        "Name": "陽明高中",
        "Lat": 25.09192,
        "Lon": 121.51817,
        "Sequence": 27,
        "StationID": "860"
      },
      {
        "Name": "士林區行政中心(中正)",
        "Lat": 25.092636,
        "Lon": 121.519189,
        "Sequence": 28,
        "StationID": "581"
      },
      {
        "Name": "士林國中",
        "Lat": 25.094485,
        "Lon": 121.522781,
        "Sequence": 29,
        "StationID": "1165604807"
      },
      {
        "Name": "士林",
        "Lat": 25.096111,
        "Lon": 121.524405,
        "Sequence": 30,
        "StationID": "10209"
      },
      {
        "Name": "捷運芝山站一",
        "Lat": 25.1007959524461,
        "Lon": 121.522657043885,
        "Sequence": 31,
        "StationID": "801"
      },
      {
        "Name": "捷運芝山站(戲曲中心)",
        "Lat": 25.1025,
        "Lon": 121.52067,
        "Sequence": 32,
        "StationID": "1000388"
      },
      {
        "Name": "中正高中",
        "Lat": 25.1058289859016,
        "Lon": 121.517290935039,
        "Sequence": 33,
        "StationID": "1000348"
      },
      {
        "Name": "文林國小",
        "Lat": 25.1075998291069,
        "Lon": 121.515036396953,
        "Sequence": 34,
        "StationID": "55017"
      },
      {
        "Name": "石牌福星宮",
        "Lat": 25.1104478952371,
        "Lon": 121.511778736417,
        "Sequence": 35,
        "StationID": "1000349"
      },
      {
        "Name": "石牌路",
        "Lat": 25.11352,
        "Lon": 121.51129,
        "Sequence": 36,
        "StationID": "156"
      },
      {
        "Name": "石牌國小",
        "Lat": 25.11434722,
        "Lon": 121.5131564,
        "Sequence": 37,
        "StationID": "154"
      },
      {
        "Name": "綜合市場(捷運石牌站)",
        "Lat": 25.1157212492135,
        "Lon": 121.515801262638,
        "Sequence": 38,
        "StationID": "500"
      },
      {
        "Name": "永明派出所",
        "Lat": 25.117369,
        "Lon": 121.516564,
        "Sequence": 39,
        "StationID": "3977"
      },
      {
        "Name": "榮總",
        "Lat": 25.1185668257628,
        "Lon": 121.51968525315,
        "Sequence": 40,
        "StationID": "483"
      },
      {
        "Name": "榮光新村(榮總東院)",
        "Lat": 25.12021257,
        "Lon": 121.5227594,
        "Sequence": 41,
        "StationID": "14629"
      },
      {
        "Name": "永欣里",
        "Lat": 25.1218225,
        "Lon": 121.5236475,
        "Sequence": 42,
        "StationID": "14630"
      },
      {
        "Name": "福德廟(石牌)",
        "Lat": 25.12356742,
        "Lon": 121.5256724,
        "Sequence": 43,
        "StationID": "14619"
      },
      {
        "Name": "天北站",
        "Lat": 25.12288432,
        "Lon": 121.5265466,
        "Sequence": 44,
        "StationID": "634"
      },
      {
        "Name": "天玉里",
        "Lat": 25.1214083603177,
        "Lon": 121.52664417791,
        "Sequence": 45,
        "StationID": "50648"
      },
      {
        "Name": "天母國小",
        "Lat": 25.118950713724,
        "Lon": 121.52615807606,
        "Sequence": 46,
        "StationID": "50655"
      },
      {
        "Name": "齊福華廈",
        "Lat": 25.11838172,
        "Lon": 121.5275693,
        "Sequence": 47,
        "StationID": "3890"
      },
      {
        "Name": "天母廣場",
        "Lat": 25.11927,
        "Lon": 121.53084,
        "Sequence": 48,
        "StationID": "50635"
      },
      {
        "Name": "天母新村",
        "Lat": 25.121299,
        "Lon": 121.5315658,
        "Sequence": 49,
        "StationID": "50638"
      },
      {
        "Name": "天母",
        "Lat": 25.12424,
        "Lon": 121.53273,
        "Sequence": 50,
        "StationID": "635"
      }
    ]
  },
  {
    "Route": "重慶幹線",
    "SubRoute": "重慶幹線去程半",
    "Direction": 0,
    "Stops": [
      {
        "Name": "捷運石牌站(西安)",
        "Lat": 25.114729,
        "Lon": 121.51501,
        "Sequence": 1,
        "StationID": "1001371"
      },
      {
        "Name": "捷運石牌站(東華)",
        "Lat": 25.11515658,
        "Lon": 121.5154878,
        "Sequence": 2,
        "StationID": "364"
      },
      {
        "Name": "綜合市場(捷運石牌站)",
        "Lat": 25.1157212492135,
        "Lon": 121.515801262638,
        "Sequence": 3,
        "StationID": "500"
      },
      {
        "Name": "永明派出所",
        "Lat": 25.117369,
        "Lon": 121.516564,
        "Sequence": 4,
        "StationID": "3977"
      },
      {
        "Name": "榮總",
        "Lat": 25.1185668257628,
        "Lon": 121.51968525315,
        "Sequence": 5,
        "StationID": "483"
      },
      {
        "Name": "榮光新村(榮總東院)",
        "Lat": 25.12021257,
        "Lon": 121.5227594,
        "Sequence": 6,
        "StationID": "14629"
      },
      {
        "Name": "永欣里",
        "Lat": 25.1218225,
        "Lon": 121.5236475,
        "Sequence": 7,
        "StationID": "14630"
      },
      {
        "Name": "福德廟(石牌)",
        "Lat": 25.12356742,
        "Lon": 121.5256724,
        "Sequence": 8,
        "StationID": "14619"
      },
      {
        "Name": "天北站",
        "Lat": 25.12283081,
        "Lon": 121.5265869,
        "Sequence": 9,
        "StationID": "634"
      },
      {
        "Name": "天玉里",
        "Lat": 25.1214083603177,
        "Lon": 121.52664417791,
        "Sequence": 10,
        "StationID": "50648"
      },
      {
        "Name": "天母國小",
        "Lat": 25.118950713724,
        "Lon": 121.52615807606,
        "Sequence": 11,
        "StationID": "50655"
      },
      {
        "Name": "齊福華廈",
        "Lat": 25.11838172,
        "Lon": 121.5275693,
        "Sequence": 12,
        "StationID": "3890"
      },
      {
        "Name": "天母廣場",
        "Lat": 25.11927,
        "Lon": 121.53084,
        "Sequence": 13,
        "StationID": "50635"
      },
      {
        "Name": "天母新村",
        "Lat": 25.121299,
        "Lon": 121.5315658,
        "Sequence": 14,
        "StationID": "50638"
      },
      {
        "Name": "天母",
        "Lat": 25.12424,
        "Lon": 121.53273,
        "Sequence": 15,
        "StationID": "635"
      },
      {
        "Name": "天母",
        "Lat": 25.12420428,
        "Lon": 121.53245,
        "Sequence": 16,
        "StationID": "50634"
      },
      {
        "Name": "農訓協會",
        "Lat": 25.12262,
        "Lon": 121.53187,
        "Sequence": 17,
        "StationID": "1000328"
      },
      {
        "Name": "天母新村",
        "Lat": 25.12124699952,
        "Lon": 121.53134848347,
        "Sequence": 18,
        "StationID": "644"
      },
      {
        "Name": "天母廣場",
        "Lat": 25.1193246795518,
        "Lon": 121.53060908611,
        "Sequence": 19,
        "StationID": "645"
      },
      {
        "Name": "齊福華廈",
        "Lat": 25.11850567,
        "Lon": 121.5276437,
        "Sequence": 20,
        "StationID": "4981"
      },
      {
        "Name": "天母國小",
        "Lat": 25.11878529,
        "Lon": 121.5262529,
        "Sequence": 21,
        "StationID": "638"
      },
      {
        "Name": "天玉里",
        "Lat": 25.12118051,
        "Lon": 121.5267177,
        "Sequence": 22,
        "StationID": "646"
      },
      {
        "Name": "天北站",
        "Lat": 25.12302715,
        "Lon": 121.5266397,
        "Sequence": 23,
        "StationID": "50646"
      },
      {
        "Name": "福德廟(石牌)",
        "Lat": 25.12357001,
        "Lon": 121.525261,
        "Sequence": 24,
        "StationID": "55001"
      },
      {
        "Name": "永欣里",
        "Lat": 25.12221658,
        "Lon": 121.5238999,
        "Sequence": 25,
        "StationID": "14620"
      },
      {
        "Name": "榮光新村(榮總東院)",
        "Lat": 25.12028036,
        "Lon": 121.5226771,
        "Sequence": 26,
        "StationID": "482"
      },
      {
        "Name": "榮總一",
        "Lat": 25.1188249158648,
        "Lon": 121.520551599272,
        "Sequence": 27,
        "StationID": "55004"
      },
      {
        "Name": "榮總",
        "Lat": 25.1184508084325,
        "Lon": 121.518052504684,
        "Sequence": 28,
        "StationID": "14624"
      },
      {
        "Name": "永明派出所",
        "Lat": 25.1172201622833,
        "Lon": 121.516366480061,
        "Sequence": 29,
        "StationID": "14625"
      },
      {
        "Name": "綜合市場(捷運石牌站)",
        "Lat": 25.115911,
        "Lon": 121.515502,
        "Sequence": 30,
        "StationID": "14626"
      },
      {
        "Name": "石牌國小",
        "Lat": 25.114301,
        "Lon": 121.51277,
        "Sequence": 31,
        "StationID": "3956"
      },
      {
        "Name": "石牌路",
        "Lat": 25.113305413702086,
        "Lon": 121.5105335296023,
        "Sequence": 32,
        "StationID": "3957"
      },
      {
        "Name": "石牌福星宮",
        "Lat": 25.1095368758096,
        "Lon": 121.512347026452,
        "Sequence": 33,
        "StationID": "153"
      },
      {
        "Name": "文林國小",
        "Lat": 25.10803433,
        "Lon": 121.5139733,
        "Sequence": 34,
        "StationID": "94"
      },
      {
        "Name": "中正高中",
        "Lat": 25.105059,
        "Lon": 121.517803,
        "Sequence": 35,
        "StationID": "60"
      },
      {
        "Name": "捷運芝山站(戲曲中心)",
        "Lat": 25.1022630440787,
        "Lon": 121.520473605143,
        "Sequence": 36,
        "StationID": "800"
      },
      {
        "Name": "捷運芝山站一",
        "Lat": 25.1008497293525,
        "Lon": 121.522307508871,
        "Sequence": 37,
        "StationID": "1000347"
      },
      {
        "Name": "士林",
        "Lat": 25.0959118891448,
        "Lon": 121.524279381093,
        "Sequence": 38,
        "StationID": "569"
      },
      {
        "Name": "士林國中",
        "Lat": 25.094772,
        "Lon": 121.522929,
        "Sequence": 39,
        "StationID": "1165604814"
      },
      {
        "Name": "士林區行政中心(中正)",
        "Lat": 25.09406,
        "Lon": 121.52085,
        "Sequence": 40,
        "StationID": "1165608555"
      },
      {
        "Name": "陽明高中",
        "Lat": 25.092141,
        "Lon": 121.517889,
        "Sequence": 41,
        "StationID": "1000115"
      },
      {
        "Name": "葫東重慶路口",
        "Lat": 25.084340383790973,
        "Lon": 121.51144611421903,
        "Sequence": 42,
        "StationID": "887"
      },
      {
        "Name": "士林簡易庭",
        "Lat": 25.08192,
        "Lon": 121.51261,
        "Sequence": 43,
        "StationID": "591"
      },
      {
        "Name": "啟聰學校",
        "Lat": 25.07451003,
        "Lon": 121.5136892,
        "Sequence": 44,
        "StationID": "1000383"
      },
      {
        "Name": "酒泉重慶路口",
        "Lat": 25.07328,
        "Lon": 121.51367,
        "Sequence": 45,
        "StationID": "1505"
      },
      {
        "Name": "民族重慶路口",
        "Lat": 25.0688798965403,
        "Lon": 121.5137100606,
        "Sequence": 46,
        "StationID": "1000066"
      },
      {
        "Name": "昌吉重慶路口",
        "Lat": 25.06615028,
        "Lon": 121.5136438,
        "Sequence": 47,
        "StationID": "1001006"
      },
      {
        "Name": "捷運大橋頭站",
        "Lat": 25.0633249732882,
        "Lon": 121.513516380874,
        "Sequence": 48,
        "StationID": "8622"
      },
      {
        "Name": "涼州重慶路口",
        "Lat": 25.060980060423,
        "Lon": 121.513509342762,
        "Sequence": 49,
        "StationID": "8624"
      },
      {
        "Name": "民生重慶路口",
        "Lat": 25.0571504842388,
        "Lon": 121.51369271164,
        "Sequence": 50,
        "StationID": "1421"
      },
      {
        "Name": "朝陽公園(鈕釦街)",
        "Lat": 25.055504,
        "Lon": 121.514022,
        "Sequence": 51,
        "StationID": "1165605935"
      },
      {
        "Name": "圓環(重慶)",
        "Lat": 25.0530178614119,
        "Lon": 121.514023920514,
        "Sequence": 52,
        "StationID": "16018"
      },
      {
        "Name": "後車站",
        "Lat": 25.050402129064192,
        "Lon": 121.51344796988172,
        "Sequence": 53,
        "StationID": "1000683"
      },
      {
        "Name": "臺北車站(重慶)",
        "Lat": 25.046552005302367,
        "Lon": 121.51316241098594,
        "Sequence": 54,
        "StationID": "1891"
      },
      {
        "Name": "臺北郵局(撫臺街洋樓)",
        "Lat": 25.046034860361424,
        "Lon": 121.51018571259864,
        "Sequence": 55,
        "StationID": "4747"
      },
      {
        "Name": "中華路北站",
        "Lat": 25.0455115050969,
        "Lon": 121.509144127644,
        "Sequence": 56,
        "StationID": "1000078"
      },
      {
        "Name": "捷運西門站",
        "Lat": 25.0425165606871,
        "Lon": 121.508266771006,
        "Sequence": 57,
        "StationID": "1000079"
      },
      {
        "Name": "小南門",
        "Lat": 25.0380081419194,
        "Lon": 121.506812536211,
        "Sequence": 58,
        "StationID": "1975"
      },
      {
        "Name": "龍山國中",
        "Lat": 25.03584463,
        "Lon": 121.5038948,
        "Sequence": 59,
        "StationID": "1835"
      },
      {
        "Name": "萬華車站",
        "Lat": 25.03486363,
        "Lon": 121.5010585,
        "Sequence": 60,
        "StationID": "4619"
      },
      {
        "Name": "莒光路口",
        "Lat": 25.03176,
        "Lon": 121.50051,
        "Sequence": 61,
        "StationID": "1796"
      },
      {
        "Name": "萬大路",
        "Lat": 25.030744,
        "Lon": 121.500473,
        "Sequence": 62,
        "StationID": "1811"
      },
      {
        "Name": "西藏路口",
        "Lat": 25.0289649585261,
        "Lon": 121.50037694828528,
        "Sequence": 63,
        "StationID": "1759"
      },
      {
        "Name": "德昌街口",
        "Lat": 25.025052181005517,
        "Lon": 121.50026027816166,
        "Sequence": 64,
        "StationID": "1829"
      },
      {
        "Name": "萬大國小",
        "Lat": 25.024019027640023,
        "Lon": 121.49999538902145,
        "Sequence": 65,
        "StationID": "1810"
      },
      {
        "Name": "果菜市場",
        "Lat": 25.01942,
        "Lon": 121.497234,
        "Sequence": 66,
        "StationID": "1165604854"
      },
      {
        "Name": "華中河濱公園",
        "Lat": 25.01714,
        "Lon": 121.49565,
        "Sequence": 67,
        "StationID": "1799"
      }
    ]
  },
  {
    "Route": "重慶幹線",
    "SubRoute": "重慶幹線返程半",
    "Direction": 1,
    "Stops": [
      {
        "Name": "華中河濱公園",
        "Lat": 25.0171711735736,
        "Lon": 121.496094355207,
        "Sequence": 1,
        "StationID": "1800"
      },
      {
        "Name": "果菜市場",
        "Lat": 25.01987,
        "Lon": 121.497706,
        "Sequence": 2,
        "StationID": "4622"
      },
      {
        "Name": "萬大國小",
        "Lat": 25.0232906952259,
        "Lon": 121.499894100772,
        "Sequence": 3,
        "StationID": "4640"
      },
      {
        "Name": "德昌街口",
        "Lat": 25.025045,
        "Lon": 121.500485,
        "Sequence": 4,
        "StationID": "1830"
      },
      {
        "Name": "西藏路口",
        "Lat": 25.028737,
        "Lon": 121.500599,
        "Sequence": 5,
        "StationID": "4639"
      },
      {
        "Name": "萬大路",
        "Lat": 25.0308055,
        "Lon": 121.500635,
        "Sequence": 6,
        "StationID": "4638"
      },
      {
        "Name": "莒光路口",
        "Lat": 25.031831103587,
        "Lon": 121.500615375179,
        "Sequence": 7,
        "StationID": "1795"
      },
      {
        "Name": "萬華車站",
        "Lat": 25.033974,
        "Lon": 121.501128,
        "Sequence": 8,
        "StationID": "1814"
      },
      {
        "Name": "龍山寺(康定)",
        "Lat": 25.0363140633243,
        "Lon": 121.501464019539,
        "Sequence": 9,
        "StationID": "1000975"
      },
      {
        "Name": "祖師廟(貴陽)",
        "Lat": 25.0399728811606,
        "Lon": 121.502490233032,
        "Sequence": 10,
        "StationID": "1784"
      },
      {
        "Name": "貴陽街",
        "Lat": 25.03944952637,
        "Lon": 121.50582384788,
        "Sequence": 11,
        "StationID": "1806"
      },
      {
        "Name": "捷運西門站",
        "Lat": 25.041730058378,
        "Lon": 121.508285900629,
        "Sequence": 12,
        "StationID": "1793"
      },
      {
        "Name": "中華路北站",
        "Lat": 25.0456964941835,
        "Lon": 121.509380726049,
        "Sequence": 13,
        "StationID": "1744"
      },
      {
        "Name": "捷運北門站",
        "Lat": 25.0492507169836,
        "Lon": 121.510332531364,
        "Sequence": 14,
        "StationID": "50044"
      },
      {
        "Name": "延平鄭州路口",
        "Lat": 25.05089,
        "Lon": 121.512006,
        "Sequence": 15,
        "StationID": "1928"
      },
      {
        "Name": "延平長安路口",
        "Lat": 25.053232,
        "Lon": 121.511847,
        "Sequence": 16,
        "StationID": "6000"
      },
      {
        "Name": "圓環(鈕釦街)",
        "Lat": 25.0539552344985,
        "Lon": 121.513268344324,
        "Sequence": 17,
        "StationID": "4665"
      },
      {
        "Name": "民生重慶路口",
        "Lat": 25.0567660236851,
        "Lon": 121.513825816749,
        "Sequence": 18,
        "StationID": "1422"
      },
      {
        "Name": "涼州重慶路口",
        "Lat": 25.060581358412865,
        "Lon": 121.51358595205109,
        "Sequence": 19,
        "StationID": "8625"
      },
      {
        "Name": "捷運大橋頭站",
        "Lat": 25.062704,
        "Lon": 121.513583,
        "Sequence": 20,
        "StationID": "8623"
      },
      {
        "Name": "昌吉重慶路口",
        "Lat": 25.06581169232777,
        "Lon": 121.51372071650857,
        "Sequence": 21,
        "StationID": "1441"
      },
      {
        "Name": "民族重慶路口",
        "Lat": 25.06841536079837,
        "Lon": 121.51377816707611,
        "Sequence": 22,
        "StationID": "1000167"
      },
      {
        "Name": "酒泉重慶路口",
        "Lat": 25.07180965,
        "Lon": 121.5138317,
        "Sequence": 23,
        "StationID": "1455"
      },
      {
        "Name": "啟聰學校",
        "Lat": 25.07431025376296,
        "Lon": 121.51400277550044,
        "Sequence": 24,
        "StationID": "1000386"
      },
      {
        "Name": "士林簡易庭",
        "Lat": 25.08159839,
        "Lon": 121.5132091,
        "Sequence": 25,
        "StationID": "50639"
      },
      {
        "Name": "葫東重慶路口",
        "Lat": 25.08435,
        "Lon": 121.51196,
        "Sequence": 26,
        "StationID": "50640"
      },
      {
        "Name": "陽明高中",
        "Lat": 25.09192,
        "Lon": 121.51817,
        "Sequence": 27,
        "StationID": "860"
      },
      {
        "Name": "士林區行政中心(中正)",
        "Lat": 25.092636,
        "Lon": 121.519189,
        "Sequence": 28,
        "StationID": "581"
      },
      {
        "Name": "士林國中",
        "Lat": 25.094485,
        "Lon": 121.522781,
        "Sequence": 29,
        "StationID": "1165604807"
      },
      {
        "Name": "士林",
        "Lat": 25.096111,
        "Lon": 121.524405,
        "Sequence": 30,
        "StationID": "10209"
      },
      {
        "Name": "捷運芝山站一",
        "Lat": 25.1007959524461,
        "Lon": 121.522657043885,
        "Sequence": 31,
        "StationID": "801"
      },
      {
        "Name": "捷運芝山站(戲曲中心)",
        "Lat": 25.1025,
        "Lon": 121.52067,
        "Sequence": 32,
        "StationID": "1000388"
      },
      {
        "Name": "中正高中",
        "Lat": 25.1058289859016,
        "Lon": 121.517290935039,
        "Sequence": 33,
        "StationID": "1000348"
      },
      {
        "Name": "文林國小",
        "Lat": 25.1075998291069,
        "Lon": 121.515036396953,
        "Sequence": 34,
        "StationID": "55017"
      },
      {
        "Name": "石牌福星宮",
        "Lat": 25.1104478952371,
        "Lon": 121.511778736417,
        "Sequence": 35,
        "StationID": "1000349"
      },
      {
        "Name": "石牌路",
        "Lat": 25.11352,
        "Lon": 121.51129,
        "Sequence": 36,
        "StationID": "156"
      },
      {
        "Name": "石牌國小",
        "Lat": 25.11434722,
        "Lon": 121.5131564,
        "Sequence": 37,
        "StationID": "154"
      },
      {
        "Name": "綜合市場(捷運石牌站)",
        "Lat": 25.1157212492135,
        "Lon": 121.515801262638,
        "Sequence": 38,
        "StationID": "500"
      },
      {
        "Name": "永明派出所",
        "Lat": 25.117369,
        "Lon": 121.516564,
        "Sequence": 39,
        "StationID": "3977"
      },
      {
        "Name": "榮總",
        "Lat": 25.1185668257628,
        "Lon": 121.51968525315,
        "Sequence": 40,
        "StationID": "483"
      },
      {
        "Name": "榮光新村(榮總東院)",
        "Lat": 25.12021257,
        "Lon": 121.5227594,
        "Sequence": 41,
        "StationID": "14629"
      },
      {
        "Name": "永欣里",
        "Lat": 25.1218225,
        "Lon": 121.5236475,
        "Sequence": 42,
        "StationID": "14630"
      },
      {
        "Name": "福德廟(石牌)",
        "Lat": 25.12356742,
        "Lon": 121.5256724,
        "Sequence": 43,
        "StationID": "14619"
      },
      {
        "Name": "天北站",
        "Lat": 25.12288432,
        "Lon": 121.5265466,
        "Sequence": 44,
        "StationID": "634"
      },
      {
        "Name": "天玉里",
        "Lat": 25.1214083603177,
        "Lon": 121.52664417791,
        "Sequence": 45,
        "StationID": "50648"
      },
      {
        "Name": "天母國小",
        "Lat": 25.118950713724,
        "Lon": 121.52615807606,
        "Sequence": 46,
        "StationID": "50655"
      },
      {
        "Name": "齊福華廈",
        "Lat": 25.11838172,
        "Lon": 121.5275693,
        "Sequence": 47,
        "StationID": "3890"
      },
      {
        "Name": "天母廣場",
        "Lat": 25.11927,
        "Lon": 121.53084,
        "Sequence": 48,
        "StationID": "50635"
      },
      {
        "Name": "天母新村",
        "Lat": 25.121299,
        "Lon": 121.5315658,
        "Sequence": 49,
        "StationID": "50638"
      },
      {
        "Name": "天母",
        "Lat": 25.12424,
        "Lon": 121.53273,
        "Sequence": 50,
        "StationID": "635"
      }
    ]
  }
]