[
  {
    "Route": "505",
    "SubRoute": "505",
    "Direction": 0,
    "Stops": [
      {
        "Name": "飛航服務總臺",
        "Lat": 25.072080234444158,
        "Lon": 121.55167519487803,
        "Sequence": 1,
        "StationID": "1000803"
      },
      {
        "Name": "下塔悠",
        "Lat": 25.07209559,
        "Lon": 121.5567725,
        "Sequence": 2,
        "StationID": "1184"
      },
      {
        "Name": "上塔悠",
        "Lat": 25.07049,
        "Lon": 121.56213,
        "Sequence": 3,
        "StationID": "4177"
      },
      {
        "Name": "莊敬里",
        "Lat": 25.065033,
        "Lon": 121.565572,
        "Sequence": 4,
        "StationID": "1000632"
      },
      {
        "Name": "新益里",
        "Lat": 25.062286,
        "Lon": 121.566155,
        "Sequence": 5,
        "StationID": "1503"
      },
      {
        "Name": "民生國中",
        "Lat": 25.05966141,
        "Lon": 121.5679233,
        "Sequence": 6,
        "StationID": "1507"
      },
      {
        "Name": "新東街口",
        "Lat": 25.0591755,
        "Lon": 121.5663295,
        "Sequence": 7,
        "StationID": "60133"
      },
      {
        "Name": "民生社區活動中心",
        "Lat": 25.058808540179,
        "Lon": 121.561144568697,
        "Sequence": 8,
        "StationID": "1000074"
      },
      {
        "Name": "聯合二村",
        "Lat": 25.0586249332513,
        "Lon": 121.558923442523,
        "Sequence": 9,
        "StationID": "1000075"
      },
      {
        "Name": "介壽國中",
        "Lat": 25.058415078013,
        "Lon": 121.556044429017,
        "Sequence": 10,
        "StationID": "10408"
      },
      {
        "Name": "公教住宅",
        "Lat": 25.05813129,
        "Lon": 121.5526273,
        "Sequence": 11,
        "StationID": "10421"
      },
      {
        "Name": "民生敦化路口",
        "Lat": 25.05785197,
        "Lon": 121.5468517,
        "Sequence": 12,
        "StationID": "10418"
      },
      {
        "Name": "民生復興路口",
        "Lat": 25.05790896,
        "Lon": 121.545132,
        "Sequence": 13,
        "StationID": "10420"
      },
      {
        "Name": "臺北大學(臺北校區)",
        "Lat": 25.05795717284778,
        "Lon": 121.5417414658165,
        "Sequence": 14,
        "StationID": "10419"
      },
      {
        "Name": "合江街口",
        "Lat": 25.05803455,
        "Lon": 121.5383134,
        "Sequence": 15,
        "StationID": "10401"
      },
      {
        "Name": "民生松江路口",
        "Lat": 25.05813986,
        "Lon": 121.5361688,
        "Sequence": 16,
        "StationID": "1571"
      },
      {
        "Name": "長春松江路口",
        "Lat": 25.05500621,
        "Lon": 121.533011,
        "Sequence": 17,
        "StationID": "1294"
      },
      {
        "Name": "捷運松江南京站",
        "Lat": 25.05228153,
        "Lon": 121.5329812,
        "Sequence": 18,
        "StationID": "1000806"
      },
      {
        "Name": "長安松江路口",
        "Lat": 25.04864879,
        "Lon": 121.5329145,
        "Sequence": 19,
        "StationID": "1280"
      },
      {
        "Name": "光華商場",
        "Lat": 25.04460839,
        "Lon": 121.5328606,
        "Sequence": 20,
        "StationID": "6684"
      },
      {
        "Name": "捷運忠孝新生站",
        "Lat": 25.040288,
        "Lon": 121.532693,
        "Sequence": 21,
        "StationID": "1000396"
      },
      {
        "Name": "仁愛新生路口",
        "Lat": 25.03851244,
        "Lon": 121.5326821,
        "Sequence": 22,
        "StationID": "6681"
      },
      {
        "Name": "信義新生路口",
        "Lat": 25.03403642,
        "Lon": 121.5325798,
        "Sequence": 23,
        "StationID": "6669"
      },
      {
        "Name": "金華新生路口",
        "Lat": 25.03087,
        "Lon": 121.53346,
        "Sequence": 24,
        "StationID": "1942"
      },
      {
        "Name": "和平新生路口",
        "Lat": 25.02639,
        "Lon": 121.53478,
        "Sequence": 25,
        "StationID": "2256"
      },
      {
        "Name": "龍安國小(公務人力發展學院)",
        "Lat": 25.02466421,
        "Lon": 121.5345198,
        "Sequence": 26,
        "StationID": "2344"
      },
      {
        "Name": "臺大綜合體育館",
        "Lat": 25.0215502113013,
        "Lon": 121.534113646475,
        "Sequence": 27,
        "StationID": "2199"
      },
      {
        "Name": "臺大",
        "Lat": 25.018246284477,
        "Lon": 121.533425339383,
        "Sequence": 28,
        "StationID": "2224"
      },
      {
        "Name": "捷運公館站",
        "Lat": 25.014321,
        "Lon": 121.534722,
        "Sequence": 29,
        "StationID": "1991"
      },
      {
        "Name": "師大分部",
        "Lat": 25.0081406778406,
        "Lon": 121.538064047069,
        "Sequence": 30,
        "StationID": "2430"
      },
      {
        "Name": "武功國小(羅斯福)",
        "Lat": 25.00341174,
        "Lon": 121.5384705,
        "Sequence": 31,
        "StationID": "2412"
      },
      {
        "Name": "捷運萬隆站",
        "Lat": 25.00178299384715,
        "Lon": 121.53891974229319,
        "Sequence": 32,
        "StationID": "2450"
      },
      {
        "Name": "萬隆",
        "Lat": 24.99939586,
        "Lon": 121.5398039,
        "Sequence": 33,
        "StationID": "2503"
      },
      {
        "Name": "財政園區",
        "Lat": 24.995644300082535,
        "Lon": 121.54100316430888,
        "Sequence": 34,
        "StationID": "1000807"
      },
      {
        "Name": "景美國中",
        "Lat": 24.992776404618,
        "Lon": 121.542708979168,
        "Sequence": 35,
        "StationID": "2464"
      },
      {
        "Name": "景美國小(景興)",
        "Lat": 24.9897079824046,
        "Lon": 121.542536892973,
        "Sequence": 36,
        "StationID": "2463"
      }
    ]
  },
  {
    "Route": "505",
    "SubRoute": "505",
    "Direction": 1,
    "Stops": [
      {
        "Name": "景美國小(景文)",
        "Lat": 24.9891053967322,
        "Lon": 121.540918398248,
        "Sequence": 1,
        "StationID": "1001074"
      },
      {
        "Name": "文山二分局",
        "Lat": 24.9920548778923,
        "Lon": 121.541402549692,
        "Sequence": 2,
        "StationID": "57710"
      },
      {
        "Name": "財政園區",
        "Lat": 24.99545268,
        "Lon": 121.5413365,
        "Sequence": 3,
        "StationID": "1000808"
      },
      {
        "Name": "萬隆",
        "Lat": 24.99931624,
        "Lon": 121.5402001,
        "Sequence": 4,
        "StationID": "1000234"
      },
      {
        "Name": "捷運萬隆站",
        "Lat": 25.00136317,
        "Lon": 121.5393892,
        "Sequence": 5,
        "StationID": "1000235"
      },
      {
        "Name": "武功國小(羅斯福)",
        "Lat": 25.00327364,
        "Lon": 121.5387822,
        "Sequence": 6,
        "StationID": "244"
      },
      {
        "Name": "師大分部",
        "Lat": 25.0076706783786,
        "Lon": 121.538470307254,
        "Sequence": 7,
        "StationID": "1000036"
      },
      {
        "Name": "捷運公館站",
        "Lat": 25.013993,
        "Lon": 121.535185,
        "Sequence": 8,
        "StationID": "1990"
      },
      {
        "Name": "臺大",
        "Lat": 25.01800299,
        "Lon": 121.5337036,
        "Sequence": 9,
        "StationID": "6667"
      },
      {
        "Name": "臺大綜合體育館",
        "Lat": 25.0214053337175,
        "Lon": 121.534388191196,
        "Sequence": 10,
        "StationID": "2197"
      },
      {
        "Name": "龍安國小(公務人力發展學院)",
        "Lat": 25.02527096,
        "Lon": 121.5349231,
        "Sequence": 11,
        "StationID": "2255"
      },
      {
        "Name": "金華新生路口",
        "Lat": 25.03048,
        "Lon": 121.53384,
        "Sequence": 12,
        "StationID": "1943"
      },
      {
        "Name": "信義新生路口",
        "Lat": 25.03320526,
        "Lon": 121.5329027,
        "Sequence": 13,
        "StationID": "6670"
      },
      {
        "Name": "仁愛新生路口",
        "Lat": 25.03779674,
        "Lon": 121.5328703,
        "Sequence": 14,
        "StationID": "6682"
      },
      {
        "Name": "捷運忠孝新生站",
        "Lat": 25.04198981,
        "Lon": 121.5328758,
        "Sequence": 15,
        "StationID": "2264"
      },
      {
        "Name": "光華商場",
        "Lat": 25.045,
        "Lon": 121.53299,
        "Sequence": 16,
        "StationID": "6683"
      },
      {
        "Name": "長安松江路口",
        "Lat": 25.0482736559236,
        "Lon": 121.532997019655,
        "Sequence": 17,
        "StationID": "1281"
      },
      {
        "Name": "捷運松江南京站",
        "Lat": 25.0517997,
        "Lon": 121.533087,
        "Sequence": 18,
        "StationID": "6702"
      },
      {
        "Name": "長春松江路口",
        "Lat": 25.05453652,
        "Lon": 121.5331386,
        "Sequence": 19,
        "StationID": "1270"
      },
      {
        "Name": "民生松江路口",
        "Lat": 25.057791,
        "Lon": 121.535046,
        "Sequence": 20,
        "StationID": "1572"
      },
      {
        "Name": "合江街口",
        "Lat": 25.05772436,
        "Lon": 121.5381394,
        "Sequence": 21,
        "StationID": "1517"
      },
      {
        "Name": "臺北大學(臺北校區)",
        "Lat": 25.057628,
        "Lon": 121.5428,
        "Sequence": 22,
        "StationID": "1206"
      },
      {
        "Name": "民生復興路口",
        "Lat": 25.057658,
        "Lon": 121.545777,
        "Sequence": 23,
        "StationID": "1523"
      },
      {
        "Name": "民生敦化路口",
        "Lat": 25.05758765,
        "Lon": 121.5479795,
        "Sequence": 24,
        "StationID": "1561"
      },
      {
        "Name": "公教住宅",
        "Lat": 25.05792823,
        "Lon": 121.5525641,
        "Sequence": 25,
        "StationID": "1495"
      },
      {
        "Name": "介壽國中",
        "Lat": 25.058201423962956,
        "Lon": 121.55569442816517,
        "Sequence": 26,
        "StationID": "1497"
      },
      {
        "Name": "聯合二村",
        "Lat": 25.0585017739443,
        "Lon": 121.559216750962,
        "Sequence": 27,
        "StationID": "1597"
      },
      {
        "Name": "民生社區活動中心",
        "Lat": 25.0586405271738,
        "Lon": 121.560927032747,
        "Sequence": 28,
        "StationID": "1506"
      },
      {
        "Name": "新東街口",
        "Lat": 25.05902066,
        "Lon": 121.5664423,
        "Sequence": 29,
        "StationID": "1588"
      },
      {
        "Name": "民生國中",
        "Lat": 25.06018904,
        "Lon": 121.5676949,
        "Sequence": 30,
        "StationID": "1000026"
      },
      {
        "Name": "新益里",
        "Lat": 25.062445,
        "Lon": 121.566269,
        "Sequence": 31,
        "StationID": "1504"
      },
      {
        "Name": "莊敬里",
        "Lat": 25.06530387,
        "Lon": 121.5657277,
        "Sequence": 32,
        "StationID": "1000810"
      },
      {
        "Name": "上塔悠",
        "Lat": 25.07081009,
        "Lon": 121.5645684,
        "Sequence": 33,
        "StationID": "1000811"
      },
      {
        "Name": "下塔悠",
        "Lat": 25.07240355,
        "Lon": 121.5564885,
        "Sequence": 34,
        "StationID": "1000812"
      },
      {
        "Name": "下塔悠一",
        "Lat": 25.072466,
        "Lon": 121.554472,
        "Sequence": 35,
        "StationID": "1165604805"
      },
      {
        "Name": "飛航服務總臺",
        "Lat": 25.072080234444158,
        "Lon": 121.55167519487803,
        "Sequence": 36,
        "StationID": "1000803"
      }
    ]
  }
]