[
  {
    "Route": "223",
    "SubRoute": "223",
    "Direction": 0,
    "Stops": [
      {
        "Name": "關渡自然大樓",
        "Lat": 25.12145,
        "Lon": 121.469318,
        "Sequence": 1,
        "StationID": "4660"
      },
      {
        "Name": "關渡宮",
        "Lat": 25.1178447660379,
        "Lon": 121.465117210312,
        "Sequence": 2,
        "StationID": "1000707"
      },
      {
        "Name": "敬老院",
        "Lat": 25.1187984003072,
        "Lon": 121.466052497879,
        "Sequence": 3,
        "StationID": "14633"
      },
      {
        "Name": "關渡國中(關渡醫院)",
        "Lat": 25.120418,
        "Lon": 121.467189,
        "Sequence": 4,
        "StationID": "550"
      },
      {
        "Name": "關渡里",
        "Lat": 25.1223858553805,
        "Lon": 121.467238214885,
        "Sequence": 5,
        "StationID": "14636"
      },
      {
        "Name": "捷運關渡站",
        "Lat": 25.125124,
        "Lon": 121.467024,
        "Sequence": 6,
        "StationID": "70056"
      },
      {
        "Name": "北投區公所(關渡)",
        "Lat": 25.12472749,
        "Lon": 121.4680203,
        "Sequence": 7,
        "StationID": "1165610422"
      },
      {
        "Name": "立功立德路口",
        "Lat": 25.12549,
        "Lon": 121.47105,
        "Sequence": 8,
        "StationID": "434"
      },
      {
        "Name": "大愛電視台",
        "Lat": 25.123677,
        "Lon": 121.471449,
        "Sequence": 9,
        "StationID": "1000389"
      },
      {
        "Name": "關渡",
        "Lat": 25.1249152150578,
        "Lon": 121.465515545518,
        "Sequence": 10,
        "StationID": "14639"
      },
      {
        "Name": "關渡國小(臺北城市科技大學)",
        "Lat": 25.1268926040896,
        "Lon": 121.466372780603,
        "Sequence": 11,
        "StationID": "548"
      },
      {
        "Name": "一德街口",
        "Lat": 25.1283184382016,
        "Lon": 121.46878900446,
        "Sequence": 12,
        "StationID": "3972"
      },
      {
        "Name": "和信醫院",
        "Lat": 25.1297678333065,
        "Lon": 121.471449088636,
        "Sequence": 13,
        "StationID": "3971"
      },
      {
        "Name": "捷運忠義站",
        "Lat": 25.1313688133648,
        "Lon": 121.473445688734,
        "Sequence": 14,
        "StationID": "3970"
      },
      {
        "Name": "中央北路",
        "Lat": 25.1326768057341,
        "Lon": 121.4750896208,
        "Sequence": 15,
        "StationID": "3969"
      },
      {
        "Name": "桃源國中",
        "Lat": 25.13408,
        "Lon": 121.476927,
        "Sequence": 16,
        "StationID": "7235"
      },
      {
        "Name": "行天宮北投分宮忠義站",
        "Lat": 25.13511,
        "Lon": 121.47853,
        "Sequence": 17,
        "StationID": "3967"
      },
      {
        "Name": "中央北路三段",
        "Lat": 25.1368858501904,
        "Lon": 121.48193288446,
        "Sequence": 18,
        "StationID": "3966"
      },
      {
        "Name": "捷運復興崗站",
        "Lat": 25.138009138037,
        "Lon": 121.48494894973,
        "Sequence": 19,
        "StationID": "3965"
      },
      {
        "Name": "製片廠",
        "Lat": 25.138191,
        "Lon": 121.4875,
        "Sequence": 20,
        "StationID": "503"
      },
      {
        "Name": "豐年郵局",
        "Lat": 25.13839,
        "Lon": 121.48925,
        "Sequence": 21,
        "StationID": "1165610469"
      },
      {
        "Name": "稻香圖書館",
        "Lat": 25.14056,
        "Lon": 121.48966,
        "Sequence": 22,
        "StationID": "511"
      },
      {
        "Name": "致遠新村",
        "Lat": 25.1430048049067,
        "Lon": 121.490879066621,
        "Sequence": 23,
        "StationID": "302"
      },
      {
        "Name": "貴子坑水土保持園區",
        "Lat": 25.14506,
        "Lon": 121.49262,
        "Sequence": 24,
        "StationID": "437"
      },
      {
        "Name": "秀山里",
        "Lat": 25.1452880512553,
        "Lon": 121.493826634438,
        "Sequence": 25,
        "StationID": "1000928"
      },
      {
        "Name": "慈航寺",
        "Lat": 25.144571,
        "Lon": 121.497011,
        "Sequence": 26,
        "StationID": "454"
      },
      {
        "Name": "國泰新村",
        "Lat": 25.1435377973513,
        "Lon": 121.498005120919,
        "Sequence": 27,
        "StationID": "343"
      },
      {
        "Name": "中和里",
        "Lat": 25.1420654536477,
        "Lon": 121.49875524785,
        "Sequence": 28,
        "StationID": "63"
      },
      {
        "Name": "復興中學",
        "Lat": 25.1404257952951,
        "Lon": 121.500142024239,
        "Sequence": 29,
        "StationID": "414"
      },
      {
        "Name": "中和街",
        "Lat": 25.1391571863191,
        "Lon": 121.501520744986,
        "Sequence": 30,
        "StationID": "64"
      },
      {
        "Name": "新北投",
        "Lat": 25.137791,
        "Lon": 121.502937,
        "Sequence": 31,
        "StationID": "456"
      },
      {
        "Name": "北投公園",
        "Lat": 25.1363484992167,
        "Lon": 121.504124469582,
        "Sequence": 32,
        "StationID": "112"
      },
      {
        "Name": "第一銀行",
        "Lat": 25.1345133895389,
        "Lon": 121.50235879653,
        "Sequence": 33,
        "StationID": "399"
      },
      {
        "Name": "中央南路",
        "Lat": 25.1321537676007,
        "Lon": 121.50131769692,
        "Sequence": 34,
        "StationID": "7241"
      },
      {
        "Name": "中央南大興街口",
        "Lat": 25.130163,
        "Lon": 121.501062,
        "Sequence": 35,
        "StationID": "357"
      },
      {
        "Name": "慈后宮",
        "Lat": 25.1278841376109,
        "Lon": 121.501189626271,
        "Sequence": 36,
        "StationID": "50086"
      },
      {
        "Name": "忠義新村",
        "Lat": 25.12583115,
        "Lon": 121.5015983,
        "Sequence": 37,
        "StationID": "222"
      },
      {
        "Name": "崇仁路口",
        "Lat": 25.12247,
        "Lon": 121.50284,
        "Sequence": 38,
        "StationID": "7234"
      },
      {
        "Name": "捷運唭哩岸站二(西安)",
        "Lat": 25.12098,
        "Lon": 121.50419,
        "Sequence": 39,
        "StationID": "382"
      },
      {
        "Name": "捷運唭哩岸站一(西安)",
        "Lat": 25.120365436068,
        "Lon": 121.507204221793,
        "Sequence": 40,
        "StationID": "384"
      },
      {
        "Name": "健行新村(西安)",
        "Lat": 25.120154,
        "Lon": 121.508648,
        "Sequence": 41,
        "StationID": "333"
      },
      {
        "Name": "陽明交大(西安)",
        "Lat": 25.1191852593947,
        "Lon": 121.511691191756,
        "Sequence": 42,
        "StationID": "441"
      },
      {
        "Name": "石牌國中",
        "Lat": 25.11668,
        "Lon": 121.51367,
        "Sequence": 43,
        "StationID": "4662"
      },
      {
        "Name": "綜合市場(捷運石牌站)",
        "Lat": 25.1157212492135,
        "Lon": 121.515801262638,
        "Sequence": 44,
        "StationID": "500"
      },
      {
        "Name": "永明派出所",
        "Lat": 25.117369,
        "Lon": 121.516564,
        "Sequence": 45,
        "StationID": "3977"
      },
      {
        "Name": "榮總",
        "Lat": 25.1185668257628,
        "Lon": 121.51968525315,
        "Sequence": 46,
        "StationID": "483"
      },
      {
        "Name": "振興醫院",
        "Lat": 25.117647428703,
        "Lon": 121.52192449073,
        "Sequence": 47,
        "StationID": "318"
      },
      {
        "Name": "宏國新村",
        "Lat": 25.115962,
        "Lon": 121.520123,
        "Sequence": 48,
        "StationID": "198"
      },
      {
        "Name": "明德路267巷",
        "Lat": 25.1143140825978,
        "Lon": 121.522226705708,
        "Sequence": 49,
        "StationID": "243"
      },
      {
        "Name": "奎山國中",
        "Lat": 25.112441870257,
        "Lon": 121.521737472443,
        "Sequence": 50,
        "StationID": "279"
      },
      {
        "Name": "明德路",
        "Lat": 25.1104497192176,
        "Lon": 121.520571017562,
        "Sequence": 51,
        "StationID": "240"
      },
      {
        "Name": "明德國中",
        "Lat": 25.107279457424,
        "Lon": 121.517707662365,
        "Sequence": 52,
        "StationID": "239"
      },
      {
        "Name": "中正高中",
        "Lat": 25.105059,
        "Lon": 121.517803,
        "Sequence": 53,
        "StationID": "60"
      },
      {
        "Name": "捷運芝山站(戲曲中心)",
        "Lat": 25.1022630440787,
        "Lon": 121.520473605143,
        "Sequence": 54,
        "StationID": "800"
      },
      {
        "Name": "捷運芝山站一",
        "Lat": 25.1008497293525,
        "Lon": 121.522307508871,
        "Sequence": 55,
        "StationID": "1000347"
      },
      {
        "Name": "士林",
        "Lat": 25.0959118891448,
        "Lon": 121.524279381093,
        "Sequence": 56,
        "StationID": "569"
      },
      {
        "Name": "士林國中",
        "Lat": 25.094772,
        "Lon": 121.522929,
        "Sequence": 57,
        "StationID": "1165604814"
      },
      {
        "Name": "士林區行政中心(中正)",
        "Lat": 25.09406,
        "Lon": 121.52085,
        "Sequence": 58,
        "StationID": "1165608555"
      },
      {
        "Name": "陽明高中",
        "Lat": 25.092141,
        "Lon": 121.517889,
        "Sequence": 59,
        "StationID": "1000115"
      },
      {
        "Name": "葫東重慶路口",
        "Lat": 25.084340383790973,
        "Lon": 121.51144611421903,
        "Sequence": 60,
        "StationID": "887"
      },
      {
        "Name": "士林簡易庭",
        "Lat": 25.08192,
        "Lon": 121.51261,
        "Sequence": 61,
        "StationID": "591"
      },
      {
        "Name": "啟聰學校",
        "Lat": 25.07451003,
        "Lon": 121.5136892,
        "Sequence": 62,
        "StationID": "1000383"
      },
      {
        "Name": "酒泉重慶路口",
        "Lat": 25.07328,
        "Lon": 121.51367,
        "Sequence": 63,
        "StationID": "1505"
      },
      {
        "Name": "民族重慶路口",
        "Lat": 25.0688798965403,
        "Lon": 121.5137100606,
        "Sequence": 64,
        "StationID": "1000066"
      },
      {
        "Name": "昌吉重慶路口",
        "Lat": 25.06615028,
        "Lon": 121.5136438,
        "Sequence": 65,
        "StationID": "1001006"
      },
      {
        "Name": "捷運大橋頭站",
        "Lat": 25.0633249732882,
        "Lon": 121.513516380874,
        "Sequence": 66,
        "StationID": "8622"
      },
      {
        "Name": "涼州重慶路口",
        "Lat": 25.060980060423,
        "Lon": 121.513509342762,
        "Sequence": 67,
        "StationID": "8624"
      },
      {
        "Name": "民生重慶路口",
        "Lat": 25.0571504842388,
        "Lon": 121.51369271164,
        "Sequence": 68,
        "StationID": "1421"
      },
      {
        "Name": "朝陽公園(鈕釦街)",
        "Lat": 25.055504,
        "Lon": 121.514022,
        "Sequence": 69,
        "StationID": "1165605935"
      },
      {
        "Name": "圓環(重慶)",
        "Lat": 25.0530178614119,
        "Lon": 121.514023920514,
        "Sequence": 70,
        "StationID": "16018"
      },
      {
        "Name": "後車站",
        "Lat": 25.050402129064192,
        "Lon": 121.51344796988172,
        "Sequence": 71,
        "StationID": "1000683"
      },
      {
        "Name": "臺北車站(重慶)",
        "Lat": 25.046552005302367,
        "Lon": 121.51316241098594,
        "Sequence": 72,
        "StationID": "1891"
      },
      {
        "Name": "臺北郵局(撫臺街洋樓)",
        "Lat": 25.046034860361424,
        "Lon": 121.51018571259864,
        "Sequence": 73,
        "StationID": "4747"
      },
      {
        "Name": "中華路北站",
        "Lat": 25.0455115050969,
        "Lon": 121.509144127644,
        "Sequence": 74,
        "StationID": "1000078"
      },
      {
        "Name": "捷運西門站",
        "Lat": 25.0425165606871,
        "Lon": 121.508266771006,
        "Sequence": 75,
        "StationID": "1000079"
      },
      {
        "Name": "小南門",
        "Lat": 25.0378687908132,
        "Lon": 121.506903709074,
        "Sequence": 76,
        "StationID": "1000080"
      },
      {
        "Name": "聯合醫院和平院區",
        "Lat": 25.0364933609706,
        "Lon": 121.506507520259,
        "Sequence": 77,
        "StationID": "1926"
      },
      {
        "Name": "大埔街",
        "Lat": 25.03205520434067,
        "Lon": 121.50448356536738,
        "Sequence": 78,
        "StationID": "4606"
      },
      {
        "Name": "廈安里",
        "Lat": 25.02966,
        "Lon": 121.50438,
        "Sequence": 79,
        "StationID": "20344"
      },
      {
        "Name": "南機場公寓",
        "Lat": 25.028384629531,
        "Lon": 121.505465333891,
        "Sequence": 80,
        "StationID": "1777"
      },
      {
        "Name": "中華南海路口",
        "Lat": 25.0273435686053,
        "Lon": 121.506437964545,
        "Sequence": 81,
        "StationID": "1743"
      },
      {
        "Name": "青年公園(國興)",
        "Lat": 25.0253,
        "Lon": 121.50712,
        "Sequence": 82,
        "StationID": "4620"
      }
    ]
  },
  {
    "Route": "223",
    "SubRoute": "223",
    "Direction": 1,
    "Stops": [
      {
        "Name": "國興路口一",
        "Lat": 25.0245858237515,
        "Lon": 121.508810147614,
        "Sequence": 1,
        "StationID": "1790"
      },
      {
        "Name": "國興路口",
        "Lat": 25.025757,
        "Lon": 121.508379,
        "Sequence": 2,
        "StationID": "4602"
      },
      {
        "Name": "中華南海路口",
        "Lat": 25.0272364792619,
        "Lon": 121.506661163485,
        "Sequence": 3,
        "StationID": "4603"
      },
      {
        "Name": "南機場公寓",
        "Lat": 25.0285917595947,
        "Lon": 121.50540777894,
        "Sequence": 4,
        "StationID": "4604"
      },
      {
        "Name": "廈安里",
        "Lat": 25.0306970667598,
        "Lon": 121.504168146781,
        "Sequence": 5,
        "StationID": "4605"
      },
      {
        "Name": "大埔街",
        "Lat": 25.03268103989999,
        "Lon": 121.50499126498305,
        "Sequence": 6,
        "StationID": "1737"
      },
      {
        "Name": "聯合醫院和平院區",
        "Lat": 25.03501116,
        "Lon": 121.5062837,
        "Sequence": 7,
        "StationID": "1165610495"
      },
      {
        "Name": "捷運西門站",
        "Lat": 25.041730058378,
        "Lon": 121.508285900629,
        "Sequence": 8,
        "StationID": "1793"
      },
      {
        "Name": "中華路北站",
        "Lat": 25.0456964941835,
        "Lon": 121.509380726049,
        "Sequence": 9,
        "StationID": "1744"
      },
      {
        "Name": "捷運北門站",
        "Lat": 25.0492507169836,
        "Lon": 121.510332531364,
        "Sequence": 10,
        "StationID": "50044"
      },
      {
        "Name": "延平鄭州路口",
        "Lat": 25.05089,
        "Lon": 121.512006,
        "Sequence": 11,
        "StationID": "1928"
      },
      {
        "Name": "延平長安路口",
        "Lat": 25.053232,
        "Lon": 121.511847,
        "Sequence": 12,
        "StationID": "6000"
      },
      {
        "Name": "圓環(鈕釦街)",
        "Lat": 25.0539552344985,
        "Lon": 121.513268344324,
        "Sequence": 13,
        "StationID": "4665"
      },
      {
        "Name": "民生重慶路口",
        "Lat": 25.0567660236851,
        "Lon": 121.513825816749,
        "Sequence": 14,
        "StationID": "1422"
      },
      {
        "Name": "涼州重慶路口",
        "Lat": 25.060581358412865,
        "Lon": 121.51358595205109,
        "Sequence": 15,
        "StationID": "8625"
      },
      {
        "Name": "捷運大橋頭站",
        "Lat": 25.062704,
        "Lon": 121.513583,
        "Sequence": 16,
        "StationID": "8623"
      },
      {
        "Name": "昌吉重慶路口",
        "Lat": 25.06581169232777,
        "Lon": 121.51372071650857,
        "Sequence": 17,
        "StationID": "1441"
      },
      {
        "Name": "民族重慶路口",
        "Lat": 25.06841536079837,
        "Lon": 121.51377816707611,
        "Sequence": 18,
        "StationID": "1000167"
      },
      {
        "Name": "酒泉重慶路口",
        "Lat": 25.07180965,
        "Lon": 121.5138317,
        "Sequence": 19,
        "StationID": "1455"
      },
      {
        "Name": "啟聰學校",
        "Lat": 25.07431025376296,
        "Lon": 121.51400277550044,
        "Sequence": 20,
        "StationID": "1000386"
      },
      {
        "Name": "士林簡易庭",
        "Lat": 25.08159839,
        "Lon": 121.5132091,
        "Sequence": 21,
        "StationID": "50639"
      },
      {
        "Name": "葫東重慶路口",
        "Lat": 25.08435,
        "Lon": 121.51196,
        "Sequence": 22,
        "StationID": "50640"
      },
      {
        "Name": "陽明高中",
        "Lat": 25.09192,
        "Lon": 121.51817,
        "Sequence": 23,
        "StationID": "860"
      },
      {
        "Name": "士林區行政中心(中正)",
        "Lat": 25.092636,
        "Lon": 121.519189,
        "Sequence": 24,
        "StationID": "581"
      },
      {
        "Name": "士林國中",
        "Lat": 25.094485,
        "Lon": 121.522781,
        "Sequence": 25,
        "StationID": "1165604807"
      },
      {
        "Name": "士林",
        "Lat": 25.096111,
        "Lon": 121.524405,
        "Sequence": 26,
        "StationID": "10209"
      },
      {
        "Name": "捷運芝山站一",
        "Lat": 25.1007959524461,
        "Lon": 121.522657043885,
        "Sequence": 27,
        "StationID": "801"
      },
      {
        "Name": "捷運芝山站(戲曲中心)",
        "Lat": 25.1025,
        "Lon": 121.52067,
        "Sequence": 28,
        "StationID": "1000388"
      },
      {
        "Name": "中正高中",
        "Lat": 25.1058289859016,
        "Lon": 121.517290935039,
        "Sequence": 29,
        "StationID": "1000348"
      },
      {
        "Name": "明德國中",
        "Lat": 25.1072816355752,
        "Lon": 121.517862336613,
        "Sequence": 30,
        "StationID": "7246"
      },
      {
        "Name": "明德路",
        "Lat": 25.110161,
        "Lon": 121.520549,
        "Sequence": 31,
        "StationID": "7247"
      },
      {
        "Name": "奎山國中",
        "Lat": 25.112694,
        "Lon": 121.521978,
        "Sequence": 32,
        "StationID": "7248"
      },
      {
        "Name": "明德路267巷",
        "Lat": 25.1146167482393,
        "Lon": 121.522462412157,
        "Sequence": 33,
        "StationID": "242"
      },
      {
        "Name": "宏國新村",
        "Lat": 25.115554,
        "Lon": 121.520452,
        "Sequence": 34,
        "StationID": "7249"
      },
      {
        "Name": "振興醫院",
        "Lat": 25.1181002858817,
        "Lon": 121.522205010272,
        "Sequence": 35,
        "StationID": "412"
      },
      {
        "Name": "榮總一",
        "Lat": 25.1188249158648,
        "Lon": 121.520551599272,
        "Sequence": 36,
        "StationID": "55004"
      },
      {
        "Name": "榮總",
        "Lat": 25.1184508084325,
        "Lon": 121.518052504684,
        "Sequence": 37,
        "StationID": "14624"
      },
      {
        "Name": "永明派出所",
        "Lat": 25.1172201622833,
        "Lon": 121.516366480061,
        "Sequence": 38,
        "StationID": "14625"
      },
      {
        "Name": "綜合市場(捷運石牌站)",
        "Lat": 25.115911,
        "Lon": 121.515502,
        "Sequence": 39,
        "StationID": "14626"
      },
      {
        "Name": "義理街口",
        "Lat": 25.116067992916,
        "Lon": 121.51478635582,
        "Sequence": 40,
        "StationID": "4663"
      },
      {
        "Name": "陽明交大(東華)",
        "Lat": 25.119636,
        "Lon": 121.511973,
        "Sequence": 41,
        "StationID": "442"
      },
      {
        "Name": "健行新村(東華)",
        "Lat": 25.12051,
        "Lon": 121.50914,
        "Sequence": 42,
        "StationID": "334"
      },
      {
        "Name": "捷運唭哩岸站一(東華)",
        "Lat": 25.120913,
        "Lon": 121.50736,
        "Sequence": 43,
        "StationID": "385"
      },
      {
        "Name": "捷運唭哩岸站二(東華)",
        "Lat": 25.1213471298747,
        "Lon": 121.505229693995,
        "Sequence": 44,
        "StationID": "387"
      },
      {
        "Name": "崇仁路口",
        "Lat": 25.1223766584811,
        "Lon": 121.502948188139,
        "Sequence": 45,
        "StationID": "345"
      },
      {
        "Name": "忠義新村",
        "Lat": 25.12552173,
        "Lon": 121.5017756,
        "Sequence": 46,
        "StationID": "50085"
      },
      {
        "Name": "慈后宮",
        "Lat": 25.12750085,
        "Lon": 121.5013728,
        "Sequence": 47,
        "StationID": "453"
      },
      {
        "Name": "清江里",
        "Lat": 25.12874,
        "Lon": 121.50117,
        "Sequence": 48,
        "StationID": "395"
      },
      {
        "Name": "中央南路",
        "Lat": 25.1322245985598,
        "Lon": 121.501443570835,
        "Sequence": 49,
        "StationID": "56"
      },
      {
        "Name": "第一銀行",
        "Lat": 25.13489933134952,
        "Lon": 121.50256846263959,
        "Sequence": 50,
        "StationID": "7239"
      },
      {
        "Name": "北投公園",
        "Lat": 25.13658039419034,
        "Lon": 121.50444128215462,
        "Sequence": 51,
        "StationID": "113"
      },
      {
        "Name": "新北投",
        "Lat": 25.1377878885811,
        "Lon": 121.503116860832,
        "Sequence": 52,
        "StationID": "4113"
      },
      {
        "Name": "中和街",
        "Lat": 25.1392080991718,
        "Lon": 121.501688456724,
        "Sequence": 53,
        "StationID": "7238"
      },
      {
        "Name": "復興中學",
        "Lat": 25.140779616914,
        "Lon": 121.50003982457,
        "Sequence": 54,
        "StationID": "3990"
      },
      {
        "Name": "中和里",
        "Lat": 25.1422718056895,
        "Lon": 121.498822886077,
        "Sequence": 55,
        "StationID": "7237"
      },
      {
        "Name": "國泰新村",
        "Lat": 25.1434882184522,
        "Lon": 121.498191201655,
        "Sequence": 56,
        "StationID": "3991"
      },
      {
        "Name": "慈航寺",
        "Lat": 25.144813,
        "Lon": 121.496498,
        "Sequence": 57,
        "StationID": "3995"
      },
      {
        "Name": "秀山里",
        "Lat": 25.1454283711567,
        "Lon": 121.494135327259,
        "Sequence": 58,
        "StationID": "7236"
      },
      {
        "Name": "貴子坑水土保持園區",
        "Lat": 25.1452633730156,
        "Lon": 121.492633753399,
        "Sequence": 59,
        "StationID": "1000350"
      },
      {
        "Name": "致遠新村",
        "Lat": 25.1430158716225,
        "Lon": 121.490788784285,
        "Sequence": 60,
        "StationID": "7242"
      },
      {
        "Name": "稻香圖書館",
        "Lat": 25.13974,
        "Lon": 121.48958,
        "Sequence": 61,
        "StationID": "50059"
      },
      {
        "Name": "製片廠",
        "Lat": 25.1384813245468,
        "Lon": 121.488,
        "Sequence": 62,
        "StationID": "3964"
      },
      {
        "Name": "捷運復興崗站",
        "Lat": 25.138268490176,
        "Lon": 121.485,
        "Sequence": 63,
        "StationID": "390"
      },
      {
        "Name": "中央北路三段",
        "Lat": 25.1370484098258,
        "Lon": 121.482299756251,
        "Sequence": 64,
        "StationID": "53"
      },
      {
        "Name": "行天宮北投分宮忠義站",
        "Lat": 25.13528,
        "Lon": 121.47841,
        "Sequence": 65,
        "StationID": "221"
      },
      {
        "Name": "桃源國中",
        "Lat": 25.134208,
        "Lon": 121.47679,
        "Sequence": 66,
        "StationID": "319"
      },
      {
        "Name": "中央北路",
        "Lat": 25.1328676139155,
        "Lon": 121.475216087313,
        "Sequence": 67,
        "StationID": "52"
      },
      {
        "Name": "捷運忠義站",
        "Lat": 25.1309842410201,
        "Lon": 121.472841990732,
        "Sequence": 68,
        "StationID": "373"
      },
      {
        "Name": "和信醫院",
        "Lat": 25.1299720368887,
        "Lon": 121.471581488549,
        "Sequence": 69,
        "StationID": "210"
      },
      {
        "Name": "一德街口",
        "Lat": 25.1283916021179,
        "Lon": 121.46876311032,
        "Sequence": 70,
        "StationID": "199"
      },
      {
        "Name": "關渡國小(臺北城市科技大學)",
        "Lat": 25.127279761103,
        "Lon": 121.466749861173,
        "Sequence": 71,
        "StationID": "3973"
      },
      {
        "Name": "關渡",
        "Lat": 25.12498,
        "Lon": 121.46536,
        "Sequence": 72,
        "StationID": "1165609805"
      },
      {
        "Name": "關渡里",
        "Lat": 25.12271001,
        "Lon": 121.466867,
        "Sequence": 73,
        "StationID": "545"
      },
      {
        "Name": "關渡國中(關渡醫院)",
        "Lat": 25.1208320010993,
        "Lon": 121.467155642476,
        "Sequence": 74,
        "StationID": "549"
      },
      {
        "Name": "敬老院",
        "Lat": 25.11934571,
        "Lon": 121.4664182,
        "Sequence": 75,
        "StationID": "459"
      },
      {
        "Name": "關渡宮",
        "Lat": 25.118617,
        "Lon": 121.465497,
        "Sequence": 76,
        "StationID": "547"
      }
    ]
  },
  {
    "Route": "223",
    "SubRoute": "223繞駛青年社宅",
    "Direction": 0,
    "Stops": [
      {
        "Name": "關渡自然大樓",
        "Lat": 25.12145,
        "Lon": 121.469318,
        "Sequence": 1,
        "StationID": "4660"
      },
      {
        "Name": "關渡宮",
        "Lat": 25.1178447660379,
        "Lon": 121.465117210312,
        "Sequence": 2,
        "StationID": "1000707"
      },
      {
        "Name": "敬老院",
        "Lat": 25.1187984003072,
        "Lon": 121.466052497879,
        "Sequence": 3,
        "StationID": "14633"
      },
      {
        "Name": "關渡國中(關渡醫院)",
        "Lat": 25.120418,
        "Lon": 121.467189,
        "Sequence": 4,
        "StationID": "550"
      },
      {
        "Name": "關渡里",
        "Lat": 25.1223858553805,
        "Lon": 121.467238214885,
        "Sequence": 5,
        "StationID": "14636"
      },
      {
        "Name": "捷運關渡站",
        "Lat": 25.125124,
        "Lon": 121.467024,
        "Sequence": 6,
        "StationID": "70056"
      },
      {
        "Name": "北投區公所(關渡)",
        "Lat": 25.12472749,
        "Lon": 121.4680203,
        "Sequence": 7,
        "StationID": "1165610422"
      },
      {
        "Name": "立功立德路口",
        "Lat": 25.12549,
        "Lon": 121.47105,
        "Sequence": 8,
        "StationID": "434"
      },
      {
        "Name": "大愛電視台",
        "Lat": 25.123677,
        "Lon": 121.471449,
        "Sequence": 9,
        "StationID": "1000389"
      },
      {
        "Name": "關渡",
        "Lat": 25.1249152150578,
        "Lon": 121.465515545518,
        "Sequence": 10,
        "StationID": "14639"
      },
      {
        "Name": "關渡國小(臺北城市科技大學)",
        "Lat": 25.1268926040896,
        "Lon": 121.466372780603,
        "Sequence": 11,
        "StationID": "548"
      },
      {
        "Name": "一德街口",
        "Lat": 25.1283184382016,
        "Lon": 121.46878900446,
        "Sequence": 12,
        "StationID": "3972"
      },
      {
        "Name": "和信醫院",
        "Lat": 25.1297678333065,
        "Lon": 121.471449088636,
        "Sequence": 13,
        "StationID": "3971"
      },
      {
        "Name": "捷運忠義站",
        "Lat": 25.1313688133648,
        "Lon": 121.473445688734,
        "Sequence": 14,
        "StationID": "3970"
      },
      {
        "Name": "中央北路",
        "Lat": 25.1326768057341,
        "Lon": 121.4750896208,
        "Sequence": 15,
        "StationID": "3969"
      },
      {
        "Name": "桃源國中",
        "Lat": 25.13408,
        "Lon": 121.476927,
        "Sequence": 16,
        "StationID": "7235"
      },
      {
        "Name": "行天宮北投分宮忠義站",
        "Lat": 25.13511,
        "Lon": 121.47853,
        "Sequence": 17,
        "StationID": "3967"
      },
      {
        "Name": "中央北路三段",
        "Lat": 25.1368858501904,
        "Lon": 121.48193288446,
        "Sequence": 18,
        "StationID": "3966"
      },
      {
        "Name": "捷運復興崗站",
        "Lat": 25.138009138037,
        "Lon": 121.48494894973,
        "Sequence": 19,
        "StationID": "3965"
      },
      {
        "Name": "製片廠",
        "Lat": 25.138191,
        "Lon": 121.4875,
        "Sequence": 20,
        "StationID": "503"
      },
      {
        "Name": "豐年郵局",
        "Lat": 25.13839,
        "Lon": 121.48925,
        "Sequence": 21,
        "StationID": "1165610469"
      },
      {
        "Name": "稻香圖書館",
        "Lat": 25.14056,
        "Lon": 121.48966,
        "Sequence": 22,
        "StationID": "511"
      },
      {
        "Name": "致遠新村",
        "Lat": 25.1430048049067,
        "Lon": 121.490879066621,
        "Sequence": 23,
        "StationID": "302"
      },
      {
        "Name": "貴子坑水土保持園區",
        "Lat": 25.14506,
        "Lon": 121.49262,
        "Sequence": 24,
        "StationID": "437"
      },
      {
        "Name": "秀山里",
        "Lat": 25.1452880512553,
        "Lon": 121.493826634438,
        "Sequence": 25,
        "StationID": "1000928"
      },
      {
        "Name": "慈航寺",
        "Lat": 25.144571,
        "Lon": 121.497011,
        "Sequence": 26,
        "StationID": "454"
      },
      {
        "Name": "國泰新村",
        "Lat": 25.1435377973513,
        "Lon": 121.498005120919,
        "Sequence": 27,
        "StationID": "343"
      },
      {
        "Name": "中和里",
        "Lat": 25.1420654536477,
        "Lon": 121.49875524785,
        "Sequence": 28,
        "StationID": "63"
      },
      {
        "Name": "復興中學",
        "Lat": 25.1404257952951,
        "Lon": 121.500142024239,
        "Sequence": 29,
        "StationID": "414"
      },
      {
        "Name": "中和街",
        "Lat": 25.1391571863191,
        "Lon": 121.501520744986,
        "Sequence": 30,
        "StationID": "64"
      },
      {
        "Name": "新北投",
        "Lat": 25.137791,
        "Lon": 121.502937,
        "Sequence": 31,
        "StationID": "456"
      },
      {
        "Name": "北投公園",
        "Lat": 25.1363484992167,
        "Lon": 121.504124469582,
        "Sequence": 32,
        "StationID": "112"
      },
      {
        "Name": "第一銀行",
        "Lat": 25.1345133895389,
        "Lon": 121.50235879653,
        "Sequence": 33,
        "StationID": "399"
      },
      {
        "Name": "中央南路",
        "Lat": 25.1321537676007,
        "Lon": 121.50131769692,
        "Sequence": 34,
        "StationID": "7241"
      },
      {
        "Name": "中央南大興街口",
        "Lat": 25.130163,
        "Lon": 121.501062,
        "Sequence": 35,
        "StationID": "357"
      },
      {
        "Name": "慈后宮",
        "Lat": 25.1278841376109,
        "Lon": 121.501189626271,
        "Sequence": 36,
        "StationID": "50086"
      },
      {
        "Name": "忠義新村",
        "Lat": 25.12583115,
        "Lon": 121.5015983,
        "Sequence": 37,
        "StationID": "222"
      },
      {
        "Name": "崇仁路口",
        "Lat": 25.12247,
        "Lon": 121.50284,
        "Sequence": 38,
        "StationID": "7234"
      },
      {
        "Name": "捷運唭哩岸站二(西安)",
        "Lat": 25.12098,
        "Lon": 121.50419,
        "Sequence": 39,
        "StationID": "382"
      },
      {
        "Name": "捷運唭哩岸站一(西安)",
        "Lat": 25.120365436068,
        "Lon": 121.507204221793,
        "Sequence": 40,
        "StationID": "384"
      },
      {
        "Name": "健行新村(西安)",
        "Lat": 25.120154,
        "Lon": 121.508648,
        "Sequence": 41,
        "StationID": "333"
      },
      {
        "Name": "陽明交大(西安)",
        "Lat": 25.1191852593947,
        "Lon": 121.511691191756,
        "Sequence": 42,
        "StationID": "441"
      },
      {
        "Name": "石牌國中",
        "Lat": 25.11668,
        "Lon": 121.51367,
        "Sequence": 43,
        "StationID": "4662"
      },
      {
        "Name": "綜合市場(捷運石牌站)",
        "Lat": 25.1157212492135,
        "Lon": 121.515801262638,
        "Sequence": 44,
        "StationID": "500"
      },
      {
        "Name": "永明派出所",
        "Lat": 25.117369,
        "Lon": 121.516564,
        "Sequence": 45,
        "StationID": "3977"
      },
      {
        "Name": "榮總",
        "Lat": 25.1185668257628,
        "Lon": 121.51968525315,
        "Sequence": 46,
        "StationID": "483"
      },
      {
        "Name": "振興醫院",
        "Lat": 25.117647428703,
        "Lon": 121.52192449073,
        "Sequence": 47,
        "StationID": "318"
      },
      {
        "Name": "宏國新村",
        "Lat": 25.115962,
        "Lon": 121.520123,
        "Sequence": 48,
        "StationID": "198"
      },
      {
        "Name": "明德路267巷",
        "Lat": 25.1143140825978,
        "Lon": 121.522226705708,
        "Sequence": 49,
        "StationID": "243"
      },
      {
        "Name": "奎山國中",
        "Lat": 25.112441870257,
        "Lon": 121.521737472443,
        "Sequence": 50,
        "StationID": "279"
      },
      {
        "Name": "明德路",
        "Lat": 25.1104497192176,
        "Lon": 121.520571017562,
        "Sequence": 51,
        "StationID": "240"
      },
      {
        "Name": "明德國中",
        "Lat": 25.107279457424,
        "Lon": 121.517707662365,
        "Sequence": 52,
        "StationID": "239"
      },
      {
        "Name": "中正高中",
        "Lat": 25.105059,
        "Lon": 121.517803,
        "Sequence": 53,
        "StationID": "60"
      },
      {
        "Name": "捷運芝山站(戲曲中心)",
        "Lat": 25.1022630440787,
        "Lon": 121.520473605143,
        "Sequence": 54,
        "StationID": "800"
      },
      {
        "Name": "捷運芝山站一",
        "Lat": 25.1008497293525,
        "Lon": 121.522307508871,
        "Sequence": 55,
        "StationID": "1000347"
      },
      {
        "Name": "士林",
        "Lat": 25.0959118891448,
        "Lon": 121.524279381093,
        "Sequence": 56,
        "StationID": "569"
      },
      {
        "Name": "士林國中",
        "Lat": 25.094772,
        "Lon": 121.522929,
        "Sequence": 57,
        "StationID": "1165604814"
      },
      {
        "Name": "士林區行政中心(中正)",
        "Lat": 25.09406,
        "Lon": 121.52085,
        "Sequence": 58,
        "StationID": "1165608555"
      },
      {
        "Name": "陽明高中",
        "Lat": 25.092141,
        "Lon": 121.517889,
        "Sequence": 59,
        "StationID": "1000115"
      },
      {
        "Name": "葫東重慶路口",
        "Lat": 25.084340383790973,
        "Lon": 121.51144611421903,
        "Sequence": 60,
        "StationID": "887"
      },
      {
        "Name": "士林簡易庭",
        "Lat": 25.08192,
        "Lon": 121.51261,
        "Sequence": 61,
        "StationID": "591"
      },
      {
        "Name": "啟聰學校",
        "Lat": 25.07451003,
        "Lon": 121.5136892,
        "Sequence": 62,
        "StationID": "1000383"
      },
      {
        "Name": "酒泉重慶路口",
        "Lat": 25.07328,
        "Lon": 121.51367,
        "Sequence": 63,
        "StationID": "1505"
      },
      {
        "Name": "民族重慶路口",
        "Lat": 25.0688798965403,
        "Lon": 121.5137100606,
        "Sequence": 64,
        "StationID": "1000066"
      },
      {
        "Name": "昌吉重慶路口",
        "Lat": 25.06615028,
        "Lon": 121.5136438,
        "Sequence": 65,
        "StationID": "1001006"
      },
      {
        "Name": "捷運大橋頭站",
        "Lat": 25.0633249732882,
        "Lon": 121.513516380874,
        "Sequence": 66,
        "StationID": "8622"
      },
      {
        "Name": "涼州重慶路口",
        "Lat": 25.060980060423,
        "Lon": 121.513509342762,
        "Sequence": 67,
        "StationID": "8624"
      },
      {
        "Name": "民生重慶路口",
        "Lat": 25.0571504842388,
        "Lon": 121.51369271164,
        "Sequence": 68,
        "StationID": "1421"
      },
      {
        "Name": "朝陽公園(鈕釦街)",
        "Lat": 25.055504,
        "Lon": 121.514022,
        "Sequence": 69,
        "StationID": "1165605935"
      },
      {
        "Name": "圓環(重慶)",
        "Lat": 25.0530178614119,
        "Lon": 121.514023920514,
        "Sequence": 70,
        "StationID": "16018"
      },
      {
        "Name": "後車站",
        "Lat": 25.050402129064192,
        "Lon": 121.51344796988172,
        "Sequence": 71,
        "StationID": "1000683"
      },
      {
        "Name": "臺北車站(重慶)",
        "Lat": 25.046552005302367,
        "Lon": 121.51316241098594,
        "Sequence": 72,
        "StationID": "1891"
      },
      {
        "Name": "臺北郵局(撫臺街洋樓)",
        "Lat": 25.046034860361424,
        "Lon": 121.51018571259864,
        "Sequence": 73,
        "StationID": "4747"
      },
      {
        "Name": "中華路北站",
        "Lat": 25.0455115050969,
        "Lon": 121.509144127644,
        "Sequence": 74,
        "StationID": "1000078"
      },
      {
        "Name": "捷運西門站",
        "Lat": 25.0425165606871,
        "Lon": 121.508266771006,
        "Sequence": 75,
        "StationID": "1000079"
      },
      {
        "Name": "小南門",
        "Lat": 25.0378687908132,
        "Lon": 121.506903709074,
        "Sequence": 76,
        "StationID": "1000080"
      },
      {
        "Name": "聯合醫院和平院區",
        "Lat": 25.0364933609706,
        "Lon": 121.506507520259,
        "Sequence": 77,
        "StationID": "1926"
      },
      {
        "Name": "大埔街",
        "Lat": 25.03205520434067,
        "Lon": 121.50448356536738,
        "Sequence": 78,
        "StationID": "4606"
      },
      {
        "Name": "廈安里",
        "Lat": 25.02966,
        "Lon": 121.50438,
        "Sequence": 79,
        "StationID": "20344"
      },
      {
        "Name": "南機場公寓",
        "Lat": 25.028384629531,
        "Lon": 121.505465333891,
        "Sequence": 80,
        "StationID": "1777"
      },
      {
        "Name": "中華南海路口",
        "Lat": 25.0273435686053,
        "Lon": 121.506437964545,
        "Sequence": 81,
        "StationID": "1743"
      },
      {
        "Name": "國興路口",
        "Lat": 25.0256215629554,
        "Lon": 121.508316077824,
        "Sequence": 82,
        "StationID": "1788"
      },
      {
        "Name": "古亭國中",
        "Lat": 25.024664,
        "Lon": 121.509833,
        "Sequence": 83,
        "StationID": "1748"
      },
      {
        "Name": "萬華醫院",
        "Lat": 25.02391,
        "Lon": 121.50982,
        "Sequence": 84,
        "StationID": "1817"
      },
      {
        "Name": "青年公園(交通教學區)",
        "Lat": 25.02149,
        "Lon": 121.50643,
        "Sequence": 85,
        "StationID": "20405"
      },
      {
        "Name": "青年公園(馬場町)",
        "Lat": 25.02023,
        "Lon": 121.5039,
        "Sequence": 86,
        "StationID": "20406"
      },
      {
        "Name": "青年社宅",
        "Lat": 25.021587,
        "Lon": 121.502643,
        "Sequence": 87,
        "StationID": "1165604787"
      },
      {
        "Name": "青年路",
        "Lat": 25.023224075638726,
        "Lon": 121.50277864902843,
        "Sequence": 88,
        "StationID": "4644"
      },
      {
        "Name": "中正新城",
        "Lat": 25.02477910385403,
        "Lon": 121.50333348774862,
        "Sequence": 89,
        "StationID": "4643"
      },
      {
        "Name": "青年社區",
        "Lat": 25.025478,
        "Lon": 121.504647,
        "Sequence": 90,
        "StationID": "4642"
      },
      {
        "Name": "青年公園(青年)",
        "Lat": 25.02596466,
        "Lon": 121.5062868,
        "Sequence": 91,
        "StationID": "4641"
      },
      {
        "Name": "青年公園(國興)",
        "Lat": 25.0253,
        "Lon": 121.50712,
        "Sequence": 92,
        "StationID": "4620"
      }
    ]
  },
  {
    "Route": "223",
    "SubRoute": "223繞駛青年社宅",
    "Direction": 1,
    "Stops": [
      {
        "Name": "國興路口一",
        "Lat": 25.0245858237515,
        "Lon": 121.508810147614,
        "Sequence": 1,
        "StationID": "1790"
      },
      {
        "Name": "國興路口",
        "Lat": 25.025757,
        "Lon": 121.508379,
        "Sequence": 2,
        "StationID": "4602"
      },
      {
        "Name": "中華南海路口",
        "Lat": 25.0272364792619,
        "Lon": 121.506661163485,
        "Sequence": 3,
        "StationID": "4603"
      },
      {
        "Name": "南機場公寓",
        "Lat": 25.0285917595947,
        "Lon": 121.50540777894,
        "Sequence": 4,
        "StationID": "4604"
      },
      {
        "Name": "廈安里",
        "Lat": 25.0306970667598,
        "Lon": 121.504168146781,
        "Sequence": 5,
        "StationID": "4605"
      },
      {
        "Name": "大埔街",
        "Lat": 25.03268103989999,
        "Lon": 121.50499126498305,
        "Sequence": 6,
        "StationID": "1737"
      },
      {
        "Name": "聯合醫院和平院區",
        "Lat": 25.03501116,
        "Lon": 121.5062837,
        "Sequence": 7,
        "StationID": "1165610495"
      },
      {
        "Name": "捷運西門站",
        "Lat": 25.041730058378,
        "Lon": 121.508285900629,
        "Sequence": 8,
        "StationID": "1793"
      },
      {
        "Name": "中華路北站",
        "Lat": 25.0456964941835,
        "Lon": 121.509380726049,
        "Sequence": 9,
        "StationID": "1744"
      },
      {
        "Name": "捷運北門站",
        "Lat": 25.0492507169836,
        "Lon": 121.510332531364,
        "Sequence": 10,
        "StationID": "50044"
      },
      {
        "Name": "延平鄭州路口",
        "Lat": 25.05089,
        "Lon": 121.512006,
        "Sequence": 11,
        "StationID": "1928"
      },
      {
        "Name": "延平長安路口",
        "Lat": 25.053232,
        "Lon": 121.511847,
        "Sequence": 12,
        "StationID": "6000"
      },
      {
        "Name": "圓環(鈕釦街)",
        "Lat": 25.0539552344985,
        "Lon": 121.513268344324,
        "Sequence": 13,
        "StationID": "4665"
      },
      {
        "Name": "民生重慶路口",
        "Lat": 25.0567660236851,
        "Lon": 121.513825816749,
        "Sequence": 14,
        "StationID": "1422"
      },
      {
        "Name": "涼州重慶路口",
        "Lat": 25.060581358412865,
        "Lon": 121.51358595205109,
        "Sequence": 15,
        "StationID": "8625"
      },
      {
        "Name": "捷運大橋頭站",
        "Lat": 25.062704,
        "Lon": 121.513583,
        "Sequence": 16,
        "StationID": "8623"
      },
      {
        "Name": "昌吉重慶路口",
        "Lat": 25.06581169232777,
        "Lon": 121.51372071650857,
        "Sequence": 17,
        "StationID": "1441"
      },
      {
        "Name": "民族重慶路口",
        "Lat": 25.06841536079837,
        "Lon": 121.51377816707611,
        "Sequence": 18,
        "StationID": "1000167"
      },
      {
        "Name": "酒泉重慶路口",
        "Lat": 25.07180965,
        "Lon": 121.5138317,
        "Sequence": 19,
        "StationID": "1455"
      },
      {
        "Name": "啟聰學校",
        "Lat": 25.07431025376296,
        "Lon": 121.51400277550044,
        "Sequence": 20,
        "StationID": "1000386"
      },
      {
        "Name": "士林簡易庭",
        "Lat": 25.08159839,
        "Lon": 121.5132091,
        "Sequence": 21,
        "StationID": "50639"
      },
      {
        "Name": "葫東重慶路口",
        "Lat": 25.08435,
        "Lon": 121.51196,
        "Sequence": 22,
        "StationID": "50640"
      },
      {
        "Name": "陽明高中",
        "Lat": 25.09192,
        "Lon": 121.51817,
        "Sequence": 23,
        "StationID": "860"
      },
      {
        "Name": "士林區行政中心(中正)",
        "Lat": 25.092636,
        "Lon": 121.519189,
        "Sequence": 24,
        "StationID": "581"
      },
      {
        "Name": "士林國中",
        "Lat": 25.094485,
        "Lon": 121.522781,
        "Sequence": 25,
        "StationID": "1165604807"
      },
      {
        "Name": "士林",
        "Lat": 25.096111,
        "Lon": 121.524405,
        "Sequence": 26,
        "StationID": "10209"
      },
      {
        "Name": "捷運芝山站一",
        "Lat": 25.1007959524461,
        "Lon": 121.522657043885,
        "Sequence": 27,
        "StationID": "801"
      },
      {
        "Name": "捷運芝山站(戲曲中心)",
        "Lat": 25.1025,
        "Lon": 121.52067,
        "Sequence": 28,
        "StationID": "1000388"
      },
      {
        "Name": "中正高中",
        "Lat": 25.1058289859016,
        "Lon": 121.517290935039,
        "Sequence": 29,
        "StationID": "1000348"
      },
      {
        "Name": "明德國中",
        "Lat": 25.1072816355752,
        "Lon": 121.517862336613,
        "Sequence": 30,
        "StationID": "7246"
      },
      {
        "Name": "明德路",
        "Lat": 25.110161,
        "Lon": 121.520549,
        "Sequence": 31,
        "StationID": "7247"
      },
      {
        "Name": "奎山國中",
        "Lat": 25.112694,
        "Lon": 121.521978,
        "Sequence": 32,
        "StationID": "7248"
      },
      {
        "Name": "明德路267巷",
        "Lat": 25.1146167482393,
        "Lon": 121.522462412157,
        "Sequence": 33,
        "StationID": "242"
      },
      {
        "Name": "宏國新村",
        "Lat": 25.115554,
        "Lon": 121.520452,
        "Sequence": 34,
        "StationID": "7249"
      },
      {
        "Name": "振興醫院",
        "Lat": 25.1181002858817,
        "Lon": 121.522205010272,
        "Sequence": 35,
        "StationID": "412"
      },
      {
        "Name": "榮總一",
        "Lat": 25.1188249158648,
        "Lon": 121.520551599272,
        "Sequence": 36,
        "StationID": "55004"
      },
      {
        "Name": "榮總",
        "Lat": 25.1184508084325,
        "Lon": 121.518052504684,
        "Sequence": 37,
        "StationID": "14624"
      },
      {
        "Name": "永明派出所",
        "Lat": 25.1172201622833,
        "Lon": 121.516366480061,
        "Sequence": 38,
        "StationID": "14625"
      },
      {
        "Name": "綜合市場(捷運石牌站)",
        "Lat": 25.115911,
        "Lon": 121.515502,
        "Sequence": 39,
        "StationID": "14626"
      },
      {
        "Name": "義理街口",
        "Lat": 25.116067992916,
        "Lon": 121.51478635582,
        "Sequence": 40,
        "StationID": "4663"
      },
      {
        "Name": "陽明交大(東華)",
        "Lat": 25.119636,
        "Lon": 121.511973,
        "Sequence": 41,
        "StationID": "442"
      },
      {
        "Name": "健行新村(東華)",
        "Lat": 25.12051,
        "Lon": 121.50914,
        "Sequence": 42,
        "StationID": "334"
      },
      {
        "Name": "捷運唭哩岸站一(東華)",
        "Lat": 25.120913,
        "Lon": 121.50736,
        "Sequence": 43,
        "StationID": "385"
      },
      {
        "Name": "捷運唭哩岸站二(東華)",
        "Lat": 25.1213471298747,
        "Lon": 121.505229693995,
        "Sequence": 44,
        "StationID": "387"
      },
      {
        "Name": "崇仁路口",
        "Lat": 25.1223766584811,
        "Lon": 121.502948188139,
        "Sequence": 45,
        "StationID": "345"
      },
      {
        "Name": "忠義新村",
        "Lat": 25.12552173,
        "Lon": 121.5017756,
        "Sequence": 46,
        "StationID": "50085"
      },
      {
        "Name": "慈后宮",
        "Lat": 25.12750085,
        "Lon": 121.5013728,
        "Sequence": 47,
        "StationID": "453"
      },
      {
        "Name": "清江里",
        "Lat": 25.12874,
        "Lon": 121.50117,
        "Sequence": 48,
        "StationID": "395"
      },
      {
        "Name": "中央南路",
        "Lat": 25.1322245985598,
        "Lon": 121.501443570835,
        "Sequence": 49,
        "StationID": "56"
      },
      {
        "Name": "第一銀行",
        "Lat": 25.13489933134952,
        "Lon": 121.50256846263959,
        "Sequence": 50,
        "StationID": "7239"
      },
      {
        "Name": "北投公園",
        "Lat": 25.13658039419034,
        "Lon": 121.50444128215462,
        "Sequence": 51,
        "StationID": "113"
      },
      {
        "Name": "新北投",
        "Lat": 25.1377878885811,
        "Lon": 121.503116860832,
        "Sequence": 52,
        "StationID": "4113"
      },
      {
        "Name": "中和街",
        "Lat": 25.1392080991718,
        "Lon": 121.501688456724,
        "Sequence": 53,
        "StationID": "7238"
      },
      {
        "Name": "復興中學",
        "Lat": 25.140779616914,
        "Lon": 121.50003982457,
        "Sequence": 54,
        "StationID": "3990"
      },
      {
        "Name": "中和里",
        "Lat": 25.1422718056895,
        "Lon": 121.498822886077,
        "Sequence": 55,
        "StationID": "7237"
      },
      {
        "Name": "國泰新村",
        "Lat": 25.1434882184522,
        "Lon": 121.498191201655,
        "Sequence": 56,
        "StationID": "3991"
      },
      {
        "Name": "慈航寺",
        "Lat": 25.144813,
        "Lon": 121.496498,
        "Sequence": 57,
        "StationID": "3995"
      },
      {
        "Name": "秀山里",
        "Lat": 25.1454283711567,
        "Lon": 121.494135327259,
        "Sequence": 58,
        "StationID": "7236"
      },
      {
        "Name": "貴子坑水土保持園區",
        "Lat": 25.1452633730156,
        "Lon": 121.492633753399,
        "Sequence": 59,
        "StationID": "1000350"
      },
      {
        "Name": "致遠新村",
        "Lat": 25.1430158716225,
        "Lon": 121.490788784285,
        "Sequence": 60,
        "StationID": "7242"
      },
      {
        "Name": "稻香圖書館",
        "Lat": 25.13974,
        "Lon": 121.48958,
        "Sequence": 61,
        "StationID": "50059"
      },
      {
        "Name": "製片廠",
        "Lat": 25.1384813245468,
        "Lon": 121.488,
        "Sequence": 62,
        "StationID": "3964"
      },
      {
        "Name": "捷運復興崗站",
        "Lat": 25.138268490176,
        "Lon": 121.485,
        "Sequence": 63,
        "StationID": "390"
      },
      {
        "Name": "中央北路三段",
        "Lat": 25.1370484098258,
        "Lon": 121.482299756251,
        "Sequence": 64,
        "StationID": "53"
      },
      {
        "Name": "行天宮北投分宮忠義站",
        "Lat": 25.13528,
        "Lon": 121.47841,
        "Sequence": 65,
        "StationID": "221"
      },
      {
        "Name": "桃源國中",
        "Lat": 25.134208,
        "Lon": 121.47679,
        "Sequence": 66,
        "StationID": "319"
      },
      {
        "Name": "中央北路",
        "Lat": 25.1328676139155,
        "Lon": 121.475216087313,
        "Sequence": 67,
        "StationID": "52"
      },
      {
        "Name": "捷運忠義站",
        "Lat": 25.1309842410201,
        "Lon": 121.472841990732,
        "Sequence": 68,
        "StationID": "373"
      },
      {
        "Name": "和信醫院",
        "Lat": 25.1299720368887,
        "Lon": 121.471581488549,
        "Sequence": 69,
        "StationID": "210"
      },
      {
        "Name": "一德街口",
        "Lat": 25.1283916021179,
        "Lon": 121.46876311032,
        "Sequence": 70,
        "StationID": "199"
      },
      {
        "Name": "關渡國小(臺北城市科技大學)",
        "Lat": 25.127279761103,
        "Lon": 121.466749861173,
        "Sequence": 71,
        "StationID": "3973"
      },
      {
        "Name": "關渡",
        "Lat": 25.12498,
        "Lon": 121.46536,
        "Sequence": 72,
        "StationID": "1165609805"
      },
      {
        "Name": "關渡里",
        "Lat": 25.12271001,
        "Lon": 121.466867,
        "Sequence": 73,
        "StationID": "545"
      },
      {
        "Name": "關渡國中(關渡醫院)",
        "Lat": 25.1208320010993,
        "Lon": 121.467155642476,
        "Sequence": 74,
        "StationID": "549"
      },
      {
        "Name": "敬老院",
        "Lat": 25.11934571,
        "Lon": 121.4664182,
        "Sequence": 75,
        "StationID": "459"
      },
      {
        "Name": "關渡宮",
        "Lat": 25.118617,
        "Lon": 121.465497,
        "Sequence": 76,
        "StationID": "547"
      }
    ]
  }
]