[
  {
    "Route": "298",
    "SubRoute": "298",
    "Direction": 0,
    "Stops": [
      {
        "Name": "萬芳社區",
        "Lat": 25.001753,
        "Lon": 121.570457,
        "Sequence": 1,
        "StationID": "2491"
      },
      {
        "Name": "萬芳活動中心",
        "Lat": 25.002436,
        "Lon": 121.569474,
        "Sequence": 2,
        "StationID": "1000032"
      },
      {
        "Name": "萬芳國小",
        "Lat": 25.00146028,
        "Lon": 121.5672991,
        "Sequence": 3,
        "StationID": "2494"
      },
      {
        "Name": "萬芳6號公園",
        "Lat": 24.999962,
        "Lon": 121.56892,
        "Sequence": 4,
        "StationID": "1165604748"
      },
      {
        "Name": "捷運萬芳社區站",
        "Lat": 24.99858575,
        "Lon": 121.5695557,
        "Sequence": 5,
        "StationID": "2446"
      },
      {
        "Name": "木柵高工(萬芳)",
        "Lat": 24.996667,
        "Lon": 121.570733,
        "Sequence": 6,
        "StationID": "2386"
      },
      {
        "Name": "萬芳路口",
        "Lat": 24.9935653207503,
        "Lon": 121.571444566484,
        "Sequence": 7,
        "StationID": "2497"
      },
      {
        "Name": "萬壽橋頭(木柵)",
        "Lat": 24.9913094198003,
        "Lon": 121.570973024858,
        "Sequence": 8,
        "StationID": "1000521"
      },
      {
        "Name": "文山行政中心",
        "Lat": 24.990114359213134,
        "Lon": 121.56999253194654,
        "Sequence": 9,
        "StationID": "2381"
      },
      {
        "Name": "木柵",
        "Lat": 24.9885790493873,
        "Lon": 121.566361887311,
        "Sequence": 10,
        "StationID": "56107"
      },
      {
        "Name": "文山一分局",
        "Lat": 24.989024145656842,
        "Lon": 121.56247819644113,
        "Sequence": 11,
        "StationID": "56106"
      },
      {
        "Name": "馬明潭(再興中學)",
        "Lat": 24.989363359859,
        "Lon": 121.559942504895,
        "Sequence": 12,
        "StationID": "1000443"
      },
      {
        "Name": "興隆山莊",
        "Lat": 24.990768,
        "Lon": 121.55919,
        "Sequence": 13,
        "StationID": "1000444"
      },
      {
        "Name": "海巡署一",
        "Lat": 24.99243758851507,
        "Lon": 121.55883687781873,
        "Sequence": 14,
        "StationID": "392"
      },
      {
        "Name": "海巡署",
        "Lat": 24.99385696,
        "Lon": 121.5594086,
        "Sequence": 15,
        "StationID": "2452"
      },
      {
        "Name": "文山運動中心(興隆)",
        "Lat": 24.996452582031367,
        "Lon": 121.56012261539274,
        "Sequence": 16,
        "StationID": "4712"
      },
      {
        "Name": "臺灣警察專科學校",
        "Lat": 24.9977449509898,
        "Lon": 121.55947313859588,
        "Sequence": 17,
        "StationID": "1000764"
      },
      {
        "Name": "捷運萬芳醫院站",
        "Lat": 24.999259,
        "Lon": 121.557829,
        "Sequence": 18,
        "StationID": "2449"
      },
      {
        "Name": "中國科技大學(興隆)",
        "Lat": 25.0004051038435,
        "Lon": 121.555797991874,
        "Sequence": 19,
        "StationID": "2375"
      },
      {
        "Name": "興隆路口(辛亥)",
        "Lat": 25.001741,
        "Lon": 121.555211,
        "Sequence": 20,
        "StationID": "1000751"
      },
      {
        "Name": "捷運辛亥站",
        "Lat": 25.0037396380103,
        "Lon": 121.556531813076,
        "Sequence": 21,
        "StationID": "1000445"
      },
      {
        "Name": "辛亥國小",
        "Lat": 25.0070201506128,
        "Lon": 121.55871833409,
        "Sequence": 22,
        "StationID": "1000446"
      },
      {
        "Name": "青峰活動中心",
        "Lat": 25.016039021546764,
        "Lon": 121.55075149283692,
        "Sequence": 23,
        "StationID": "2275"
      },
      {
        "Name": "自來水處(辛亥)",
        "Lat": 25.018051,
        "Lon": 121.548282,
        "Sequence": 24,
        "StationID": "15107"
      },
      {
        "Name": "大安運動中心",
        "Lat": 25.0203240566478,
        "Lon": 121.545887467263,
        "Sequence": 25,
        "StationID": "2271"
      },
      {
        "Name": "臺大計資中心",
        "Lat": 25.021623,
        "Lon": 121.540424,
        "Sequence": 26,
        "StationID": "2227"
      },
      {
        "Name": "龍門國中(辛亥路口)",
        "Lat": 25.024365,
        "Lon": 121.537963,
        "Sequence": 27,
        "StationID": "2249"
      },
      {
        "Name": "和平建國路口",
        "Lat": 25.026372,
        "Lon": 121.538016,
        "Sequence": 28,
        "StationID": "1165606690"
      },
      {
        "Name": "大安國宅",
        "Lat": 25.029775296009,
        "Lon": 121.53800596197,
        "Sequence": 29,
        "StationID": "2188"
      },
      {
        "Name": "信義市場",
        "Lat": 25.03412852,
        "Lon": 121.5381185,
        "Sequence": 30,
        "StationID": "2279"
      },
      {
        "Name": "延平中學",
        "Lat": 25.036733858544963,
        "Lon": 121.53833054900049,
        "Sequence": 31,
        "StationID": "2258"
      },
      {
        "Name": "空軍總部",
        "Lat": 25.040612146342024,
        "Lon": 121.5378866989778,
        "Sequence": 32,
        "StationID": "2266"
      },
      {
        "Name": "臺北科技大學(建國)",
        "Lat": 25.042828,
        "Lon": 121.536995,
        "Sequence": 33,
        "StationID": "1165603212"
      },
      {
        "Name": "中山女高",
        "Lat": 25.04943,
        "Lon": 121.53702,
        "Sequence": 34,
        "StationID": "1000973"
      },
      {
        "Name": "長春國小",
        "Lat": 25.054579,
        "Lon": 121.537172,
        "Sequence": 35,
        "StationID": "1296"
      },
      {
        "Name": "臺北大學(臺北校區)",
        "Lat": 25.05657,
        "Lon": 121.53711,
        "Sequence": 36,
        "StationID": "6657"
      },
      {
        "Name": "建國錦州街口",
        "Lat": 25.05999879,
        "Lon": 121.5372533,
        "Sequence": 37,
        "StationID": "6658"
      }
    ]
  },
  {
    "Route": "298",
    "SubRoute": "298",
    "Direction": 1,
    "Stops": [
      {
        "Name": "行天宮",
        "Lat": 25.06316776,
        "Lon": 121.5334449,
        "Sequence": 1,
        "StationID": "6706"
      },
      {
        "Name": "新生公園(林安泰)",
        "Lat": 25.0671805,
        "Lon": 121.5333635,
        "Sequence": 2,
        "StationID": "16265"
      },
      {
        "Name": "第二果菜市場",
        "Lat": 25.06566199,
        "Lon": 121.5358965,
        "Sequence": 3,
        "StationID": "6666"
      },
      {
        "Name": "榮星花園",
        "Lat": 25.0639456066029,
        "Lon": 121.536726116591,
        "Sequence": 4,
        "StationID": "1000766"
      },
      {
        "Name": "建國錦州街口",
        "Lat": 25.06076578,
        "Lon": 121.5366797,
        "Sequence": 5,
        "StationID": "1323"
      },
      {
        "Name": "臺北大學(臺北校區)",
        "Lat": 25.05736,
        "Lon": 121.53656,
        "Sequence": 6,
        "StationID": "1207"
      },
      {
        "Name": "長春國小",
        "Lat": 25.05454,
        "Lon": 121.53656,
        "Sequence": 7,
        "StationID": "6656"
      },
      {
        "Name": "中山女高",
        "Lat": 25.04984803,
        "Lon": 121.5364043,
        "Sequence": 8,
        "StationID": "6655"
      },
      {
        "Name": "建國啤酒廠",
        "Lat": 25.04706738,
        "Lon": 121.5363796,
        "Sequence": 9,
        "StationID": "1320"
      },
      {
        "Name": "臺北科技大學(建國)",
        "Lat": 25.043566,
        "Lon": 121.536351,
        "Sequence": 10,
        "StationID": "1165603213"
      },
      {
        "Name": "空軍總部",
        "Lat": 25.039916,
        "Lon": 121.537378,
        "Sequence": 11,
        "StationID": "1000944"
      },
      {
        "Name": "延平中學",
        "Lat": 25.03642,
        "Lon": 121.53747,
        "Sequence": 12,
        "StationID": "6652"
      },
      {
        "Name": "信義市場",
        "Lat": 25.03392144,
        "Lon": 121.5374877,
        "Sequence": 13,
        "StationID": "6651"
      },
      {
        "Name": "建國南路",
        "Lat": 25.03134398,
        "Lon": 121.5374388,
        "Sequence": 14,
        "StationID": "2288"
      },
      {
        "Name": "大安國宅",
        "Lat": 25.02976279,
        "Lon": 121.537445,
        "Sequence": 15,
        "StationID": "2187"
      },
      {
        "Name": "龍門國中(辛亥路口)",
        "Lat": 25.0241,
        "Lon": 121.53742,
        "Sequence": 16,
        "StationID": "6675"
      },
      {
        "Name": "臺大計資中心",
        "Lat": 25.021046,
        "Lon": 121.540923,
        "Sequence": 17,
        "StationID": "15108"
      },
      {
        "Name": "臺大國青大樓",
        "Lat": 25.0207309356073,
        "Lon": 121.544425705591,
        "Sequence": 18,
        "StationID": "2270"
      },
      {
        "Name": "自來水處(辛亥)",
        "Lat": 25.017554094972425,
        "Lon": 121.54789116460638,
        "Sequence": 19,
        "StationID": "2248"
      },
      {
        "Name": "青峰活動中心",
        "Lat": 25.015144865886427,
        "Lon": 121.5513423711172,
        "Sequence": 20,
        "StationID": "15109"
      },
      {
        "Name": "辛亥國小",
        "Lat": 25.006882553836,
        "Lon": 121.558472554297,
        "Sequence": 21,
        "StationID": "2408"
      },
      {
        "Name": "捷運辛亥站",
        "Lat": 25.00487071,
        "Lon": 121.5569488,
        "Sequence": 22,
        "StationID": "2441"
      },
      {
        "Name": "捷運辛亥站一",
        "Lat": 25.003074756861,
        "Lon": 121.55586888955,
        "Sequence": 23,
        "StationID": "1000451"
      },
      {
        "Name": "興隆路口(辛亥)",
        "Lat": 25.002425,
        "Lon": 121.555481,
        "Sequence": 24,
        "StationID": "1165610421"
      },
      {
        "Name": "捷運萬芳醫院站",
        "Lat": 24.999571,
        "Lon": 121.556845,
        "Sequence": 25,
        "StationID": "1000769"
      },
      {
        "Name": "臺灣警察專科學校",
        "Lat": 24.9982684874929,
        "Lon": 121.558494894192,
        "Sequence": 26,
        "StationID": "1000770"
      },
      {
        "Name": "文山運動中心(興隆)",
        "Lat": 24.996224651489683,
        "Lon": 121.55988996370712,
        "Sequence": 27,
        "StationID": "3782"
      },
      {
        "Name": "海巡署",
        "Lat": 24.994721428997224,
        "Lon": 121.55947687971212,
        "Sequence": 28,
        "StationID": "2431"
      },
      {
        "Name": "海巡署一",
        "Lat": 24.993046,
        "Lon": 121.558778,
        "Sequence": 29,
        "StationID": "2451"
      },
      {
        "Name": "興隆山莊",
        "Lat": 24.9913869,
        "Lon": 121.5586916,
        "Sequence": 30,
        "StationID": "2535"
      },
      {
        "Name": "馬明潭(再興中學)",
        "Lat": 24.98937794,
        "Lon": 121.5597219,
        "Sequence": 31,
        "StationID": "2434"
      },
      {
        "Name": "文山一分局",
        "Lat": 24.98887,
        "Lon": 121.56251,
        "Sequence": 32,
        "StationID": "2378"
      },
      {
        "Name": "木柵",
        "Lat": 24.9885,
        "Lon": 121.56657,
        "Sequence": 33,
        "StationID": "1000439"
      },
      {
        "Name": "文山行政中心",
        "Lat": 24.98976355883173,
        "Lon": 121.56980715638664,
        "Sequence": 34,
        "StationID": "2380"
      },
      {
        "Name": "萬壽橋頭(木柵)",
        "Lat": 24.9913142071305,
        "Lon": 121.57111522305,
        "Sequence": 35,
        "StationID": "1000541"
      },
      {
        "Name": "萬芳路口",
        "Lat": 24.99360167,
        "Lon": 121.5716055,
        "Sequence": 36,
        "StationID": "2499"
      },
      {
        "Name": "木柵高工(萬芳)",
        "Lat": 24.9965253177262,
        "Lon": 121.570778393912,
        "Sequence": 37,
        "StationID": "1001252"
      },
      {
        "Name": "捷運萬芳社區站",
        "Lat": 24.99884269,
        "Lon": 121.5694381,
        "Sequence": 38,
        "StationID": "1001253"
      },
      {
        "Name": "萬芳6號公園",
        "Lat": 24.99976765,
        "Lon": 121.5691055,
        "Sequence": 39,
        "StationID": "1165604749"
      },
      {
        "Name": "萬芳國小",
        "Lat": 25.001533,
        "Lon": 121.567472,
        "Sequence": 40,
        "StationID": "50053"
      },
      {
        "Name": "萬芳活動中心",
        "Lat": 25.002391659383,
        "Lon": 121.568378960175,
        "Sequence": 41,
        "StationID": "2493"
      },
      {
        "Name": "萬芳社區",
        "Lat": 25.0022533526966,
        "Lon": 121.569815966856,
        "Sequence": 42,
        "StationID": "2490"
      }
    ]
  }
]