[
  {
    "Route": "綠18",
    "SubRoute": "綠18",
    "Direction": 0,
    "Stops": [
      {
        "Name": "捷運大坪林站(民權路)",
        "Lat": 24.982813,
        "Lon": 121.542306,
        "Sequence": 1,
        "StationID": "1165604616"
      },
      {
        "Name": "木新路口",
        "Lat": 24.98176616079763,
        "Lon": 121.5537644922877,
        "Sequence": 2,
        "StationID": "7001"
      },
      {
        "Name": "實踐國中",
        "Lat": 24.98456,
        "Lon": 121.55435,
        "Sequence": 3,
        "StationID": "7002"
      },
      {
        "Name": "中港抽水站",
        "Lat": 24.9865677374486,
        "Lon": 121.553332059894,
        "Sequence": 4,
        "StationID": "7003"
      },
      {
        "Name": "溝子口(幸福華興)",
        "Lat": 24.98848123,
        "Lon": 121.5524331,
        "Sequence": 5,
        "StationID": "1000757"
      },
      {
        "Name": "辛亥路6段21巷口",
        "Lat": 24.990333,
        "Lon": 121.552374,
        "Sequence": 6,
        "StationID": "1165604540"
      },
      {
        "Name": "懷恩隧道",
        "Lat": 24.99835,
        "Lon": 121.55339,
        "Sequence": 7,
        "StationID": "15110"
      },
      {
        "Name": "中國科技大學(辛亥)",
        "Lat": 24.999501,
        "Lon": 121.554092,
        "Sequence": 8,
        "StationID": "1165603218"
      },
      {
        "Name": "捷運萬芳醫院站",
        "Lat": 24.999571,
        "Lon": 121.556845,
        "Sequence": 9,
        "StationID": "1000769"
      }
    ]
  },
  {
    "Route": "綠18",
    "SubRoute": "綠18",
    "Direction": 1,
    "Stops": [
      {
        "Name": "臺灣警察專科學校",
        "Lat": 24.9982684874929,
        "Lon": 121.558494894192,
        "Sequence": 1,
        "StationID": "1000770"
      },
      {
        "Name": "文山運動中心(興隆)",
        "Lat": 24.996224651489683,
        "Lon": 121.55988996370712,
        "Sequence": 2,
        "StationID": "3782"
      },
      {
        "Name": "海巡署",
        "Lat": 24.994721428997224,
        "Lon": 121.55947687971212,
        "Sequence": 3,
        "StationID": "2431"
      },
      {
        "Name": "海巡署一",
        "Lat": 24.993046,
        "Lon": 121.558778,
        "Sequence": 4,
        "StationID": "2451"
      },
      {
        "Name": "興隆山莊",
        "Lat": 24.9913869,
        "Lon": 121.5586916,
        "Sequence": 5,
        "StationID": "2535"
      },
      {
        "Name": "馬明潭(再興中學)",
        "Lat": 24.98937794,
        "Lon": 121.5597219,
        "Sequence": 6,
        "StationID": "2434"
      },
      {
        "Name": "木柵公園",
        "Lat": 24.98693,
        "Lon": 121.56074,
        "Sequence": 7,
        "StationID": "2404"
      },
      {
        "Name": "忠順街口",
        "Lat": 24.98477018,
        "Lon": 121.5614966,
        "Sequence": 8,
        "StationID": "2410"
      },
      {
        "Name": "國泰新村(興隆)",
        "Lat": 24.98254356,
        "Lon": 121.5622646,
        "Sequence": 9,
        "StationID": "2437"
      },
      {
        "Name": "國泰新村(木新)",
        "Lat": 24.9820534481377,
        "Lon": 121.561849824052,
        "Sequence": 10,
        "StationID": "3994"
      },
      {
        "Name": "力行國小",
        "Lat": 24.981733915823476,
        "Lon": 121.56033392387744,
        "Sequence": 11,
        "StationID": "2362"
      },
      {
        "Name": "木新市場",
        "Lat": 24.9811534735698,
        "Lon": 121.558272457788,
        "Sequence": 12,
        "StationID": "2391"
      },
      {
        "Name": "景美女中",
        "Lat": 24.980465,
        "Lon": 121.555554,
        "Sequence": 13,
        "StationID": "2462"
      },
      {
        "Name": "大坪林",
        "Lat": 24.981232663482,
        "Lon": 121.54183874603,
        "Sequence": 14,
        "StationID": "30104"
      },
      {
        "Name": "捷運大坪林站(民權路)",
        "Lat": 24.982813,
        "Lon": 121.542306,
        "Sequence": 15,
        "StationID": "1165604616"
      }
    ]
  }
]