[
  {
    "Route": "信義幹線",
    "SubRoute": "信義幹線",
    "Direction": 0,
    "Stops": [
      {
        "Name": "威剛科技總部大樓",
        "Lat": 25.060747,
        "Lon": 121.599554,
        "Sequence": 1,
        "StationID": "1165609002"
      },
      {
        "Name": "長壽抽水站",
        "Lat": 25.061328,
        "Lon": 121.596727,
        "Sequence": 2,
        "StationID": "261"
      },
      {
        "Name": "潭美綠地",
        "Lat": 25.06267156,
        "Lon": 121.5941653,
        "Sequence": 3,
        "StationID": "1165610452"
      },
      {
        "Name": "南港分局(向陽)",
        "Lat": 25.05574836,
        "Lon": 121.5937887,
        "Sequence": 4,
        "StationID": "1647"
      },
      {
        "Name": "南港高中",
        "Lat": 25.0530195,
        "Lon": 121.5949802,
        "Sequence": 5,
        "StationID": "1000314"
      },
      {
        "Name": "捷運昆陽站",
        "Lat": 25.050346,
        "Lon": 121.593165,
        "Sequence": 6,
        "StationID": "1697"
      },
      {
        "Name": "陸軍後勤指揮部",
        "Lat": 25.04983,
        "Lon": 121.59077,
        "Sequence": 7,
        "StationID": "3923"
      },
      {
        "Name": "國華新村",
        "Lat": 25.04908468,
        "Lon": 121.5878431,
        "Sequence": 8,
        "StationID": "3924"
      },
      {
        "Name": "聯合醫院忠孝院區",
        "Lat": 25.0475212158758,
        "Lon": 121.584229738588,
        "Sequence": 9,
        "StationID": "4086"
      },
      {
        "Name": "合心廣場",
        "Lat": 25.046356,
        "Lon": 121.583351,
        "Sequence": 10,
        "StationID": "1165603318"
      },
      {
        "Name": "協和祐德高中",
        "Lat": 25.04280193,
        "Lon": 121.5832524,
        "Sequence": 11,
        "StationID": "2087"
      },
      {
        "Name": "玉成公園(中坡)",
        "Lat": 25.04110747,
        "Lon": 121.5851435,
        "Sequence": 12,
        "StationID": "1000300"
      },
      {
        "Name": "信義行政中心(奉天宮)",
        "Lat": 25.03789,
        "Lon": 121.58325,
        "Sequence": 13,
        "StationID": "6937"
      },
      {
        "Name": "松友新村",
        "Lat": 25.037055,
        "Lon": 121.580964,
        "Sequence": 14,
        "StationID": "6932"
      },
      {
        "Name": "松山商職(福德)",
        "Lat": 25.0363727952991,
        "Lon": 121.578737539702,
        "Sequence": 15,
        "StationID": "2097"
      },
      {
        "Name": "國業里",
        "Lat": 25.03555,
        "Lon": 121.57704,
        "Sequence": 16,
        "StationID": "3947"
      },
      {
        "Name": "國稅局宿舍",
        "Lat": 25.03402693,
        "Lon": 121.5749131,
        "Sequence": 17,
        "StationID": "2143"
      },
      {
        "Name": "捷運象山站",
        "Lat": 25.033006,
        "Lon": 121.570056,
        "Sequence": 18,
        "StationID": "20304"
      },
      {
        "Name": "信義松仁路口(信義)",
        "Lat": 25.0329497897498,
        "Lon": 121.566687674056,
        "Sequence": 19,
        "StationID": "6929"
      },
      {
        "Name": "捷運台北101/世貿站(信義)",
        "Lat": 25.033242055020047,
        "Lon": 121.56459847127361,
        "Sequence": 20,
        "StationID": "6928"
      },
      {
        "Name": "信義光復路口",
        "Lat": 25.0331,
        "Lon": 121.55813,
        "Sequence": 21,
        "StationID": "2117"
      },
      {
        "Name": "信義通化街口",
        "Lat": 25.03319343,
        "Lon": 121.5546221,
        "Sequence": 22,
        "StationID": "2132"
      },
      {
        "Name": "捷運信義安和站(信義)",
        "Lat": 25.033223,
        "Lon": 121.552849,
        "Sequence": 23,
        "StationID": "1000107"
      },
      {
        "Name": "信義敦化路口",
        "Lat": 25.03337757,
        "Lon": 121.549449,
        "Sequence": 24,
        "StationID": "2329"
      },
      {
        "Name": "信義大安路口",
        "Lat": 25.0333837,
        "Lon": 121.5461666,
        "Sequence": 25,
        "StationID": "2113"
      },
      {
        "Name": "捷運大安站(信義)",
        "Lat": 25.03340442,
        "Lon": 121.5438266,
        "Sequence": 26,
        "StationID": "2282"
      },
      {
        "Name": "師大附中",
        "Lat": 25.033382,
        "Lon": 121.542275,
        "Sequence": 27,
        "StationID": "2281"
      },
      {
        "Name": "信義建國路口",
        "Lat": 25.033528900407934,
        "Lon": 121.53846436682753,
        "Sequence": 28,
        "StationID": "2128"
      },
      {
        "Name": "捷運大安森林公園站",
        "Lat": 25.0335848362393,
        "Lon": 121.536053834429,
        "Sequence": 29,
        "StationID": "1000056"
      },
      {
        "Name": "信義新生路口",
        "Lat": 25.033641163337222,
        "Lon": 121.53336986167852,
        "Sequence": 30,
        "StationID": "2134"
      },
      {
        "Name": "信義永康街口",
        "Lat": 25.033725370699948,
        "Lon": 121.53039498137659,
        "Sequence": 31,
        "StationID": "2115"
      },
      {
        "Name": "捷運東門站",
        "Lat": 25.034084364885075,
        "Lon": 121.52775567033312,
        "Sequence": 32,
        "StationID": "6939"
      },
      {
        "Name": "信義杭州路口",
        "Lat": 25.035289619677716,
        "Lon": 121.5247830381989,
        "Sequence": 33,
        "StationID": "2126"
      },
      {
        "Name": "中正紀念堂",
        "Lat": 25.03734153832383,
        "Lon": 121.52065828149863,
        "Sequence": 34,
        "StationID": "1947"
      },
      {
        "Name": "捷運台大醫院站",
        "Lat": 25.04192722,
        "Lon": 121.5163535,
        "Sequence": 35,
        "StationID": "1993"
      }
    ]
  },
  {
    "Route": "信義幹線",
    "SubRoute": "信義幹線",
    "Direction": 1,
    "Stops": [
      {
        "Name": "臺北車站(青島)",
        "Lat": 25.04484411,
        "Lon": 121.517704,
        "Sequence": 1,
        "StationID": "1890"
      },
      {
        "Name": "臺大醫院",
        "Lat": 25.042525923467416,
        "Lon": 121.51846488093777,
        "Sequence": 2,
        "StationID": "50687"
      },
      {
        "Name": "中正紀念堂",
        "Lat": 25.03723469016352,
        "Lon": 121.52070098538395,
        "Sequence": 3,
        "StationID": "1946"
      },
      {
        "Name": "信義杭州路口",
        "Lat": 25.03564868242583,
        "Lon": 121.52392406077344,
        "Sequence": 4,
        "StationID": "2125"
      },
      {
        "Name": "捷運東門站",
        "Lat": 25.034191768178662,
        "Lon": 121.5268262109198,
        "Sequence": 5,
        "StationID": "6940"
      },
      {
        "Name": "信義永康街口(捷運東門站)",
        "Lat": 25.03372668176573,
        "Lon": 121.52972531757206,
        "Sequence": 6,
        "StationID": "2116"
      },
      {
        "Name": "信義新生路口",
        "Lat": 25.033583332926412,
        "Lon": 121.5321735300744,
        "Sequence": 7,
        "StationID": "2133"
      },
      {
        "Name": "捷運大安森林公園站",
        "Lat": 25.03352937220551,
        "Lon": 121.53542376322785,
        "Sequence": 8,
        "StationID": "1000057"
      },
      {
        "Name": "信義建國路口",
        "Lat": 25.033444679044305,
        "Lon": 121.53906320415818,
        "Sequence": 9,
        "StationID": "2127"
      },
      {
        "Name": "捷運大安站(信義)",
        "Lat": 25.033375050631893,
        "Lon": 121.54326844618258,
        "Sequence": 10,
        "StationID": "1000109"
      },
      {
        "Name": "信義大安路口",
        "Lat": 25.03331117343357,
        "Lon": 121.54563534893852,
        "Sequence": 11,
        "StationID": "2112"
      },
      {
        "Name": "信義敦化路口",
        "Lat": 25.033281131508218,
        "Lon": 121.54820957149374,
        "Sequence": 12,
        "StationID": "2286"
      },
      {
        "Name": "捷運信義安和站(信義)",
        "Lat": 25.033180975171472,
        "Lon": 121.55122687477919,
        "Sequence": 13,
        "StationID": "2119"
      },
      {
        "Name": "信義通化街口",
        "Lat": 25.0330873803964,
        "Lon": 121.553994124674,
        "Sequence": 14,
        "StationID": "2131"
      },
      {
        "Name": "信義光復路口",
        "Lat": 25.03311,
        "Lon": 121.55687,
        "Sequence": 15,
        "StationID": "2118"
      },
      {
        "Name": "捷運台北101/世貿站(信義)",
        "Lat": 25.032802,
        "Lon": 121.564536,
        "Sequence": 16,
        "StationID": "6927"
      },
      {
        "Name": "信義松仁路口(信義)",
        "Lat": 25.03273307,
        "Lon": 121.5671167,
        "Sequence": 17,
        "StationID": "2123"
      },
      {
        "Name": "捷運象山站",
        "Lat": 25.032648,
        "Lon": 121.568984,
        "Sequence": 18,
        "StationID": "20305"
      },
      {
        "Name": "國稅局宿舍",
        "Lat": 25.033870235708875,
        "Lon": 121.57514012830093,
        "Sequence": 19,
        "StationID": "2142"
      },
      {
        "Name": "松山商職(信義)",
        "Lat": 25.03596885,
        "Lon": 121.5777733,
        "Sequence": 20,
        "StationID": "2098"
      },
      {
        "Name": "松山商職(福德)",
        "Lat": 25.0362197359093,
        "Lon": 121.578747487242,
        "Sequence": 21,
        "StationID": "2096"
      },
      {
        "Name": "松友新村",
        "Lat": 25.036858,
        "Lon": 121.581141,
        "Sequence": 22,
        "StationID": "2101"
      },
      {
        "Name": "信義行政中心(奉天宮)",
        "Lat": 25.037669212048,
        "Lon": 121.583273769159,
        "Sequence": 23,
        "StationID": "2088"
      },
      {
        "Name": "中行里",
        "Lat": 25.040192284139753,
        "Lon": 121.58483369380596,
        "Sequence": 24,
        "StationID": "1001369"
      },
      {
        "Name": "玉成公園(中坡)",
        "Lat": 25.041958,
        "Lon": 121.585063,
        "Sequence": 25,
        "StationID": "1000299"
      },
      {
        "Name": "協和祐德高中",
        "Lat": 25.042564,
        "Lon": 121.583992,
        "Sequence": 26,
        "StationID": "1000301"
      },
      {
        "Name": "捷運後山埤站(忠孝)",
        "Lat": 25.04445242,
        "Lon": 121.5822223,
        "Sequence": 27,
        "StationID": "3917"
      },
      {
        "Name": "聯合醫院忠孝院區",
        "Lat": 25.048227,
        "Lon": 121.585736,
        "Sequence": 28,
        "StationID": "1716"
      },
      {
        "Name": "國華新村",
        "Lat": 25.0488726204446,
        "Lon": 121.587873523899,
        "Sequence": 29,
        "StationID": "1696"
      },
      {
        "Name": "陸軍後勤指揮部",
        "Lat": 25.04964,
        "Lon": 121.59096,
        "Sequence": 30,
        "StationID": "1719"
      },
      {
        "Name": "捷運昆陽站",
        "Lat": 25.050052,
        "Lon": 121.59306,
        "Sequence": 31,
        "StationID": "1165604773"
      },
      {
        "Name": "南港高中",
        "Lat": 25.0529513842885,
        "Lon": 121.595233108141,
        "Sequence": 32,
        "StationID": "1000319"
      },
      {
        "Name": "南港分局(向陽)",
        "Lat": 25.0553345135907,
        "Lon": 121.594415258716,
        "Sequence": 33,
        "StationID": "1646"
      },
      {
        "Name": "石潭公園",
        "Lat": 25.06211,
        "Lon": 121.59311,
        "Sequence": 34,
        "StationID": "1026"
      },
      {
        "Name": "潭美綠地",
        "Lat": 25.06257015,
        "Lon": 121.5947856,
        "Sequence": 35,
        "StationID": "1165610453"
      },
      {
        "Name": "長壽抽水站",
        "Lat": 25.060938,
        "Lon": 121.596633,
        "Sequence": 36,
        "StationID": "1165608958"
      },
      {
        "Name": "威剛科技總部大樓",
        "Lat": 25.060534,
        "Lon": 121.598789,
        "Sequence": 37,
        "StationID": "1165609003"
      }
    ]
  }
]