[
  {
    "Route": "662",
    "SubRoute": "662",
    "Direction": 0,
    "Stops": [
      {
        "Name": "家樂福",
        "Lat": 25.088196,
        "Lon": 121.486786,
        "Sequence": 1,
        "StationID": "4670"
      },
      {
        "Name": "分子尾",
        "Lat": 25.086181,
        "Lon": 121.488934,
        "Sequence": 2,
        "StationID": "73509"
      },
      {
        "Name": "碧華寺",
        "Lat": 25.083457,
        "Lon": 121.487314,
        "Sequence": 3,
        "StationID": "1000832"
      },
      {
        "Name": "慈福派出所",
        "Lat": 25.082181,
        "Lon": 121.487182,
        "Sequence": 4,
        "StationID": "4999"
      },
      {
        "Name": "美美新村",
        "Lat": 25.081036,
        "Lon": 121.483714,
        "Sequence": 5,
        "StationID": "1000147"
      },
      {
        "Name": "徐匯中學",
        "Lat": 25.0795793818446,
        "Lon": 121.481238194798,
        "Sequence": 6,
        "StationID": "3449"
      },
      {
        "Name": "幸福市場",
        "Lat": 25.078537,
        "Lon": 121.483076,
        "Sequence": 7,
        "StationID": "3427"
      },
      {
        "Name": "建和新村",
        "Lat": 25.07777593,
        "Lon": 121.4845214,
        "Sequence": 8,
        "StationID": "3441"
      },
      {
        "Name": "捷運三和國中站",
        "Lat": 25.07669,
        "Lon": 121.486331,
        "Sequence": 9,
        "StationID": "1165610243"
      },
      {
        "Name": "格致中學(自強路)",
        "Lat": 25.0747990058591,
        "Lon": 121.487215334702,
        "Sequence": 10,
        "StationID": "10435"
      },
      {
        "Name": "永德里",
        "Lat": 25.072367,
        "Lon": 121.486855,
        "Sequence": 11,
        "StationID": "3424"
      },
      {
        "Name": "厚德國小",
        "Lat": 25.069746,
        "Lon": 121.488742,
        "Sequence": 12,
        "StationID": "3440"
      },
      {
        "Name": "六張街口",
        "Lat": 25.0689190842076,
        "Lon": 121.490039523138,
        "Sequence": 13,
        "StationID": "3410"
      },
      {
        "Name": "大智街口",
        "Lat": 25.067814,
        "Lon": 121.492023,
        "Sequence": 14,
        "StationID": "10442"
      },
      {
        "Name": "長元西街口",
        "Lat": 25.065609,
        "Lon": 121.496788,
        "Sequence": 15,
        "StationID": "3395"
      },
      {
        "Name": "正義重新路口",
        "Lat": 25.06310647,
        "Lon": 121.4974644,
        "Sequence": 16,
        "StationID": "3435"
      },
      {
        "Name": "天台廣場",
        "Lat": 25.061930885,
        "Lon": 121.496784994,
        "Sequence": 17,
        "StationID": "3452"
      },
      {
        "Name": "大同路口",
        "Lat": 25.0614913406773,
        "Lon": 121.494254721567,
        "Sequence": 18,
        "StationID": "1000149"
      },
      {
        "Name": "中山藝術公園",
        "Lat": 25.060541,
        "Lon": 121.492298,
        "Sequence": 19,
        "StationID": "1000083"
      },
      {
        "Name": "捷運菜寮站",
        "Lat": 25.059479,
        "Lon": 121.490697,
        "Sequence": 20,
        "StationID": "1000651"
      },
      {
        "Name": "過圳街",
        "Lat": 25.05902382,
        "Lon": 121.4889275,
        "Sequence": 21,
        "StationID": "3473"
      },
      {
        "Name": "三重區公所(過圳街)",
        "Lat": 25.0606,
        "Lon": 121.48778,
        "Sequence": 22,
        "StationID": "3393"
      },
      {
        "Name": "三重稅捐分處",
        "Lat": 25.060305060826,
        "Lon": 121.48663201223,
        "Sequence": 23,
        "StationID": "3455"
      },
      {
        "Name": "菜寮(重陽路)",
        "Lat": 25.0580096673922,
        "Lon": 121.48651605944,
        "Sequence": 24,
        "StationID": "1000081"
      },
      {
        "Name": "集美國小",
        "Lat": 25.05579794,
        "Lon": 121.4879552,
        "Sequence": 25,
        "StationID": "3463"
      },
      {
        "Name": "三重國民運動中心",
        "Lat": 25.05396112,
        "Lon": 121.4884396,
        "Sequence": 26,
        "StationID": "13206"
      },
      {
        "Name": "三重中學",
        "Lat": 25.05314645,
        "Lon": 121.4905956,
        "Sequence": 27,
        "StationID": "3392"
      },
      {
        "Name": "重安街口(集美街)",
        "Lat": 25.055406,
        "Lon": 121.492379,
        "Sequence": 28,
        "StationID": "3443"
      },
      {
        "Name": "中華路北站",
        "Lat": 25.0455115050969,
        "Lon": 121.509144127644,
        "Sequence": 29,
        "StationID": "1000078"
      },
      {
        "Name": "捷運西門站",
        "Lat": 25.0425165606871,
        "Lon": 121.508266771006,
        "Sequence": 30,
        "StationID": "1000079"
      },
      {
        "Name": "東吳大學城中校區",
        "Lat": 25.0390539,
        "Lon": 121.5091008,
        "Sequence": 31,
        "StationID": "1936"
      },
      {
        "Name": "一女中(貴陽)",
        "Lat": 25.0385833202908,
        "Lon": 121.514486272409,
        "Sequence": 32,
        "StationID": "4612"
      },
      {
        "Name": "一女中(公園)",
        "Lat": 25.03800782,
        "Lon": 121.5149627,
        "Sequence": 33,
        "StationID": "1847"
      },
      {
        "Name": "市立大學附小",
        "Lat": 25.0364625980204,
        "Lon": 121.514976309391,
        "Sequence": 34,
        "StationID": "1912"
      }
    ]
  },
  {
    "Route": "662",
    "SubRoute": "662",
    "Direction": 1,
    "Stops": [
      {
        "Name": "一女中(公園)",
        "Lat": 25.0368285357308,
        "Lon": 121.515136595156,
        "Sequence": 1,
        "StationID": "6713"
      },
      {
        "Name": "一女中(貴陽)",
        "Lat": 25.0386560843846,
        "Lon": 121.514498656168,
        "Sequence": 2,
        "StationID": "4611"
      },
      {
        "Name": "博愛路",
        "Lat": 25.043262,
        "Lon": 121.511555,
        "Sequence": 3,
        "StationID": "2002"
      },
      {
        "Name": "臺北郵局(撫臺街洋樓)",
        "Lat": 25.046034860361424,
        "Lon": 121.51018571259864,
        "Sequence": 4,
        "StationID": "4747"
      },
      {
        "Name": "重安街口(集美街)",
        "Lat": 25.055682,
        "Lon": 121.49237,
        "Sequence": 5,
        "StationID": "13211"
      },
      {
        "Name": "三重中學",
        "Lat": 25.05337309,
        "Lon": 121.4906011,
        "Sequence": 6,
        "StationID": "13216"
      },
      {
        "Name": "三重國民運動中心",
        "Lat": 25.0541614,
        "Lon": 121.4885856,
        "Sequence": 7,
        "StationID": "3417"
      },
      {
        "Name": "集美國小",
        "Lat": 25.05566624,
        "Lon": 121.4881563,
        "Sequence": 8,
        "StationID": "1000365"
      },
      {
        "Name": "菜寮(重新路)",
        "Lat": 25.057218,
        "Lon": 121.487921,
        "Sequence": 9,
        "StationID": "3456"
      },
      {
        "Name": "捷運菜寮站",
        "Lat": 25.05907329,
        "Lon": 121.4905425,
        "Sequence": 10,
        "StationID": "13204"
      },
      {
        "Name": "中山藝術公園",
        "Lat": 25.06043253,
        "Lon": 121.4925214,
        "Sequence": 11,
        "StationID": "13215"
      },
      {
        "Name": "大同路口",
        "Lat": 25.061403,
        "Lon": 121.49493,
        "Sequence": 12,
        "StationID": "3387"
      },
      {
        "Name": "正義重新路口",
        "Lat": 25.06353227,
        "Lon": 121.4975969,
        "Sequence": 13,
        "StationID": "1000150"
      },
      {
        "Name": "長元西街口",
        "Lat": 25.065218,
        "Lon": 121.497108,
        "Sequence": 14,
        "StationID": "1165605416"
      },
      {
        "Name": "大智街口",
        "Lat": 25.068105,
        "Lon": 121.491902,
        "Sequence": 15,
        "StationID": "3405"
      },
      {
        "Name": "六張街口",
        "Lat": 25.069140829928,
        "Lon": 121.489929330906,
        "Sequence": 16,
        "StationID": "10445"
      },
      {
        "Name": "厚德國小",
        "Lat": 25.0704593035956,
        "Lon": 121.48809995503,
        "Sequence": 17,
        "StationID": "1001081"
      },
      {
        "Name": "永德里",
        "Lat": 25.07240401,
        "Lon": 121.4870209,
        "Sequence": 18,
        "StationID": "10446"
      },
      {
        "Name": "格致中學(自強路)",
        "Lat": 25.074644,
        "Lon": 121.487332,
        "Sequence": 19,
        "StationID": "3451"
      },
      {
        "Name": "三和國中",
        "Lat": 25.07639978,
        "Lon": 121.4873983,
        "Sequence": 20,
        "StationID": "4127"
      },
      {
        "Name": "捷運三和國中站",
        "Lat": 25.07710199,
        "Lon": 121.486132,
        "Sequence": 21,
        "StationID": "10428"
      },
      {
        "Name": "建和新村",
        "Lat": 25.0780278,
        "Lon": 121.4844874,
        "Sequence": 22,
        "StationID": "10427"
      },
      {
        "Name": "幸福市場",
        "Lat": 25.0789135,
        "Lon": 121.4828427,
        "Sequence": 23,
        "StationID": "10430"
      },
      {
        "Name": "徐匯中學",
        "Lat": 25.07973,
        "Lon": 121.4814,
        "Sequence": 24,
        "StationID": "4972"
      },
      {
        "Name": "美美新村",
        "Lat": 25.081225,
        "Lon": 121.484717,
        "Sequence": 25,
        "StationID": "3442"
      },
      {
        "Name": "碧華寺",
        "Lat": 25.0833122,
        "Lon": 121.4875434,
        "Sequence": 26,
        "StationID": "10479"
      },
      {
        "Name": "慈化公園",
        "Lat": 25.0851042085456,
        "Lon": 121.488483238014,
        "Sequence": 27,
        "StationID": "3468"
      },
      {
        "Name": "分子尾",
        "Lat": 25.08727296,
        "Lon": 121.4879548,
        "Sequence": 28,
        "StationID": "10493"
      }
    ]
  }
]