[
  {
    "Route": "紅2",
    "SubRoute": "紅2",
    "Direction": 0,
    "Stops": [
      {
        "Name": "社后消防隊",
        "Lat": 25.06495,
        "Lon": 121.630225,
        "Sequence": 1,
        "StationID": "2773"
      },
      {
        "Name": "世電社區",
        "Lat": 25.0660033327685,
        "Lon": 121.631401137544,
        "Sequence": 2,
        "StationID": "7619"
      },
      {
        "Name": "北峰里(康寧街)",
        "Lat": 25.067787,
        "Lon": 121.628825,
        "Sequence": 3,
        "StationID": "7643"
      },
      {
        "Name": "金龍國小(康寧街)",
        "Lat": 25.067368167607,
        "Lon": 121.626867537731,
        "Sequence": 4,
        "StationID": "2777"
      },
      {
        "Name": "木南煤礦",
        "Lat": 25.067032,
        "Lon": 121.62487,
        "Sequence": 5,
        "StationID": "2725"
      },
      {
        "Name": "經貿園區",
        "Lat": 25.0666228369498,
        "Lon": 121.621242309823,
        "Sequence": 6,
        "StationID": "2799"
      },
      {
        "Name": "北山里",
        "Lat": 25.06680801,
        "Lon": 121.6188199,
        "Sequence": 7,
        "StationID": "2730"
      },
      {
        "Name": "東湖國小",
        "Lat": 25.068177,
        "Lon": 121.61668,
        "Sequence": 8,
        "StationID": "8531"
      },
      {
        "Name": "五分社區",
        "Lat": 25.068763284981,
        "Lon": 121.614308439756,
        "Sequence": 9,
        "StationID": "5441"
      },
      {
        "Name": "明湖國中",
        "Lat": 25.0702607638519,
        "Lon": 121.611642249953,
        "Sequence": 10,
        "StationID": "8534"
      },
      {
        "Name": "明湖國小(公共電視台)",
        "Lat": 25.0718101504888,
        "Lon": 121.609308386226,
        "Sequence": 11,
        "StationID": "50442"
      },
      {
        "Name": "捷運葫洲站(康寧大學)",
        "Lat": 25.0726213066526,
        "Lon": 121.607610913193,
        "Sequence": 12,
        "StationID": "1165606697"
      },
      {
        "Name": "康寧醫院",
        "Lat": 25.07543061,
        "Lon": 121.6072451,
        "Sequence": 13,
        "StationID": "8629"
      },
      {
        "Name": "黃石公廟",
        "Lat": 25.078107,
        "Lon": 121.607197,
        "Sequence": 14,
        "StationID": "1118"
      },
      {
        "Name": "大湖公園",
        "Lat": 25.08303681690925,
        "Lon": 121.60525229995443,
        "Sequence": 15,
        "StationID": "50448"
      },
      {
        "Name": "捷運大湖公園站",
        "Lat": 25.08373507,
        "Lon": 121.6025457,
        "Sequence": 16,
        "StationID": "3997"
      },
      {
        "Name": "大湖",
        "Lat": 25.08478664,
        "Lon": 121.6000154,
        "Sequence": 17,
        "StationID": "974"
      },
      {
        "Name": "金龍里",
        "Lat": 25.0845601194501,
        "Lon": 121.59638478301,
        "Sequence": 18,
        "StationID": "1000737"
      },
      {
        "Name": "捷運內湖站",
        "Lat": 25.0834615421604,
        "Lon": 121.593879114086,
        "Sequence": 19,
        "StationID": "1071"
      },
      {
        "Name": "湖光市場",
        "Lat": 25.081779319488682,
        "Lon": 121.59179366923021,
        "Sequence": 20,
        "StationID": "1103"
      },
      {
        "Name": "成功路三段",
        "Lat": 25.0798544258006,
        "Lon": 121.589838083526,
        "Sequence": 21,
        "StationID": "1029"
      },
      {
        "Name": "內湖高中",
        "Lat": 25.07901319,
        "Lon": 121.5883097,
        "Sequence": 22,
        "StationID": "8523"
      },
      {
        "Name": "捷運文德站(碧湖公園)",
        "Lat": 25.078655,
        "Lon": 121.584351,
        "Sequence": 23,
        "StationID": "1109"
      },
      {
        "Name": "湖光國宅",
        "Lat": 25.07859,
        "Lon": 121.58078,
        "Sequence": 24,
        "StationID": "8415"
      },
      {
        "Name": "西湖圖書館(湖光教會)",
        "Lat": 25.07910692,
        "Lon": 121.5779835,
        "Sequence": 25,
        "StationID": "1000499"
      },
      {
        "Name": "捷運港墘站(內湖高工)",
        "Lat": 25.0798366021365,
        "Lon": 121.57610868441,
        "Sequence": 26,
        "StationID": "8527"
      },
      {
        "Name": "麗山國中",
        "Lat": 25.0806380998734,
        "Lon": 121.573860343024,
        "Sequence": 27,
        "StationID": "4084"
      },
      {
        "Name": "麗山街",
        "Lat": 25.081473,
        "Lon": 121.571386,
        "Sequence": 28,
        "StationID": "1153"
      },
      {
        "Name": "恕德家商",
        "Lat": 25.082118261496,
        "Lon": 121.569461375068,
        "Sequence": 29,
        "StationID": "50515"
      },
      {
        "Name": "捷運西湖站",
        "Lat": 25.0824213906562,
        "Lon": 121.565868143978,
        "Sequence": 30,
        "StationID": "1000723"
      },
      {
        "Name": "治磐新村",
        "Lat": 25.0830692818289,
        "Lon": 121.564098538475,
        "Sequence": 31,
        "StationID": "194"
      },
      {
        "Name": "文湖國小",
        "Lat": 25.0843810062584,
        "Lon": 121.561535778783,
        "Sequence": 32,
        "StationID": "8670"
      },
      {
        "Name": "美麗華",
        "Lat": 25.0848172776379,
        "Lon": 121.558119339359,
        "Sequence": 33,
        "StationID": "1322"
      },
      {
        "Name": "捷運劍南路站",
        "Lat": 25.085303158353604,
        "Lon": 121.55468793143969,
        "Sequence": 34,
        "StationID": "1000695"
      },
      {
        "Name": "自強隧道",
        "Lat": 25.08377483,
        "Lon": 121.5490281,
        "Sequence": 35,
        "StationID": "4182"
      },
      {
        "Name": "植福宮",
        "Lat": 25.0808482,
        "Lon": 121.5482394,
        "Sequence": 36,
        "StationID": "9435"
      },
      {
        "Name": "捷運大直站",
        "Lat": 25.0799238282333,
        "Lon": 121.546139731473,
        "Sequence": 37,
        "StationID": "1000126"
      },
      {
        "Name": "大直高中",
        "Lat": 25.07978102,
        "Lon": 121.5436838,
        "Sequence": 38,
        "StationID": "9433"
      },
      {
        "Name": "空軍司令部",
        "Lat": 25.07961,
        "Lon": 121.54169,
        "Sequence": 39,
        "StationID": "9437"
      },
      {
        "Name": "忠烈祠",
        "Lat": 25.0780024350627,
        "Lon": 121.535552182321,
        "Sequence": 40,
        "StationID": "9436"
      },
      {
        "Name": "中央電台",
        "Lat": 25.0781282212443,
        "Lon": 121.530144788528,
        "Sequence": 41,
        "StationID": "9434"
      },
      {
        "Name": "圓山大飯店",
        "Lat": 25.077322358349,
        "Lon": 121.527964269875,
        "Sequence": 42,
        "StationID": "1357"
      },
      {
        "Name": "臺北市立美術館",
        "Lat": 25.070066233009,
        "Lon": 121.523095139749,
        "Sequence": 43,
        "StationID": "4121"
      },
      {
        "Name": "捷運圓山站",
        "Lat": 25.069744,
        "Lon": 121.520216,
        "Sequence": 44,
        "StationID": "1462"
      }
    ]
  },
  {
    "Route": "紅2",
    "SubRoute": "紅2",
    "Direction": 1,
    "Stops": [
      {
        "Name": "臺北市立美術館",
        "Lat": 25.0721395085303,
        "Lon": 121.523964286473,
        "Sequence": 1,
        "StationID": "101"
      },
      {
        "Name": "圓山大飯店",
        "Lat": 25.0772703676354,
        "Lon": 121.528167347349,
        "Sequence": 2,
        "StationID": "1356"
      },
      {
        "Name": "中央電台",
        "Lat": 25.0779258290758,
        "Lon": 121.53000062511,
        "Sequence": 3,
        "StationID": "1195"
      },
      {
        "Name": "忠烈祠",
        "Lat": 25.07800478,
        "Lon": 121.5319142,
        "Sequence": 4,
        "StationID": "1260"
      },
      {
        "Name": "經國七海文化園區",
        "Lat": 25.07778224,
        "Lon": 121.535397,
        "Sequence": 5,
        "StationID": "4740"
      },
      {
        "Name": "空軍司令部",
        "Lat": 25.0793999240419,
        "Lon": 121.540311649212,
        "Sequence": 6,
        "StationID": "1382"
      },
      {
        "Name": "大直高中",
        "Lat": 25.07949,
        "Lon": 121.54255,
        "Sequence": 7,
        "StationID": "1179"
      },
      {
        "Name": "大直國小",
        "Lat": 25.07971159,
        "Lon": 121.5453154,
        "Sequence": 8,
        "StationID": "1180"
      },
      {
        "Name": "捷運大直站",
        "Lat": 25.0802161011772,
        "Lon": 121.5479855392,
        "Sequence": 9,
        "StationID": "4187"
      },
      {
        "Name": "植福宮",
        "Lat": 25.08160965,
        "Lon": 121.5488002,
        "Sequence": 10,
        "StationID": "1212"
      },
      {
        "Name": "自強隧道(大直教會)",
        "Lat": 25.0837373733406,
        "Lon": 121.549307259251,
        "Sequence": 11,
        "StationID": "1255"
      },
      {
        "Name": "自強隧道",
        "Lat": 25.0858624708036,
        "Lon": 121.551895985064,
        "Sequence": 12,
        "StationID": "1254"
      },
      {
        "Name": "捷運劍南路站",
        "Lat": 25.08484,
        "Lon": 121.555253,
        "Sequence": 13,
        "StationID": "1000117"
      },
      {
        "Name": "美麗華",
        "Lat": 25.0845384449731,
        "Lon": 121.558196913178,
        "Sequence": 14,
        "StationID": "1000127"
      },
      {
        "Name": "文湖國小",
        "Lat": 25.0841512660387,
        "Lon": 121.5615165067,
        "Sequence": 15,
        "StationID": "1008"
      },
      {
        "Name": "治磐新村",
        "Lat": 25.0829452709661,
        "Lon": 121.56384168984,
        "Sequence": 16,
        "StationID": "8521"
      },
      {
        "Name": "捷運西湖站",
        "Lat": 25.0821974042872,
        "Lon": 121.565884872161,
        "Sequence": 17,
        "StationID": "1000698"
      },
      {
        "Name": "恕德家商",
        "Lat": 25.0819632554949,
        "Lon": 121.56904542401,
        "Sequence": 18,
        "StationID": "1075"
      },
      {
        "Name": "麗山街",
        "Lat": 25.081132,
        "Lon": 121.57184,
        "Sequence": 19,
        "StationID": "8410"
      },
      {
        "Name": "捷運港墘站(內湖高工)",
        "Lat": 25.0801493693391,
        "Lon": 121.574618145655,
        "Sequence": 20,
        "StationID": "997"
      },
      {
        "Name": "西湖圖書館(湖光教會)",
        "Lat": 25.078683,
        "Lon": 121.578396,
        "Sequence": 21,
        "StationID": "1041"
      },
      {
        "Name": "湖光國宅",
        "Lat": 25.0783569202296,
        "Lon": 121.581597209792,
        "Sequence": 22,
        "StationID": "1104"
      },
      {
        "Name": "捷運文德站(碧湖公園)",
        "Lat": 25.07840172,
        "Lon": 121.5841327,
        "Sequence": 23,
        "StationID": "4083"
      },
      {
        "Name": "內湖高中",
        "Lat": 25.0787035812339,
        "Lon": 121.587565869008,
        "Sequence": 24,
        "StationID": "998"
      },
      {
        "Name": "成功路三段",
        "Lat": 25.0796177267452,
        "Lon": 121.589939880159,
        "Sequence": 25,
        "StationID": "8520"
      },
      {
        "Name": "湖光市場",
        "Lat": 25.0816997666211,
        "Lon": 121.59200882874,
        "Sequence": 26,
        "StationID": "8537"
      },
      {
        "Name": "捷運內湖站",
        "Lat": 25.08334,
        "Lon": 121.594132,
        "Sequence": 27,
        "StationID": "8538"
      },
      {
        "Name": "秀湖",
        "Lat": 25.08456,
        "Lon": 121.59841,
        "Sequence": 28,
        "StationID": "1000732"
      },
      {
        "Name": "大湖",
        "Lat": 25.08453,
        "Lon": 121.600182,
        "Sequence": 29,
        "StationID": "968"
      },
      {
        "Name": "捷運大湖公園站",
        "Lat": 25.08343,
        "Lon": 121.602592,
        "Sequence": 30,
        "StationID": "3998"
      },
      {
        "Name": "大湖公園",
        "Lat": 25.08288733,
        "Lon": 121.6048,
        "Sequence": 31,
        "StationID": "8524"
      },
      {
        "Name": "黃石公廟",
        "Lat": 25.077575,
        "Lon": 121.606985,
        "Sequence": 32,
        "StationID": "4009"
      },
      {
        "Name": "康寧醫院",
        "Lat": 25.076003252282835,
        "Lon": 121.60709165757346,
        "Sequence": 33,
        "StationID": "1094"
      },
      {
        "Name": "康寧社區",
        "Lat": 25.07432866824676,
        "Lon": 121.60631194598926,
        "Sequence": 34,
        "StationID": "3999"
      },
      {
        "Name": "捷運葫洲站(康寧大學)",
        "Lat": 25.07246542,
        "Lon": 121.6075013,
        "Sequence": 35,
        "StationID": "1165606698"
      },
      {
        "Name": "明湖國小(公共電視台)",
        "Lat": 25.0716328345384,
        "Lon": 121.609320074507,
        "Sequence": 36,
        "StationID": "1049"
      },
      {
        "Name": "五分社區",
        "Lat": 25.06860831,
        "Lon": 121.6144033,
        "Sequence": 37,
        "StationID": "986"
      },
      {
        "Name": "東湖國小",
        "Lat": 25.06806969,
        "Lon": 121.6165906,
        "Sequence": 38,
        "StationID": "8530"
      },
      {
        "Name": "北山里",
        "Lat": 25.066676,
        "Lon": 121.618528,
        "Sequence": 39,
        "StationID": "7684"
      },
      {
        "Name": "經貿園區",
        "Lat": 25.0666077871618,
        "Lon": 121.622098011234,
        "Sequence": 40,
        "StationID": "7636"
      },
      {
        "Name": "木南煤礦",
        "Lat": 25.066839,
        "Lon": 121.624809,
        "Sequence": 41,
        "StationID": "2727"
      },
      {
        "Name": "金龍國小(康寧街)",
        "Lat": 25.067351,
        "Lon": 121.627395,
        "Sequence": 42,
        "StationID": "7638"
      },
      {
        "Name": "北峰里(康寧街)",
        "Lat": 25.067676,
        "Lon": 121.628878,
        "Sequence": 43,
        "StationID": "7642"
      },
      {
        "Name": "世電社區",
        "Lat": 25.065928,
        "Lon": 121.631193,
        "Sequence": 44,
        "StationID": "2729"
      },
      {
        "Name": "社后消防隊",
        "Lat": 25.0650436384425,
        "Lon": 121.629926076885,
        "Sequence": 45,
        "StationID": "7687"
      }
    ]
  }
]