[
  {
    "Route": "552",
    "SubRoute": "552",
    "Direction": 0,
    "Stops": [
      {
        "Name": "金龍寺",
        "Lat": 25.088502189264172,
        "Lon": 121.58649239370985,
        "Sequence": 1,
        "StationID": "1069"
      },
      {
        "Name": "金龍隧道口",
        "Lat": 25.086917,
        "Lon": 121.58808,
        "Sequence": 2,
        "StationID": "1068"
      },
      {
        "Name": "碧山岩",
        "Lat": 25.085651,
        "Lon": 121.59054,
        "Sequence": 3,
        "StationID": "1135"
      },
      {
        "Name": "貿商三村",
        "Lat": 25.0850667950708,
        "Lon": 121.592247709587,
        "Sequence": 4,
        "StationID": "1111"
      },
      {
        "Name": "碧湖國小",
        "Lat": 25.0838005,
        "Lon": 121.5924824,
        "Sequence": 5,
        "StationID": "1137"
      },
      {
        "Name": "內湖派出所",
        "Lat": 25.081987,
        "Lon": 121.590028,
        "Sequence": 6,
        "StationID": "994"
      },
      {
        "Name": "達人高中(臺灣戲曲學院)",
        "Lat": 25.08132,
        "Lon": 121.58718,
        "Sequence": 7,
        "StationID": "8633"
      },
      {
        "Name": "內湖國小",
        "Lat": 25.079397,
        "Lon": 121.581399,
        "Sequence": 8,
        "StationID": "8634"
      },
      {
        "Name": "西湖圖書館(湖光教會)",
        "Lat": 25.07889,
        "Lon": 121.578499,
        "Sequence": 9,
        "StationID": "1165604812"
      },
      {
        "Name": "西湖圖書館(湖光教會)",
        "Lat": 25.078956,
        "Lon": 121.57768,
        "Sequence": 10,
        "StationID": "1165604813"
      },
      {
        "Name": "湖光國宅",
        "Lat": 25.0783569202296,
        "Lon": 121.581597209792,
        "Sequence": 11,
        "StationID": "1104"
      },
      {
        "Name": "文德二號公園",
        "Lat": 25.07667,
        "Lon": 121.58339,
        "Sequence": 12,
        "StationID": "1010"
      },
      {
        "Name": "瑞陽三號公園",
        "Lat": 25.07451903,
        "Lon": 121.5808412,
        "Sequence": 13,
        "StationID": "8617"
      },
      {
        "Name": "瑞光路",
        "Lat": 25.07478024553194,
        "Lon": 121.57766690657958,
        "Sequence": 14,
        "StationID": "1000897"
      },
      {
        "Name": "瑞光港墘路口",
        "Lat": 25.07729684,
        "Lon": 121.5731066,
        "Sequence": 15,
        "StationID": "1000895"
      },
      {
        "Name": "仁寶大樓",
        "Lat": 25.079478,
        "Lon": 121.568256,
        "Sequence": 16,
        "StationID": "1000896"
      },
      {
        "Name": "基湖路口",
        "Lat": 25.0805158061818,
        "Lon": 121.565903409458,
        "Sequence": 17,
        "StationID": "8403"
      },
      {
        "Name": "金泰公園",
        "Lat": 25.07768,
        "Lon": 121.56712,
        "Sequence": 18,
        "StationID": "4761"
      },
      {
        "Name": "內湖休閒運動公園",
        "Lat": 25.067824919406444,
        "Lon": 121.57453173263708,
        "Sequence": 20,
        "StationID": "1004"
      },
      {
        "Name": "新湖三路口(台北花市)",
        "Lat": 25.06238,
        "Lon": 121.57742,
        "Sequence": 21,
        "StationID": "1125"
      },
      {
        "Name": "新湖一路口",
        "Lat": 25.0605916742291,
        "Lon": 121.578858331191,
        "Sequence": 22,
        "StationID": "1000213"
      },
      {
        "Name": "潭美國小(舊宗)",
        "Lat": 25.058297,
        "Lon": 121.580495,
        "Sequence": 23,
        "StationID": "1000215"
      },
      {
        "Name": "松山高中(基隆路)",
        "Lat": 25.0444493988665,
        "Lon": 121.56628044728,
        "Sequence": 24,
        "StationID": "2095"
      },
      {
        "Name": "捷運市政府站",
        "Lat": 25.040991,
        "Lon": 121.565249,
        "Sequence": 25,
        "StationID": "2150"
      }
    ]
  },
  {
    "Route": "552",
    "SubRoute": "552",
    "Direction": 1,
    "Stops": [
      {
        "Name": "潭美國小(舊宗)",
        "Lat": 25.057957,
        "Lon": 121.581074,
        "Sequence": 1,
        "StationID": "1000222"
      },
      {
        "Name": "新湖一路口",
        "Lat": 25.06054231,
        "Lon": 121.5791317,
        "Sequence": 2,
        "StationID": "1000223"
      },
      {
        "Name": "新湖三路口(台北花市)",
        "Lat": 25.063161,
        "Lon": 121.577205,
        "Sequence": 3,
        "StationID": "1000224"
      },
      {
        "Name": "內湖休閒運動公園",
        "Lat": 25.06684,
        "Lon": 121.57483,
        "Sequence": 4,
        "StationID": "50421"
      },
      {
        "Name": "陽光抽水站",
        "Lat": 25.07204,
        "Lon": 121.57446,
        "Sequence": 5,
        "StationID": "8661"
      },
      {
        "Name": "金泰公園",
        "Lat": 25.07803318,
        "Lon": 121.5674816,
        "Sequence": 6,
        "StationID": "1000864"
      },
      {
        "Name": "基湖站",
        "Lat": 25.0801,
        "Lon": 121.56489,
        "Sequence": 7,
        "StationID": "8405"
      },
      {
        "Name": "基湖路口",
        "Lat": 25.08025003,
        "Lon": 121.5662362,
        "Sequence": 8,
        "StationID": "8404"
      },
      {
        "Name": "仁寶大樓",
        "Lat": 25.07921316,
        "Lon": 121.5684974,
        "Sequence": 9,
        "StationID": "1007"
      },
      {
        "Name": "瑞光港墘路口",
        "Lat": 25.078319,
        "Lon": 121.570459,
        "Sequence": 10,
        "StationID": "1165608385"
      },
      {
        "Name": "瑞光路",
        "Lat": 25.074821,
        "Lon": 121.577343,
        "Sequence": 11,
        "StationID": "1132"
      },
      {
        "Name": "瑞陽三號公園",
        "Lat": 25.074897,
        "Lon": 121.582212,
        "Sequence": 12,
        "StationID": "1011"
      },
      {
        "Name": "文德二號公園",
        "Lat": 25.077078,
        "Lon": 121.583667,
        "Sequence": 13,
        "StationID": "1001287"
      },
      {
        "Name": "湖光國宅",
        "Lat": 25.07859,
        "Lon": 121.58078,
        "Sequence": 14,
        "StationID": "8415"
      },
      {
        "Name": "內湖國小",
        "Lat": 25.07929048,
        "Lon": 121.5812755,
        "Sequence": 15,
        "StationID": "999"
      },
      {
        "Name": "達人高中(臺灣戲曲學院)",
        "Lat": 25.08114,
        "Lon": 121.5868,
        "Sequence": 16,
        "StationID": "1133"
      },
      {
        "Name": "內湖派出所",
        "Lat": 25.08178839,
        "Lon": 121.5894925,
        "Sequence": 17,
        "StationID": "993"
      },
      {
        "Name": "內湖派出所一",
        "Lat": 25.08137554,
        "Lon": 121.5904743,
        "Sequence": 18,
        "StationID": "8611"
      },
      {
        "Name": "湖光市場",
        "Lat": 25.0816997666211,
        "Lon": 121.59200882874,
        "Sequence": 19,
        "StationID": "8537"
      },
      {
        "Name": "捷運內湖站",
        "Lat": 25.08334,
        "Lon": 121.594132,
        "Sequence": 20,
        "StationID": "8538"
      },
      {
        "Name": "金龍路口",
        "Lat": 25.08468616,
        "Lon": 121.5943834,
        "Sequence": 21,
        "StationID": "270"
      },
      {
        "Name": "貿商三村",
        "Lat": 25.0851216204339,
        "Lon": 121.592340188865,
        "Sequence": 22,
        "StationID": "8541"
      },
      {
        "Name": "碧山岩",
        "Lat": 25.0856636770114,
        "Lon": 121.590672857706,
        "Sequence": 23,
        "StationID": "8542"
      },
      {
        "Name": "金龍隧道口",
        "Lat": 25.086529319087273,
        "Lon": 121.58887802199136,
        "Sequence": 24,
        "StationID": "1064"
      },
      {
        "Name": "金龍寺",
        "Lat": 25.088502189264172,
        "Lon": 121.58649239370985,
        "Sequence": 25,
        "StationID": "1069"
      }
    ]
  }
]