[
  {
    "Route": "和平幹線",
    "SubRoute": "和平幹線",
    "Direction": 0,
    "Stops": [
      {
        "Name": "萬芳社區",
        "Lat": 25.001753,
        "Lon": 121.570457,
        "Sequence": 1,
        "StationID": "2491"
      },
      {
        "Name": "萬芳活動中心",
        "Lat": 25.002436,
        "Lon": 121.569474,
        "Sequence": 2,
        "StationID": "1000032"
      },
      {
        "Name": "萬芳派出所",
        "Lat": 25.001846895493077,
        "Lon": 121.56609661959216,
        "Sequence": 3,
        "StationID": "50052"
      },
      {
        "Name": "公務人員訓練處",
        "Lat": 25.0020353,
        "Lon": 121.5619947,
        "Sequence": 4,
        "StationID": "50051"
      },
      {
        "Name": "萬美社區",
        "Lat": 25.003346,
        "Lon": 121.563081,
        "Sequence": 5,
        "StationID": "1165604841"
      },
      {
        "Name": "萬芳國宅",
        "Lat": 25.003393,
        "Lon": 121.565624,
        "Sequence": 6,
        "StationID": "2495"
      },
      {
        "Name": "萬寧街",
        "Lat": 25.0031179,
        "Lon": 121.5705532,
        "Sequence": 7,
        "StationID": "2515"
      },
      {
        "Name": "萬寧山莊",
        "Lat": 25.0042437073135,
        "Lon": 121.570485304818,
        "Sequence": 8,
        "StationID": "50047"
      },
      {
        "Name": "名門社區",
        "Lat": 25.0051424040312,
        "Lon": 121.567813467771,
        "Sequence": 9,
        "StationID": "4161"
      },
      {
        "Name": "臥龍新村",
        "Lat": 25.0124070094545,
        "Lon": 121.563512093163,
        "Sequence": 10,
        "StationID": "6016"
      },
      {
        "Name": "大我新舍",
        "Lat": 25.0143745337282,
        "Lon": 121.562293962737,
        "Sequence": 11,
        "StationID": "2193"
      },
      {
        "Name": "麟光站",
        "Lat": 25.015923661863052,
        "Lon": 121.56085606375822,
        "Sequence": 12,
        "StationID": "6017"
      },
      {
        "Name": "黎忠市場",
        "Lat": 25.019475,
        "Lon": 121.557953,
        "Sequence": 13,
        "StationID": "6015"
      },
      {
        "Name": "富陽街口",
        "Lat": 25.021127,
        "Lon": 121.55616,
        "Sequence": 14,
        "StationID": "2160"
      },
      {
        "Name": "捷運六張犁站(和平)",
        "Lat": 25.022926,
        "Lon": 121.554225,
        "Sequence": 15,
        "StationID": "2147"
      },
      {
        "Name": "和平安和路口",
        "Lat": 25.02462276337447,
        "Lon": 121.55135072927436,
        "Sequence": 16,
        "StationID": "1165607095"
      },
      {
        "Name": "臥龍街",
        "Lat": 25.0247072352904,
        "Lon": 121.547497854598,
        "Sequence": 17,
        "StationID": "6020"
      },
      {
        "Name": "國立臺北教育大學",
        "Lat": 25.02482681,
        "Lon": 121.5448151,
        "Sequence": 18,
        "StationID": "2304"
      },
      {
        "Name": "復興南路口",
        "Lat": 25.0251035284638,
        "Lon": 121.542376119519,
        "Sequence": 19,
        "StationID": "6021"
      },
      {
        "Name": "國北教大實小",
        "Lat": 25.02532,
        "Lon": 121.54065,
        "Sequence": 20,
        "StationID": "2299"
      },
      {
        "Name": "龍門國中(和平)",
        "Lat": 25.0255275256686,
        "Lon": 121.539154243763,
        "Sequence": 21,
        "StationID": "3942"
      },
      {
        "Name": "大安森林公園",
        "Lat": 25.0259280472003,
        "Lon": 121.53631985296,
        "Sequence": 22,
        "StationID": "2192"
      },
      {
        "Name": "溫州街口",
        "Lat": 25.0263548162126,
        "Lon": 121.532693859225,
        "Sequence": 23,
        "StationID": "6024"
      },
      {
        "Name": "師大綜合大樓",
        "Lat": 25.026622,
        "Lon": 121.53006,
        "Sequence": 24,
        "StationID": "2292"
      },
      {
        "Name": "師大",
        "Lat": 25.026738138642,
        "Lon": 121.527713493878,
        "Sequence": 25,
        "StationID": "6025"
      },
      {
        "Name": "捷運古亭站(和平)",
        "Lat": 25.027172,
        "Lon": 121.523152,
        "Sequence": 26,
        "StationID": "6026"
      },
      {
        "Name": "羅斯福潮州街口",
        "Lat": 25.02922,
        "Lon": 121.52096,
        "Sequence": 27,
        "StationID": "1165606957"
      },
      {
        "Name": "捷運中正紀念堂站(羅斯福)",
        "Lat": 25.0322495874994,
        "Lon": 121.51880642264224,
        "Sequence": 28,
        "StationID": "1982"
      },
      {
        "Name": "捷運中正紀念堂站",
        "Lat": 25.034101183711,
        "Lon": 121.517358319526,
        "Sequence": 29,
        "StationID": "1984"
      },
      {
        "Name": "景福門",
        "Lat": 25.03787,
        "Lon": 121.51751,
        "Sequence": 30,
        "StationID": "2003"
      },
      {
        "Name": "臺大醫院",
        "Lat": 25.041403318287,
        "Lon": 121.5185552467,
        "Sequence": 31,
        "StationID": "1000087"
      },
      {
        "Name": "臺北車站(忠孝)",
        "Lat": 25.0465408,
        "Lon": 121.5167218,
        "Sequence": 32,
        "StationID": "1000082"
      },
      {
        "Name": "重慶南路一段",
        "Lat": 25.04441023077385,
        "Lon": 121.51311219241008,
        "Sequence": 33,
        "StationID": "1165604850"
      },
      {
        "Name": "二二八和平公園",
        "Lat": 25.0423685522993,
        "Lon": 121.512543916311,
        "Sequence": 34,
        "StationID": "1848"
      }
    ]
  },
  {
    "Route": "和平幹線",
    "SubRoute": "和平幹線",
    "Direction": 1,
    "Stops": [
      {
        "Name": "博愛路",
        "Lat": 25.043262,
        "Lon": 121.511555,
        "Sequence": 1,
        "StationID": "2002"
      },
      {
        "Name": "臺北郵局",
        "Lat": 25.04676505924,
        "Lon": 121.51129364418,
        "Sequence": 2,
        "StationID": "1000108"
      },
      {
        "Name": "臺北車站(忠孝)",
        "Lat": 25.0468151658683,
        "Lon": 121.514521527226,
        "Sequence": 3,
        "StationID": "1888"
      },
      {
        "Name": "捷運善導寺站",
        "Lat": 25.044844,
        "Lon": 121.522629,
        "Sequence": 4,
        "StationID": "1997"
      },
      {
        "Name": "開南中學",
        "Lat": 25.04161112,
        "Lon": 121.522214,
        "Sequence": 5,
        "StationID": "2006"
      },
      {
        "Name": "仁愛林森路口",
        "Lat": 25.040352,
        "Lon": 121.521878540227,
        "Sequence": 6,
        "StationID": "1866"
      },
      {
        "Name": "捷運中正紀念堂站(羅斯福)",
        "Lat": 25.0309990709643,
        "Lon": 121.519393611622,
        "Sequence": 7,
        "StationID": "1987"
      },
      {
        "Name": "南昌家具街",
        "Lat": 25.0273649962157,
        "Lon": 121.520315080867,
        "Sequence": 8,
        "StationID": "1944"
      },
      {
        "Name": "捷運古亭站(和平)",
        "Lat": 25.02678744,
        "Lon": 121.5246159,
        "Sequence": 9,
        "StationID": "2311"
      },
      {
        "Name": "師大",
        "Lat": 25.02650071684031,
        "Lon": 121.5278634988405,
        "Sequence": 10,
        "StationID": "2289"
      },
      {
        "Name": "師大綜合大樓",
        "Lat": 25.026362,
        "Lon": 121.529958,
        "Sequence": 11,
        "StationID": "2291"
      },
      {
        "Name": "溫州街口",
        "Lat": 25.0260973914545,
        "Lon": 121.533012542409,
        "Sequence": 12,
        "StationID": "3914"
      },
      {
        "Name": "大安森林公園",
        "Lat": 25.0257355123764,
        "Lon": 121.536235879941,
        "Sequence": 13,
        "StationID": "2190"
      },
      {
        "Name": "龍門國中(和平)",
        "Lat": 25.0254072414078,
        "Lon": 121.538492198683,
        "Sequence": 14,
        "StationID": "2345"
      },
      {
        "Name": "復興南路口",
        "Lat": 25.0249140592421,
        "Lon": 121.542239793699,
        "Sequence": 15,
        "StationID": "2327"
      },
      {
        "Name": "國立臺北教育大學",
        "Lat": 25.0246033941802,
        "Lon": 121.545343325676,
        "Sequence": 16,
        "StationID": "2300"
      },
      {
        "Name": "臥龍街",
        "Lat": 25.024522,
        "Lon": 121.547571,
        "Sequence": 17,
        "StationID": "2267"
      },
      {
        "Name": "和平安和路口",
        "Lat": 25.0242726614044,
        "Lon": 121.550861893498,
        "Sequence": 18,
        "StationID": "2250"
      },
      {
        "Name": "捷運六張犁站(和平)",
        "Lat": 25.0232432826612,
        "Lon": 121.553534505165,
        "Sequence": 19,
        "StationID": "2146"
      },
      {
        "Name": "富陽街口",
        "Lat": 25.0210340657202,
        "Lon": 121.555910878022,
        "Sequence": 20,
        "StationID": "2085"
      },
      {
        "Name": "黎忠市場",
        "Lat": 25.01926083,
        "Lon": 121.5578044,
        "Sequence": 21,
        "StationID": "2172"
      },
      {
        "Name": "捷運麟光站",
        "Lat": 25.01825,
        "Lon": 121.55853,
        "Sequence": 22,
        "StationID": "2157"
      },
      {
        "Name": "麟光站",
        "Lat": 25.015473,
        "Lon": 121.561041,
        "Sequence": 23,
        "StationID": "2182"
      },
      {
        "Name": "大我新舍",
        "Lat": 25.0138741581322,
        "Lon": 121.562466432938,
        "Sequence": 24,
        "StationID": "2194"
      },
      {
        "Name": "臥龍新村",
        "Lat": 25.0125182192084,
        "Lon": 121.563395667285,
        "Sequence": 25,
        "StationID": "2108"
      },
      {
        "Name": "名門社區",
        "Lat": 25.0052162792279,
        "Lon": 121.567502036596,
        "Sequence": 26,
        "StationID": "2076"
      },
      {
        "Name": "萬寧山莊",
        "Lat": 25.0041631244417,
        "Lon": 121.570371684081,
        "Sequence": 27,
        "StationID": "2514"
      },
      {
        "Name": "萬寧街",
        "Lat": 25.0032053525918,
        "Lon": 121.570571682464,
        "Sequence": 28,
        "StationID": "1000089"
      },
      {
        "Name": "萬芳國宅",
        "Lat": 25.003405,
        "Lon": 121.565052,
        "Sequence": 29,
        "StationID": "50048"
      },
      {
        "Name": "萬美社區",
        "Lat": 25.003405,
        "Lon": 121.563084,
        "Sequence": 30,
        "StationID": "1165604842"
      },
      {
        "Name": "公務人員訓練處",
        "Lat": 25.0018116822751,
        "Lon": 121.562127594784,
        "Sequence": 31,
        "StationID": "2373"
      },
      {
        "Name": "萬芳派出所",
        "Lat": 25.0017624091424,
        "Lon": 121.566256708836,
        "Sequence": 32,
        "StationID": "2492"
      },
      {
        "Name": "萬芳活動中心",
        "Lat": 25.002391659383,
        "Lon": 121.568378960175,
        "Sequence": 33,
        "StationID": "2493"
      },
      {
        "Name": "萬芳社區",
        "Lat": 25.0022533526966,
        "Lon": 121.569815966856,
        "Sequence": 34,
        "StationID": "2490"
      }
    ]
  },
  {
    "Route": "和平幹線",
    "SubRoute": "和平幹線繞駛世界山莊",
    "Direction": 0,
    "Stops": [
      {
        "Name": "萬芳社區",
        "Lat": 25.001753,
        "Lon": 121.570457,
        "Sequence": 1,
        "StationID": "2491"
      },
      {
        "Name": "萬芳活動中心",
        "Lat": 25.002436,
        "Lon": 121.569474,
        "Sequence": 2,
        "StationID": "1000032"
      },
      {
        "Name": "萬芳派出所",
        "Lat": 25.001846895493077,
        "Lon": 121.56609661959216,
        "Sequence": 3,
        "StationID": "50052"
      },
      {
        "Name": "公務人員訓練處",
        "Lat": 25.0020353,
        "Lon": 121.5619947,
        "Sequence": 4,
        "StationID": "50051"
      },
      {
        "Name": "萬美社區",
        "Lat": 25.003346,
        "Lon": 121.563081,
        "Sequence": 5,
        "StationID": "1165604841"
      },
      {
        "Name": "萬芳國宅",
        "Lat": 25.003393,
        "Lon": 121.565624,
        "Sequence": 6,
        "StationID": "2495"
      },
      {
        "Name": "萬寧街",
        "Lat": 25.0031179,
        "Lon": 121.5705532,
        "Sequence": 7,
        "StationID": "2515"
      },
      {
        "Name": "萬寧山莊",
        "Lat": 25.0042437073135,
        "Lon": 121.570485304818,
        "Sequence": 8,
        "StationID": "50047"
      },
      {
        "Name": "名門社區",
        "Lat": 25.0051424040312,
        "Lon": 121.567813467771,
        "Sequence": 9,
        "StationID": "4161"
      },
      {
        "Name": "世界山莊(和平)",
        "Lat": 25.0070352,
        "Lon": 121.5657205,
        "Sequence": 10,
        "StationID": "1165610445"
      },
      {
        "Name": "大我新舍",
        "Lat": 25.0143745337282,
        "Lon": 121.562293962737,
        "Sequence": 11,
        "StationID": "2193"
      },
      {
        "Name": "麟光站",
        "Lat": 25.015923661863052,
        "Lon": 121.56085606375822,
        "Sequence": 12,
        "StationID": "6017"
      },
      {
        "Name": "黎忠市場",
        "Lat": 25.019475,
        "Lon": 121.557953,
        "Sequence": 13,
        "StationID": "6015"
      },
      {
        "Name": "富陽街口",
        "Lat": 25.021127,
        "Lon": 121.55616,
        "Sequence": 14,
        "StationID": "2160"
      },
      {
        "Name": "捷運六張犁站(和平)",
        "Lat": 25.022926,
        "Lon": 121.554225,
        "Sequence": 15,
        "StationID": "2147"
      },
      {
        "Name": "和平安和路口",
        "Lat": 25.02462276337447,
        "Lon": 121.55135072927436,
        "Sequence": 16,
        "StationID": "1165607095"
      },
      {
        "Name": "臥龍街",
        "Lat": 25.0247072352904,
        "Lon": 121.547497854598,
        "Sequence": 17,
        "StationID": "6020"
      },
      {
        "Name": "國立臺北教育大學",
        "Lat": 25.02482681,
        "Lon": 121.5448151,
        "Sequence": 18,
        "StationID": "2304"
      },
      {
        "Name": "復興南路口",
        "Lat": 25.0251035284638,
        "Lon": 121.542376119519,
        "Sequence": 19,
        "StationID": "6021"
      },
      {
        "Name": "國北教大實小",
        "Lat": 25.02532,
        "Lon": 121.54065,
        "Sequence": 20,
        "StationID": "2299"
      },
      {
        "Name": "龍門國中(和平)",
        "Lat": 25.0255275256686,
        "Lon": 121.539154243763,
        "Sequence": 21,
        "StationID": "3942"
      },
      {
        "Name": "大安森林公園",
        "Lat": 25.0259280472003,
        "Lon": 121.53631985296,
        "Sequence": 22,
        "StationID": "2192"
      },
      {
        "Name": "溫州街口",
        "Lat": 25.0263548162126,
        "Lon": 121.532693859225,
        "Sequence": 23,
        "StationID": "6024"
      },
      {
        "Name": "師大綜合大樓",
        "Lat": 25.026622,
        "Lon": 121.53006,
        "Sequence": 24,
        "StationID": "2292"
      },
      {
        "Name": "師大",
        "Lat": 25.026738138642,
        "Lon": 121.527713493878,
        "Sequence": 25,
        "StationID": "6025"
      },
      {
        "Name": "捷運古亭站(和平)",
        "Lat": 25.027172,
        "Lon": 121.523152,
        "Sequence": 26,
        "StationID": "6026"
      },
      {
        "Name": "羅斯福潮州街口",
        "Lat": 25.02922,
        "Lon": 121.52096,
        "Sequence": 27,
        "StationID": "1165606957"
      },
      {
        "Name": "捷運中正紀念堂站(羅斯福)",
        "Lat": 25.0322495874994,
        "Lon": 121.51880642264224,
        "Sequence": 28,
        "StationID": "1982"
      },
      {
        "Name": "捷運中正紀念堂站",
        "Lat": 25.034101183711,
        "Lon": 121.517358319526,
        "Sequence": 29,
        "StationID": "1984"
      },
      {
        "Name": "景福門",
        "Lat": 25.03787,
        "Lon": 121.51751,
        "Sequence": 30,
        "StationID": "2003"
      },
      {
        "Name": "臺大醫院",
        "Lat": 25.041403318287,
        "Lon": 121.5185552467,
        "Sequence": 31,
        "StationID": "1000087"
      },
      {
        "Name": "臺北車站(忠孝)",
        "Lat": 25.0465408,
        "Lon": 121.5167218,
        "Sequence": 32,
        "StationID": "1000082"
      },
      {
        "Name": "重慶南路一段",
        "Lat": 25.04441023077385,
        "Lon": 121.51311219241008,
        "Sequence": 33,
        "StationID": "1165604850"
      },
      {
        "Name": "二二八和平公園",
        "Lat": 25.0423685522993,
        "Lon": 121.512543916311,
        "Sequence": 34,
        "StationID": "1848"
      }
    ]
  },
  {
    "Route": "和平幹線",
    "SubRoute": "和平幹線繞駛世界山莊",
    "Direction": 1,
    "Stops": [
      {
        "Name": "博愛路",
        "Lat": 25.043262,
        "Lon": 121.511555,
        "Sequence": 1,
        "StationID": "2002"
      },
      {
        "Name": "臺北郵局",
        "Lat": 25.04676505924,
        "Lon": 121.51129364418,
        "Sequence": 2,
        "StationID": "1000108"
      },
      {
        "Name": "臺北車站(忠孝)",
        "Lat": 25.0468151658683,
        "Lon": 121.514521527226,
        "Sequence": 3,
        "StationID": "1888"
      },
      {
        "Name": "捷運善導寺站",
        "Lat": 25.044844,
        "Lon": 121.522629,
        "Sequence": 4,
        "StationID": "1997"
      },
      {
        "Name": "開南中學",
        "Lat": 25.04161112,
        "Lon": 121.522214,
        "Sequence": 5,
        "StationID": "2006"
      },
      {
        "Name": "仁愛林森路口",
        "Lat": 25.040352,
        "Lon": 121.521878540227,
        "Sequence": 6,
        "StationID": "1866"
      },
      {
        "Name": "捷運中正紀念堂站(羅斯福)",
        "Lat": 25.0309990709643,
        "Lon": 121.519393611622,
        "Sequence": 7,
        "StationID": "1987"
      },
      {
        "Name": "南昌家具街",
        "Lat": 25.0273649962157,
        "Lon": 121.520315080867,
        "Sequence": 8,
        "StationID": "1944"
      },
      {
        "Name": "捷運古亭站(和平)",
        "Lat": 25.02678744,
        "Lon": 121.5246159,
        "Sequence": 9,
        "StationID": "2311"
      },
      {
        "Name": "師大",
        "Lat": 25.02650071684031,
        "Lon": 121.5278634988405,
        "Sequence": 10,
        "StationID": "2289"
      },
      {
        "Name": "師大綜合大樓",
        "Lat": 25.026362,
        "Lon": 121.529958,
        "Sequence": 11,
        "StationID": "2291"
      },
      {
        "Name": "溫州街口",
        "Lat": 25.0260973914545,
        "Lon": 121.533012542409,
        "Sequence": 12,
        "StationID": "3914"
      },
      {
        "Name": "大安森林公園",
        "Lat": 25.0257355123764,
        "Lon": 121.536235879941,
        "Sequence": 13,
        "StationID": "2190"
      },
      {
        "Name": "龍門國中(和平)",
        "Lat": 25.0254072414078,
        "Lon": 121.538492198683,
        "Sequence": 14,
        "StationID": "2345"
      },
      {
        "Name": "復興南路口",
        "Lat": 25.0249140592421,
        "Lon": 121.542239793699,
        "Sequence": 15,
        "StationID": "2327"
      },
      {
        "Name": "國立臺北教育大學",
        "Lat": 25.0246033941802,
        "Lon": 121.545343325676,
        "Sequence": 16,
        "StationID": "2300"
      },
      {
        "Name": "臥龍街",
        "Lat": 25.024522,
        "Lon": 121.547571,
        "Sequence": 17,
        "StationID": "2267"
      },
      {
        "Name": "和平安和路口",
        "Lat": 25.0242726614044,
        "Lon": 121.550861893498,
        "Sequence": 18,
        "StationID": "2250"
      },
      {
        "Name": "捷運六張犁站(和平)",
        "Lat": 25.0232432826612,
        "Lon": 121.553534505165,
        "Sequence": 19,
        "StationID": "2146"
      },
      {
        "Name": "富陽街口",
        "Lat": 25.0210340657202,
        "Lon": 121.555910878022,
        "Sequence": 20,
        "StationID": "2085"
      },
      {
        "Name": "黎忠市場",
        "Lat": 25.01926083,
        "Lon": 121.5578044,
        "Sequence": 21,
        "StationID": "2172"
      },
      {
        "Name": "捷運麟光站",
        "Lat": 25.01825,
        "Lon": 121.55853,
        "Sequence": 22,
        "StationID": "2157"
      },
      {
        "Name": "麟光站",
        "Lat": 25.015473,
        "Lon": 121.561041,
        "Sequence": 23,
        "StationID": "2182"
      },
      {
        "Name": "大我新舍",
        "Lat": 25.0138741581322,
        "Lon": 121.562466432938,
        "Sequence": 24,
        "StationID": "2194"
      },
      {
        "Name": "世界山莊(和平)",
        "Lat": 25.00736182,
        "Lon": 121.5650733,
        "Sequence": 25,
        "StationID": "1165610446"
      },
      {
        "Name": "名門社區",
        "Lat": 25.0052162792279,
        "Lon": 121.567502036596,
        "Sequence": 26,
        "StationID": "2076"
      },
      {
        "Name": "萬寧山莊",
        "Lat": 25.0041631244417,
        "Lon": 121.570371684081,
        "Sequence": 27,
        "StationID": "2514"
      },
      {
        "Name": "萬寧街",
        "Lat": 25.0032053525918,
        "Lon": 121.570571682464,
        "Sequence": 28,
        "StationID": "1000089"
      },
      {
        "Name": "萬芳國宅",
        "Lat": 25.003405,
        "Lon": 121.565052,
        "Sequence": 29,
        "StationID": "50048"
      },
      {
        "Name": "萬美社區",
        "Lat": 25.003405,
        "Lon": 121.563084,
        "Sequence": 30,
        "StationID": "1165604842"
      },
      {
        "Name": "公務人員訓練處",
        "Lat": 25.0018116822751,
        "Lon": 121.562127594784,
        "Sequence": 31,
        "StationID": "2373"
      },
      {
        "Name": "萬芳派出所",
        "Lat": 25.0017624091424,
        "Lon": 121.566256708836,
        "Sequence": 32,
        "StationID": "2492"
      },
      {
        "Name": "萬芳活動中心",
        "Lat": 25.002391659383,
        "Lon": 121.568378960175,
        "Sequence": 33,
        "StationID": "2493"
      },
      {
        "Name": "萬芳社區",
        "Lat": 25.0022533526966,
        "Lon": 121.569815966856,
        "Sequence": 34,
        "StationID": "2490"
      }
    ]
  }
]