[
  {
    "Route": "小23",
    "SubRoute": "小23",
    "Direction": 0,
    "Stops": [
      {
        "Name": "關渡碼頭",
        "Lat": 25.1203823064406,
        "Lon": 121.462280110886,
        "Sequence": 1,
        "StationID": "553"
      },
      {
        "Name": "關渡宮",
        "Lat": 25.1178447660379,
        "Lon": 121.465117210312,
        "Sequence": 2,
        "StationID": "1000707"
      },
      {
        "Name": "敬老院",
        "Lat": 25.1187984003072,
        "Lon": 121.466052497879,
        "Sequence": 3,
        "StationID": "14633"
      },
      {
        "Name": "關渡自然公園",
        "Lat": 25.1195786700755,
        "Lon": 121.469234896017,
        "Sequence": 4,
        "StationID": "14634"
      },
      {
        "Name": "關渡國中(關渡醫院)",
        "Lat": 25.120418,
        "Lon": 121.467189,
        "Sequence": 5,
        "StationID": "550"
      },
      {
        "Name": "關渡里",
        "Lat": 25.1223858553805,
        "Lon": 121.467238214885,
        "Sequence": 6,
        "StationID": "14636"
      },
      {
        "Name": "捷運關渡站",
        "Lat": 25.125124,
        "Lon": 121.467024,
        "Sequence": 7,
        "StationID": "70056"
      },
      {
        "Name": "北投區公所(關渡)",
        "Lat": 25.12472749,
        "Lon": 121.4680203,
        "Sequence": 8,
        "StationID": "1165610422"
      },
      {
        "Name": "立功街",
        "Lat": 25.12451676,
        "Lon": 121.4689301,
        "Sequence": 9,
        "StationID": "1165610423"
      },
      {
        "Name": "關渡",
        "Lat": 25.12395,
        "Lon": 121.46473,
        "Sequence": 10,
        "StationID": "14638"
      },
      {
        "Name": "竹圍國小自強分校",
        "Lat": 25.12566203,
        "Lon": 121.4642237,
        "Sequence": 11,
        "StationID": "1000710"
      },
      {
        "Name": "淡水農會自強分會",
        "Lat": 25.126778,
        "Lon": 121.463546,
        "Sequence": 12,
        "StationID": "14647"
      },
      {
        "Name": "關渡我家",
        "Lat": 25.12753327,
        "Lon": 121.46315,
        "Sequence": 13,
        "StationID": "4870"
      },
      {
        "Name": "老莊大廈",
        "Lat": 25.129433,
        "Lon": 121.462196,
        "Sequence": 14,
        "StationID": "14646"
      },
      {
        "Name": "臺北基督學院",
        "Lat": 25.13115808,
        "Lon": 121.4617327,
        "Sequence": 15,
        "StationID": "14643"
      },
      {
        "Name": "擎天大樓",
        "Lat": 25.1325146885381,
        "Lon": 121.463696506855,
        "Sequence": 16,
        "StationID": "1165603258"
      },
      {
        "Name": "新天母社區",
        "Lat": 25.13400782,
        "Lon": 121.4654243,
        "Sequence": 17,
        "StationID": "14645"
      },
      {
        "Name": "擎天大樓",
        "Lat": 25.13281,
        "Lon": 121.46378,
        "Sequence": 18,
        "StationID": "14644"
      },
      {
        "Name": "臺北基督學院",
        "Lat": 25.1311939917476,
        "Lon": 121.461640887812,
        "Sequence": 19,
        "StationID": "3840"
      },
      {
        "Name": "老莊大廈",
        "Lat": 25.12920101,
        "Lon": 121.4620476,
        "Sequence": 20,
        "StationID": "4868"
      },
      {
        "Name": "富升大廈",
        "Lat": 25.129311,
        "Lon": 121.462606,
        "Sequence": 21,
        "StationID": "3849"
      },
      {
        "Name": "長虹天下",
        "Lat": 25.128854,
        "Lon": 121.463305,
        "Sequence": 22,
        "StationID": "14642"
      },
      {
        "Name": "利陽藝術學苑",
        "Lat": 25.127442,
        "Lon": 121.464545,
        "Sequence": 23,
        "StationID": "4871"
      },
      {
        "Name": "關渡國小(臺北城市科技大學)",
        "Lat": 25.1268926040896,
        "Lon": 121.466372780603,
        "Sequence": 24,
        "StationID": "548"
      },
      {
        "Name": "一德街口",
        "Lat": 25.1283184382016,
        "Lon": 121.46878900446,
        "Sequence": 25,
        "StationID": "3972"
      },
      {
        "Name": "和信醫院",
        "Lat": 25.1297678333065,
        "Lon": 121.471449088636,
        "Sequence": 26,
        "StationID": "3971"
      },
      {
        "Name": "捷運忠義站",
        "Lat": 25.1313688133648,
        "Lon": 121.473445688734,
        "Sequence": 27,
        "StationID": "3970"
      },
      {
        "Name": "中央北路",
        "Lat": 25.1326768057341,
        "Lon": 121.4750896208,
        "Sequence": 28,
        "StationID": "3969"
      },
      {
        "Name": "桃源國中",
        "Lat": 25.13408,
        "Lon": 121.476927,
        "Sequence": 29,
        "StationID": "7235"
      },
      {
        "Name": "行天宮北投分宮忠義站",
        "Lat": 25.13511,
        "Lon": 121.47853,
        "Sequence": 30,
        "StationID": "3967"
      },
      {
        "Name": "中央北路三段",
        "Lat": 25.1368858501904,
        "Lon": 121.48193288446,
        "Sequence": 31,
        "StationID": "3966"
      },
      {
        "Name": "捷運復興崗站",
        "Lat": 25.138009138037,
        "Lon": 121.48494894973,
        "Sequence": 32,
        "StationID": "3965"
      },
      {
        "Name": "製片廠",
        "Lat": 25.138191,
        "Lon": 121.4875,
        "Sequence": 33,
        "StationID": "503"
      },
      {
        "Name": "豐年郵局",
        "Lat": 25.13839,
        "Lon": 121.48925,
        "Sequence": 34,
        "StationID": "1165610469"
      },
      {
        "Name": "復興崗",
        "Lat": 25.13807076,
        "Lon": 121.4923517,
        "Sequence": 35,
        "StationID": "416"
      },
      {
        "Name": "文化國小",
        "Lat": 25.1366901,
        "Lon": 121.4957248,
        "Sequence": 36,
        "StationID": "90"
      },
      {
        "Name": "大業中央北路口",
        "Lat": 25.135605,
        "Lon": 121.498029,
        "Sequence": 37,
        "StationID": "50062"
      },
      {
        "Name": "北投國小",
        "Lat": 25.13384543,
        "Lon": 121.5007209,
        "Sequence": 38,
        "StationID": "120"
      }
    ]
  },
  {
    "Route": "小23",
    "SubRoute": "小23",
    "Direction": 1,
    "Stops": [
      {
        "Name": "北投國小",
        "Lat": 25.13361526,
        "Lon": 121.50136,
        "Sequence": 1,
        "StationID": "50057"
      },
      {
        "Name": "大業中央北路口",
        "Lat": 25.13580742,
        "Lon": 121.4978915,
        "Sequence": 2,
        "StationID": "36"
      },
      {
        "Name": "文化國小",
        "Lat": 25.13690086,
        "Lon": 121.4955289,
        "Sequence": 3,
        "StationID": "3962"
      },
      {
        "Name": "復興崗",
        "Lat": 25.13812,
        "Lon": 121.4926,
        "Sequence": 4,
        "StationID": "3963"
      },
      {
        "Name": "製片廠",
        "Lat": 25.1384813245468,
        "Lon": 121.488,
        "Sequence": 5,
        "StationID": "3964"
      },
      {
        "Name": "捷運復興崗站",
        "Lat": 25.138268490176,
        "Lon": 121.485,
        "Sequence": 6,
        "StationID": "390"
      },
      {
        "Name": "中央北路三段",
        "Lat": 25.1370484098258,
        "Lon": 121.482299756251,
        "Sequence": 7,
        "StationID": "53"
      },
      {
        "Name": "行天宮北投分宮忠義站",
        "Lat": 25.13528,
        "Lon": 121.47841,
        "Sequence": 8,
        "StationID": "221"
      },
      {
        "Name": "桃源國中",
        "Lat": 25.134208,
        "Lon": 121.47679,
        "Sequence": 9,
        "StationID": "319"
      },
      {
        "Name": "中央北路",
        "Lat": 25.1328676139155,
        "Lon": 121.475216087313,
        "Sequence": 10,
        "StationID": "52"
      },
      {
        "Name": "捷運忠義站",
        "Lat": 25.1309842410201,
        "Lon": 121.472841990732,
        "Sequence": 11,
        "StationID": "373"
      },
      {
        "Name": "和信醫院",
        "Lat": 25.1299720368887,
        "Lon": 121.471581488549,
        "Sequence": 12,
        "StationID": "210"
      },
      {
        "Name": "一德街口",
        "Lat": 25.1283916021179,
        "Lon": 121.46876311032,
        "Sequence": 13,
        "StationID": "199"
      },
      {
        "Name": "關渡國小(臺北城市科技大學)",
        "Lat": 25.127279761103,
        "Lon": 121.466749861173,
        "Sequence": 14,
        "StationID": "3973"
      },
      {
        "Name": "利陽藝術學苑",
        "Lat": 25.12722121,
        "Lon": 121.4646733,
        "Sequence": 15,
        "StationID": "4872"
      },
      {
        "Name": "長虹天下",
        "Lat": 25.128923,
        "Lon": 121.463436,
        "Sequence": 16,
        "StationID": "3836"
      },
      {
        "Name": "富升大廈",
        "Lat": 25.129591,
        "Lon": 121.462764,
        "Sequence": 17,
        "StationID": "4867"
      },
      {
        "Name": "老莊大廈",
        "Lat": 25.129433,
        "Lon": 121.462196,
        "Sequence": 18,
        "StationID": "14646"
      },
      {
        "Name": "臺北基督學院",
        "Lat": 25.13115808,
        "Lon": 121.4617327,
        "Sequence": 19,
        "StationID": "14643"
      },
      {
        "Name": "擎天大樓",
        "Lat": 25.1325146885381,
        "Lon": 121.463696506855,
        "Sequence": 20,
        "StationID": "1165603258"
      },
      {
        "Name": "新天母社區",
        "Lat": 25.13411542,
        "Lon": 121.465314,
        "Sequence": 21,
        "StationID": "1165603257"
      },
      {
        "Name": "擎天大樓",
        "Lat": 25.13281,
        "Lon": 121.46378,
        "Sequence": 22,
        "StationID": "14644"
      },
      {
        "Name": "臺北基督學院",
        "Lat": 25.131288,
        "Lon": 121.461673,
        "Sequence": 23,
        "StationID": "3840"
      },
      {
        "Name": "老莊大廈",
        "Lat": 25.12920101,
        "Lon": 121.4620476,
        "Sequence": 24,
        "StationID": "4868"
      },
      {
        "Name": "關渡我家",
        "Lat": 25.12751755,
        "Lon": 121.4629186,
        "Sequence": 25,
        "StationID": "4869"
      },
      {
        "Name": "淡水農會自強分會",
        "Lat": 25.12632,
        "Lon": 121.46368,
        "Sequence": 26,
        "StationID": "2369"
      },
      {
        "Name": "竹圍國小自強分校",
        "Lat": 25.12544,
        "Lon": 121.46421,
        "Sequence": 27,
        "StationID": "5072"
      },
      {
        "Name": "捷運關渡站",
        "Lat": 25.125124,
        "Lon": 121.467024,
        "Sequence": 28,
        "StationID": "70056"
      },
      {
        "Name": "關渡里",
        "Lat": 25.12271001,
        "Lon": 121.466867,
        "Sequence": 29,
        "StationID": "545"
      },
      {
        "Name": "關渡國中(關渡醫院)",
        "Lat": 25.12142099,
        "Lon": 121.4672967,
        "Sequence": 30,
        "StationID": "4866"
      },
      {
        "Name": "關渡自然公園",
        "Lat": 25.1196386095939,
        "Lon": 121.469040088878,
        "Sequence": 31,
        "StationID": "544"
      },
      {
        "Name": "敬老院",
        "Lat": 25.11934571,
        "Lon": 121.4664182,
        "Sequence": 32,
        "StationID": "459"
      },
      {
        "Name": "關渡宮",
        "Lat": 25.118617,
        "Lon": 121.465497,
        "Sequence": 33,
        "StationID": "547"
      },
      {
        "Name": "關渡碼頭",
        "Lat": 25.1203823064406,
        "Lon": 121.462280110886,
        "Sequence": 34,
        "StationID": "553"
      }
    ]
  },
  {
    "Route": "小23",
    "SubRoute": "小23假日區間",
    "Direction": 0,
    "Stops": [
      {
        "Name": "關渡碼頭",
        "Lat": 25.1203823064406,
        "Lon": 121.462280110886,
        "Sequence": 1,
        "StationID": "553"
      },
      {
        "Name": "捷運關渡站",
        "Lat": 25.125124,
        "Lon": 121.467024,
        "Sequence": 2,
        "StationID": "70056"
      }
    ]
  },
  {
    "Route": "小23",
    "SubRoute": "小23假日區間",
    "Direction": 1,
    "Stops": [
      {
        "Name": "關渡碼頭",
        "Lat": 25.1203823064406,
        "Lon": 121.462280110886,
        "Sequence": 1,
        "StationID": "553"
      }
    ]
  }
]