[
  {
    "Route": "284",
    "SubRoute": "284",
    "Direction": 0,
    "Stops": [
      {
        "Name": "福德二路",
        "Lat": 25.06383,
        "Lon": 121.62598,
        "Sequence": 1,
        "StationID": "1165603231"
      },
      {
        "Name": "泛碟科技",
        "Lat": 25.061017,
        "Lon": 121.628202,
        "Sequence": 2,
        "StationID": "7647"
      },
      {
        "Name": "大樹木業",
        "Lat": 25.06231655,
        "Lon": 121.630044,
        "Sequence": 3,
        "StationID": "7648"
      },
      {
        "Name": "北峰國小",
        "Lat": 25.06338,
        "Lon": 121.63165,
        "Sequence": 4,
        "StationID": "6753"
      },
      {
        "Name": "世電社區",
        "Lat": 25.0660033327685,
        "Lon": 121.631401137544,
        "Sequence": 5,
        "StationID": "7619"
      },
      {
        "Name": "北峰里(康寧街)",
        "Lat": 25.067787,
        "Lon": 121.628825,
        "Sequence": 6,
        "StationID": "7643"
      },
      {
        "Name": "金龍國小(康寧街)",
        "Lat": 25.067368167607,
        "Lon": 121.626867537731,
        "Sequence": 7,
        "StationID": "2777"
      },
      {
        "Name": "木南煤礦",
        "Lat": 25.067032,
        "Lon": 121.62487,
        "Sequence": 8,
        "StationID": "2725"
      },
      {
        "Name": "經貿園區",
        "Lat": 25.0666228369498,
        "Lon": 121.621242309823,
        "Sequence": 9,
        "StationID": "2799"
      },
      {
        "Name": "北山里",
        "Lat": 25.06680801,
        "Lon": 121.6188199,
        "Sequence": 10,
        "StationID": "2730"
      },
      {
        "Name": "東湖國小",
        "Lat": 25.068177,
        "Lon": 121.61668,
        "Sequence": 11,
        "StationID": "8531"
      },
      {
        "Name": "五分社區",
        "Lat": 25.068763284981,
        "Lon": 121.614308439756,
        "Sequence": 12,
        "StationID": "5441"
      },
      {
        "Name": "明湖國中",
        "Lat": 25.0702607638519,
        "Lon": 121.611642249953,
        "Sequence": 13,
        "StationID": "8534"
      },
      {
        "Name": "明湖國小(公共電視台)",
        "Lat": 25.0718101504888,
        "Lon": 121.609308386226,
        "Sequence": 14,
        "StationID": "50442"
      },
      {
        "Name": "捷運葫洲站(康寧大學)",
        "Lat": 25.0726213066526,
        "Lon": 121.607610913193,
        "Sequence": 15,
        "StationID": "1165606697"
      },
      {
        "Name": "康寧醫院",
        "Lat": 25.07543061,
        "Lon": 121.6072451,
        "Sequence": 16,
        "StationID": "8629"
      },
      {
        "Name": "黃石公廟",
        "Lat": 25.078107,
        "Lon": 121.607197,
        "Sequence": 17,
        "StationID": "1118"
      },
      {
        "Name": "大湖公園",
        "Lat": 25.08303681690925,
        "Lon": 121.60525229995443,
        "Sequence": 18,
        "StationID": "50448"
      },
      {
        "Name": "捷運大湖公園站",
        "Lat": 25.08373507,
        "Lon": 121.6025457,
        "Sequence": 19,
        "StationID": "3997"
      },
      {
        "Name": "大湖",
        "Lat": 25.08478664,
        "Lon": 121.6000154,
        "Sequence": 20,
        "StationID": "974"
      },
      {
        "Name": "金龍里",
        "Lat": 25.0845601194501,
        "Lon": 121.59638478301,
        "Sequence": 21,
        "StationID": "1000737"
      },
      {
        "Name": "捷運內湖站",
        "Lat": 25.0834615421604,
        "Lon": 121.593879114086,
        "Sequence": 22,
        "StationID": "1071"
      },
      {
        "Name": "湖光市場",
        "Lat": 25.081779319488682,
        "Lon": 121.59179366923021,
        "Sequence": 23,
        "StationID": "1103"
      },
      {
        "Name": "成功路三段",
        "Lat": 25.0798544258006,
        "Lon": 121.589838083526,
        "Sequence": 24,
        "StationID": "1029"
      },
      {
        "Name": "方濟中學",
        "Lat": 25.076435413204408,
        "Lon": 121.59007719697958,
        "Sequence": 25,
        "StationID": "1012"
      },
      {
        "Name": "將軍嶺",
        "Lat": 25.073372,
        "Lon": 121.58972,
        "Sequence": 26,
        "StationID": "50501"
      },
      {
        "Name": "三總內湖站",
        "Lat": 25.071852,
        "Lon": 121.592095,
        "Sequence": 27,
        "StationID": "980"
      },
      {
        "Name": "國防醫學中心",
        "Lat": 25.0710371489715,
        "Lon": 121.589869957803,
        "Sequence": 28,
        "StationID": "1080"
      },
      {
        "Name": "湖興",
        "Lat": 25.0680308659982,
        "Lon": 121.590661157725,
        "Sequence": 29,
        "StationID": "1107"
      },
      {
        "Name": "上灣仔",
        "Lat": 25.0670002134225,
        "Lon": 121.590521443523,
        "Sequence": 30,
        "StationID": "985"
      },
      {
        "Name": "成功路二段(交流道)",
        "Lat": 25.06290258,
        "Lon": 121.5907021,
        "Sequence": 31,
        "StationID": "1165610511"
      },
      {
        "Name": "石潭公園(成功)",
        "Lat": 25.061041,
        "Lon": 121.591015,
        "Sequence": 32,
        "StationID": "50433"
      },
      {
        "Name": "南港分局(向陽)",
        "Lat": 25.05574836,
        "Lon": 121.5937887,
        "Sequence": 33,
        "StationID": "1647"
      },
      {
        "Name": "南港高中",
        "Lat": 25.0530195,
        "Lon": 121.5949802,
        "Sequence": 34,
        "StationID": "1000314"
      },
      {
        "Name": "捷運昆陽站",
        "Lat": 25.050346,
        "Lon": 121.593165,
        "Sequence": 35,
        "StationID": "1697"
      },
      {
        "Name": "陸軍後勤指揮部",
        "Lat": 25.04983,
        "Lon": 121.59077,
        "Sequence": 36,
        "StationID": "3923"
      },
      {
        "Name": "國華新村",
        "Lat": 25.04908468,
        "Lon": 121.5878431,
        "Sequence": 37,
        "StationID": "3924"
      },
      {
        "Name": "聯合醫院忠孝院區",
        "Lat": 25.0475212158758,
        "Lon": 121.584229738588,
        "Sequence": 38,
        "StationID": "4086"
      },
      {
        "Name": "捷運後山埤站(永吉)",
        "Lat": 25.0454545120215,
        "Lon": 121.58172282754578,
        "Sequence": 39,
        "StationID": "1000316"
      },
      {
        "Name": "五分埔商圈(中坡北)",
        "Lat": 25.047232,
        "Lon": 121.58077,
        "Sequence": 40,
        "StationID": "1000123"
      },
      {
        "Name": "松山車站(松隆)",
        "Lat": 25.048258672854057,
        "Lon": 121.57890868194112,
        "Sequence": 41,
        "StationID": "2092"
      },
      {
        "Name": "松山車站(松山)",
        "Lat": 25.047159,
        "Lon": 121.577685,
        "Sequence": 42,
        "StationID": "2093"
      },
      {
        "Name": "永吉松山路口",
        "Lat": 25.0448632717332,
        "Lon": 121.577690522404,
        "Sequence": 43,
        "StationID": "4091"
      },
      {
        "Name": "捷運永春站(松山)",
        "Lat": 25.041936,
        "Lon": 121.577654,
        "Sequence": 44,
        "StationID": "2060"
      },
      {
        "Name": "捷運永春站(忠孝)",
        "Lat": 25.040967,
        "Lon": 121.575743,
        "Sequence": 45,
        "StationID": "3927"
      },
      {
        "Name": "市立工農",
        "Lat": 25.04110667625752,
        "Lon": 121.57227674964417,
        "Sequence": 46,
        "StationID": "3928"
      },
      {
        "Name": "消防局(松仁)",
        "Lat": 25.038604,
        "Lon": 121.568284,
        "Sequence": 47,
        "StationID": "1165604593"
      },
      {
        "Name": "興雅國中",
        "Lat": 25.0372323905063,
        "Lon": 121.568268559011,
        "Sequence": 48,
        "StationID": "2179"
      },
      {
        "Name": "松壽路口",
        "Lat": 25.0358810435418,
        "Lon": 121.566640146973,
        "Sequence": 49,
        "StationID": "2070"
      },
      {
        "Name": "市政府(松壽)",
        "Lat": 25.035992,
        "Lon": 121.564528,
        "Sequence": 50,
        "StationID": "2067"
      },
      {
        "Name": "世貿中心(基隆路)",
        "Lat": 25.03361852334641,
        "Lon": 121.55974066645364,
        "Sequence": 51,
        "StationID": "2046"
      },
      {
        "Name": "吳興街口",
        "Lat": 25.03159406,
        "Lon": 121.5586001,
        "Sequence": 52,
        "StationID": "1000294"
      },
      {
        "Name": "三興國小(臨江街觀光夜市)",
        "Lat": 25.028215,
        "Lon": 121.556522,
        "Sequence": 53,
        "StationID": "1000295"
      },
      {
        "Name": "喬治商職",
        "Lat": 25.02633063,
        "Lon": 121.5546403,
        "Sequence": 54,
        "StationID": "7009"
      },
      {
        "Name": "和平安和路口",
        "Lat": 25.02462276337447,
        "Lon": 121.55135072927436,
        "Sequence": 55,
        "StationID": "1165607095"
      },
      {
        "Name": "臥龍街",
        "Lat": 25.0247072352904,
        "Lon": 121.547497854598,
        "Sequence": 56,
        "StationID": "6020"
      },
      {
        "Name": "國立臺北教育大學",
        "Lat": 25.02482681,
        "Lon": 121.5448151,
        "Sequence": 57,
        "StationID": "2304"
      },
      {
        "Name": "復興南路口",
        "Lat": 25.0251035284638,
        "Lon": 121.542376119519,
        "Sequence": 58,
        "StationID": "6021"
      },
      {
        "Name": "國北教大實小",
        "Lat": 25.02532,
        "Lon": 121.54065,
        "Sequence": 59,
        "StationID": "2299"
      },
      {
        "Name": "龍門國中(和平)",
        "Lat": 25.0255275256686,
        "Lon": 121.539154243763,
        "Sequence": 60,
        "StationID": "3942"
      },
      {
        "Name": "龍安國小(公務人力發展學院)",
        "Lat": 25.02466421,
        "Lon": 121.5345198,
        "Sequence": 61,
        "StationID": "2344"
      },
      {
        "Name": "臺大綜合體育館",
        "Lat": 25.0215502113013,
        "Lon": 121.534113646475,
        "Sequence": 62,
        "StationID": "2199"
      },
      {
        "Name": "臺大",
        "Lat": 25.018246284477,
        "Lon": 121.533425339383,
        "Sequence": 63,
        "StationID": "2224"
      },
      {
        "Name": "捷運公館站",
        "Lat": 25.014321,
        "Lon": 121.534722,
        "Sequence": 64,
        "StationID": "1991"
      },
      {
        "Name": "師大分部",
        "Lat": 25.0081406778406,
        "Lon": 121.538064047069,
        "Sequence": 65,
        "StationID": "2430"
      },
      {
        "Name": "武功國小(興隆)",
        "Lat": 25.004134202331223,
        "Lon": 121.53985642693925,
        "Sequence": 66,
        "StationID": "2413"
      },
      {
        "Name": "景明街口",
        "Lat": 25.0014489083498,
        "Lon": 121.542377053436,
        "Sequence": 67,
        "StationID": "2458"
      },
      {
        "Name": "憲光公寓",
        "Lat": 24.9994337628866,
        "Lon": 121.54389161859,
        "Sequence": 68,
        "StationID": "1000232"
      },
      {
        "Name": "景興國中",
        "Lat": 24.9972142117661,
        "Lon": 121.544575703262,
        "Sequence": 69,
        "StationID": "57706"
      }
    ]
  },
  {
    "Route": "284",
    "SubRoute": "284",
    "Direction": 1,
    "Stops": [
      {
        "Name": "景華公園",
        "Lat": 24.99482216,
        "Lon": 121.5445573,
        "Sequence": 1,
        "StationID": "2465"
      },
      {
        "Name": "景美國中",
        "Lat": 24.992992,
        "Lon": 121.5426452,
        "Sequence": 2,
        "StationID": "57707"
      },
      {
        "Name": "財政園區",
        "Lat": 24.99545268,
        "Lon": 121.5413365,
        "Sequence": 3,
        "StationID": "1000808"
      },
      {
        "Name": "萬隆",
        "Lat": 24.99931624,
        "Lon": 121.5402001,
        "Sequence": 4,
        "StationID": "1000234"
      },
      {
        "Name": "捷運萬隆站",
        "Lat": 25.00136317,
        "Lon": 121.5393892,
        "Sequence": 5,
        "StationID": "1000235"
      },
      {
        "Name": "武功國小(羅斯福)",
        "Lat": 25.00327364,
        "Lon": 121.5387822,
        "Sequence": 6,
        "StationID": "244"
      },
      {
        "Name": "師大分部",
        "Lat": 25.0076706783786,
        "Lon": 121.538470307254,
        "Sequence": 7,
        "StationID": "1000036"
      },
      {
        "Name": "捷運公館站",
        "Lat": 25.013993,
        "Lon": 121.535185,
        "Sequence": 8,
        "StationID": "1990"
      },
      {
        "Name": "臺大",
        "Lat": 25.01800299,
        "Lon": 121.5337036,
        "Sequence": 9,
        "StationID": "6667"
      },
      {
        "Name": "臺大綜合體育館",
        "Lat": 25.0214053337175,
        "Lon": 121.534388191196,
        "Sequence": 10,
        "StationID": "2197"
      },
      {
        "Name": "龍安國小(公務人力發展學院)",
        "Lat": 25.02527096,
        "Lon": 121.5349231,
        "Sequence": 11,
        "StationID": "2255"
      },
      {
        "Name": "大安森林公園",
        "Lat": 25.0257355123764,
        "Lon": 121.536235879941,
        "Sequence": 12,
        "StationID": "2190"
      },
      {
        "Name": "龍門國中(和平)",
        "Lat": 25.0254072414078,
        "Lon": 121.538492198683,
        "Sequence": 13,
        "StationID": "2345"
      },
      {
        "Name": "復興南路口",
        "Lat": 25.0249140592421,
        "Lon": 121.542239793699,
        "Sequence": 14,
        "StationID": "2327"
      },
      {
        "Name": "國立臺北教育大學",
        "Lat": 25.0246033941802,
        "Lon": 121.545343325676,
        "Sequence": 15,
        "StationID": "2300"
      },
      {
        "Name": "臥龍街",
        "Lat": 25.024522,
        "Lon": 121.547571,
        "Sequence": 16,
        "StationID": "2267"
      },
      {
        "Name": "和平安和路口",
        "Lat": 25.0242726614044,
        "Lon": 121.550861893498,
        "Sequence": 17,
        "StationID": "2250"
      },
      {
        "Name": "喬治商職",
        "Lat": 25.02628003,
        "Lon": 121.5549231,
        "Sequence": 18,
        "StationID": "2159"
      },
      {
        "Name": "三興國小(臨江街觀光夜市)",
        "Lat": 25.028593,
        "Lon": 121.557084,
        "Sequence": 19,
        "StationID": "2035"
      },
      {
        "Name": "吳興街口",
        "Lat": 25.03159637,
        "Lon": 121.5588464,
        "Sequence": 20,
        "StationID": "2080"
      },
      {
        "Name": "世貿中心(基隆路)",
        "Lat": 25.0336777,
        "Lon": 121.5601565,
        "Sequence": 21,
        "StationID": "15120"
      },
      {
        "Name": "市政府(松壽)",
        "Lat": 25.0358368102123,
        "Lon": 121.564893286779,
        "Sequence": 22,
        "StationID": "2069"
      },
      {
        "Name": "松壽路口",
        "Lat": 25.0357841121602,
        "Lon": 121.567407790567,
        "Sequence": 23,
        "StationID": "2105"
      },
      {
        "Name": "興雅國中",
        "Lat": 25.03724,
        "Lon": 121.568534,
        "Sequence": 24,
        "StationID": "2178"
      },
      {
        "Name": "消防局(松仁)",
        "Lat": 25.039991,
        "Lon": 121.568621,
        "Sequence": 25,
        "StationID": "2139"
      },
      {
        "Name": "市立工農",
        "Lat": 25.04085411,
        "Lon": 121.5726502,
        "Sequence": 26,
        "StationID": "2055"
      },
      {
        "Name": "捷運永春站(忠孝)",
        "Lat": 25.040733,
        "Lon": 121.575809,
        "Sequence": 27,
        "StationID": "2153"
      },
      {
        "Name": "捷運永春站(松山)",
        "Lat": 25.04195027,
        "Lon": 121.5778998,
        "Sequence": 28,
        "StationID": "15116"
      },
      {
        "Name": "雙永國小",
        "Lat": 25.0435588382657,
        "Lon": 121.577918664208,
        "Sequence": 29,
        "StationID": "15115"
      },
      {
        "Name": "永吉松山路口",
        "Lat": 25.0450053957754,
        "Lon": 121.577906954135,
        "Sequence": 30,
        "StationID": "15114"
      },
      {
        "Name": "松山車站(松山)",
        "Lat": 25.04726924,
        "Lon": 121.5779129,
        "Sequence": 31,
        "StationID": "15113"
      },
      {
        "Name": "五分埔商圈(中坡北)",
        "Lat": 25.04799,
        "Lon": 121.58003,
        "Sequence": 32,
        "StationID": "2038"
      },
      {
        "Name": "捷運後山埤站(永吉)",
        "Lat": 25.04523472781,
        "Lon": 121.581945222038,
        "Sequence": 33,
        "StationID": "2155"
      },
      {
        "Name": "聯合醫院忠孝院區",
        "Lat": 25.048227,
        "Lon": 121.585736,
        "Sequence": 34,
        "StationID": "1716"
      },
      {
        "Name": "國華新村",
        "Lat": 25.0488726204446,
        "Lon": 121.587873523899,
        "Sequence": 35,
        "StationID": "1696"
      },
      {
        "Name": "陸軍後勤指揮部",
        "Lat": 25.04964,
        "Lon": 121.59096,
        "Sequence": 36,
        "StationID": "1719"
      },
      {
        "Name": "捷運昆陽站",
        "Lat": 25.050052,
        "Lon": 121.59306,
        "Sequence": 37,
        "StationID": "1165604773"
      },
      {
        "Name": "南港高中",
        "Lat": 25.0529513842885,
        "Lon": 121.595233108141,
        "Sequence": 38,
        "StationID": "1000319"
      },
      {
        "Name": "南港分局(向陽)",
        "Lat": 25.0553345135907,
        "Lon": 121.594415258716,
        "Sequence": 39,
        "StationID": "1646"
      },
      {
        "Name": "石潭公園(成功)",
        "Lat": 25.061289,
        "Lon": 121.591281,
        "Sequence": 40,
        "StationID": "50434"
      },
      {
        "Name": "成功路二段(交流道)",
        "Lat": 25.0646545,
        "Lon": 121.5910436,
        "Sequence": 41,
        "StationID": "1165610510"
      },
      {
        "Name": "上灣仔",
        "Lat": 25.066818699184,
        "Lon": 121.590714855835,
        "Sequence": 42,
        "StationID": "8663"
      },
      {
        "Name": "湖興",
        "Lat": 25.067861865327,
        "Lon": 121.59085370773,
        "Sequence": 43,
        "StationID": "8664"
      },
      {
        "Name": "國防醫學中心",
        "Lat": 25.0712104683315,
        "Lon": 121.590031196316,
        "Sequence": 44,
        "StationID": "339"
      },
      {
        "Name": "三總內湖站",
        "Lat": 25.071852,
        "Lon": 121.592095,
        "Sequence": 45,
        "StationID": "8677"
      },
      {
        "Name": "將軍嶺",
        "Lat": 25.0738091792986,
        "Lon": 121.590016770287,
        "Sequence": 46,
        "StationID": "50500"
      },
      {
        "Name": "方濟中學",
        "Lat": 25.0768845629687,
        "Lon": 121.590231346227,
        "Sequence": 47,
        "StationID": "3996"
      },
      {
        "Name": "成功路三段",
        "Lat": 25.0796177267452,
        "Lon": 121.589939880159,
        "Sequence": 48,
        "StationID": "8520"
      },
      {
        "Name": "湖光市場",
        "Lat": 25.0816997666211,
        "Lon": 121.59200882874,
        "Sequence": 49,
        "StationID": "8537"
      },
      {
        "Name": "捷運內湖站",
        "Lat": 25.08334,
        "Lon": 121.594132,
        "Sequence": 50,
        "StationID": "8538"
      },
      {
        "Name": "秀湖",
        "Lat": 25.08456,
        "Lon": 121.59841,
        "Sequence": 51,
        "StationID": "1000732"
      },
      {
        "Name": "大湖",
        "Lat": 25.08453,
        "Lon": 121.600182,
        "Sequence": 52,
        "StationID": "968"
      },
      {
        "Name": "捷運大湖公園站",
        "Lat": 25.08343,
        "Lon": 121.602592,
        "Sequence": 53,
        "StationID": "3998"
      },
      {
        "Name": "大湖公園",
        "Lat": 25.08288733,
        "Lon": 121.6048,
        "Sequence": 54,
        "StationID": "8524"
      },
      {
        "Name": "黃石公廟",
        "Lat": 25.077575,
        "Lon": 121.606985,
        "Sequence": 55,
        "StationID": "4009"
      },
      {
        "Name": "康寧醫院",
        "Lat": 25.076003252282835,
        "Lon": 121.60709165757346,
        "Sequence": 56,
        "StationID": "1094"
      },
      {
        "Name": "康寧社區",
        "Lat": 25.07432866824676,
        "Lon": 121.60631194598926,
        "Sequence": 57,
        "StationID": "3999"
      },
      {
        "Name": "捷運葫洲站(康寧大學)",
        "Lat": 25.07246542,
        "Lon": 121.6075013,
        "Sequence": 58,
        "StationID": "1165606698"
      },
      {
        "Name": "明湖國小(公共電視台)",
        "Lat": 25.0716328345384,
        "Lon": 121.609320074507,
        "Sequence": 59,
        "StationID": "1049"
      },
      {
        "Name": "五分社區",
        "Lat": 25.06860831,
        "Lon": 121.6144033,
        "Sequence": 60,
        "StationID": "986"
      },
      {
        "Name": "東湖國小",
        "Lat": 25.06806969,
        "Lon": 121.6165906,
        "Sequence": 61,
        "StationID": "8530"
      },
      {
        "Name": "北山里",
        "Lat": 25.066676,
        "Lon": 121.618528,
        "Sequence": 62,
        "StationID": "7684"
      },
      {
        "Name": "經貿園區",
        "Lat": 25.0666077871618,
        "Lon": 121.622098011234,
        "Sequence": 63,
        "StationID": "7636"
      },
      {
        "Name": "木南煤礦",
        "Lat": 25.066839,
        "Lon": 121.624809,
        "Sequence": 64,
        "StationID": "2727"
      },
      {
        "Name": "金龍國小(康寧街)",
        "Lat": 25.067351,
        "Lon": 121.627395,
        "Sequence": 65,
        "StationID": "7638"
      },
      {
        "Name": "北峰里(康寧街)",
        "Lat": 25.067676,
        "Lon": 121.628878,
        "Sequence": 66,
        "StationID": "7642"
      },
      {
        "Name": "世電社區",
        "Lat": 25.065928,
        "Lon": 121.631193,
        "Sequence": 67,
        "StationID": "2729"
      },
      {
        "Name": "北峰國小",
        "Lat": 25.06346,
        "Lon": 121.631498,
        "Sequence": 68,
        "StationID": "2735"
      },
      {
        "Name": "大樹木業",
        "Lat": 25.06247708,
        "Lon": 121.6299763,
        "Sequence": 69,
        "StationID": "7649"
      },
      {
        "Name": "泛碟科技",
        "Lat": 25.06101,
        "Lon": 121.62789,
        "Sequence": 70,
        "StationID": "2771"
      },
      {
        "Name": "福德二路",
        "Lat": 25.06360634,
        "Lon": 121.6261573,
        "Sequence": 71,
        "StationID": "1165603232"
      }
    ]
  }
]