[
  {
    "Route": "202",
    "SubRoute": "202",
    "Direction": 0,
    "Stops": [
      {
        "Name": "及人中學",
        "Lat": 24.967108,
        "Lon": 121.518062,
        "Sequence": 1,
        "StationID": "1000504"
      },
      {
        "Name": "十四份",
        "Lat": 24.969329,
        "Lon": 121.518795,
        "Sequence": 2,
        "StationID": "1000505"
      },
      {
        "Name": "光華街口",
        "Lat": 24.970794,
        "Lon": 121.51914,
        "Sequence": 3,
        "StationID": "72245"
      },
      {
        "Name": "輕軌陽光運動公園站",
        "Lat": 24.972839,
        "Lon": 121.519852,
        "Sequence": 4,
        "StationID": "1000506"
      },
      {
        "Name": "石頭厝",
        "Lat": 24.974308,
        "Lon": 121.51912,
        "Sequence": 5,
        "StationID": "1000510"
      },
      {
        "Name": "安和路二段",
        "Lat": 24.976061,
        "Lon": 121.517372,
        "Sequence": 6,
        "StationID": "1000512"
      },
      {
        "Name": "陽光運動公園(新店花市)",
        "Lat": 24.97725375,
        "Lon": 121.5167886,
        "Sequence": 7,
        "StationID": "1000974"
      },
      {
        "Name": "永平里",
        "Lat": 24.981146,
        "Lon": 121.517416,
        "Sequence": 8,
        "StationID": "2898"
      },
      {
        "Name": "輕軌新和國小站(水工大樓)",
        "Lat": 24.983806,
        "Lon": 121.517953,
        "Sequence": 9,
        "StationID": "1000308"
      },
      {
        "Name": "新和國小",
        "Lat": 24.985335,
        "Lon": 121.517283,
        "Sequence": 10,
        "StationID": "1000309"
      },
      {
        "Name": "三介廟",
        "Lat": 24.988375,
        "Lon": 121.513308,
        "Sequence": 11,
        "StationID": "50846"
      },
      {
        "Name": "景新街",
        "Lat": 24.989999,
        "Lon": 121.512485,
        "Sequence": 12,
        "StationID": "9619"
      },
      {
        "Name": "南勢角(景平路)",
        "Lat": 24.99291,
        "Lon": 121.51133,
        "Sequence": 13,
        "StationID": "1165605328"
      },
      {
        "Name": "中和教會",
        "Lat": 24.993096,
        "Lon": 121.509353,
        "Sequence": 14,
        "StationID": "3074"
      },
      {
        "Name": "捷運景安站",
        "Lat": 24.994329,
        "Lon": 121.505277,
        "Sequence": 15,
        "StationID": "9616"
      },
      {
        "Name": "景新街口",
        "Lat": 24.996308,
        "Lon": 121.505842,
        "Sequence": 16,
        "StationID": "50835"
      },
      {
        "Name": "安和路口",
        "Lat": 24.998049,
        "Lon": 121.507121,
        "Sequence": 17,
        "StationID": "9613"
      },
      {
        "Name": "雙和里",
        "Lat": 24.99973099,
        "Lon": 121.5068521,
        "Sequence": 18,
        "StationID": "3171"
      },
      {
        "Name": "南山高中",
        "Lat": 24.999775,
        "Lon": 121.505547,
        "Sequence": 19,
        "StationID": "3110"
      },
      {
        "Name": "中和派出所",
        "Lat": 24.9998556483866,
        "Lon": 121.502819563683,
        "Sequence": 20,
        "StationID": "3064"
      },
      {
        "Name": "中和廟口",
        "Lat": 25.000814361663,
        "Lon": 121.50090778406,
        "Sequence": 21,
        "StationID": "9603"
      },
      {
        "Name": "中和農會(中和路)",
        "Lat": 25.001862,
        "Lon": 121.499868,
        "Sequence": 22,
        "StationID": "3077"
      },
      {
        "Name": "一江新村",
        "Lat": 25.002636,
        "Lon": 121.498247,
        "Sequence": 23,
        "StationID": "10048"
      },
      {
        "Name": "華中橋",
        "Lat": 25.003062,
        "Lon": 121.496762,
        "Sequence": 24,
        "StationID": "50818"
      },
      {
        "Name": "果菜市場",
        "Lat": 25.01987,
        "Lon": 121.497706,
        "Sequence": 25,
        "StationID": "4622"
      },
      {
        "Name": "萬大國小",
        "Lat": 25.0232906952259,
        "Lon": 121.499894100772,
        "Sequence": 26,
        "StationID": "4640"
      },
      {
        "Name": "德昌街口",
        "Lat": 25.025045,
        "Lon": 121.500485,
        "Sequence": 27,
        "StationID": "1830"
      },
      {
        "Name": "西藏路口",
        "Lat": 25.028737,
        "Lon": 121.500599,
        "Sequence": 28,
        "StationID": "4639"
      },
      {
        "Name": "萬大路",
        "Lat": 25.0308055,
        "Lon": 121.500635,
        "Sequence": 29,
        "StationID": "4638"
      },
      {
        "Name": "莒光派出所",
        "Lat": 25.03113,
        "Lon": 121.50255,
        "Sequence": 30,
        "StationID": "1797"
      },
      {
        "Name": "大埔街",
        "Lat": 25.03268103989999,
        "Lon": 121.50499126498305,
        "Sequence": 31,
        "StationID": "1737"
      },
      {
        "Name": "聯合醫院和平院區",
        "Lat": 25.0357,
        "Lon": 121.506607,
        "Sequence": 32,
        "StationID": "1165604845"
      },
      {
        "Name": "捷運西門站",
        "Lat": 25.041730058378,
        "Lon": 121.508285900629,
        "Sequence": 33,
        "StationID": "1793"
      },
      {
        "Name": "中華路北站",
        "Lat": 25.0456964941835,
        "Lon": 121.509380726049,
        "Sequence": 34,
        "StationID": "1744"
      },
      {
        "Name": "臺北車站(忠孝)",
        "Lat": 25.0462559043502,
        "Lon": 121.51700353811,
        "Sequence": 35,
        "StationID": "1886"
      },
      {
        "Name": "行政院",
        "Lat": 25.046578538214,
        "Lon": 121.520239869754,
        "Sequence": 36,
        "StationID": "1919"
      },
      {
        "Name": "長安東路一段",
        "Lat": 25.04957589,
        "Lon": 121.5224936,
        "Sequence": 37,
        "StationID": "1284"
      },
      {
        "Name": "長安林森路口",
        "Lat": 25.04871037,
        "Lon": 121.5259734,
        "Sequence": 38,
        "StationID": "1282"
      },
      {
        "Name": "正守公園",
        "Lat": 25.04814093,
        "Lon": 121.5287092,
        "Sequence": 39,
        "StationID": "1231"
      },
      {
        "Name": "長安國小(長安)",
        "Lat": 25.04843271,
        "Lon": 121.5308318,
        "Sequence": 40,
        "StationID": "1289"
      },
      {
        "Name": "長安東路二段",
        "Lat": 25.048368420364223,
        "Lon": 121.5336881025246,
        "Sequence": 41,
        "StationID": "1285"
      },
      {
        "Name": "中山女高",
        "Lat": 25.04827992,
        "Lon": 121.5381002,
        "Sequence": 42,
        "StationID": "1000164"
      },
      {
        "Name": "長安龍江路口",
        "Lat": 25.04821,
        "Lon": 121.54084,
        "Sequence": 43,
        "StationID": "20364"
      },
      {
        "Name": "長安復興路口",
        "Lat": 25.04821,
        "Lon": 121.54309,
        "Sequence": 44,
        "StationID": "20363"
      },
      {
        "Name": "臺安醫院",
        "Lat": 25.04814244,
        "Lon": 121.5462971,
        "Sequence": 45,
        "StationID": "1214"
      },
      {
        "Name": "臺視",
        "Lat": 25.0481637080101,
        "Lon": 121.551053453852,
        "Sequence": 46,
        "StationID": "1499"
      },
      {
        "Name": "美仁里",
        "Lat": 25.048,
        "Lon": 121.55415,
        "Sequence": 47,
        "StationID": "1560"
      },
      {
        "Name": "光復路口",
        "Lat": 25.04802340114676,
        "Lon": 121.556774902982,
        "Sequence": 48,
        "StationID": "1516"
      },
      {
        "Name": "臺北市區監理所",
        "Lat": 25.048299945369994,
        "Lon": 121.55984240587617,
        "Sequence": 49,
        "StationID": "1592"
      },
      {
        "Name": "八德東寧路口",
        "Lat": 25.048702587337512,
        "Lon": 121.56371383572485,
        "Sequence": 50,
        "StationID": "1525"
      },
      {
        "Name": "東興路",
        "Lat": 25.046530959098416,
        "Lon": 121.56649195154529,
        "Sequence": 51,
        "StationID": "1540"
      },
      {
        "Name": "松山高中(基隆路)",
        "Lat": 25.0444493988665,
        "Lon": 121.56628044728,
        "Sequence": 52,
        "StationID": "2095"
      },
      {
        "Name": "聯合報",
        "Lat": 25.04132664,
        "Lon": 121.5630899,
        "Sequence": 53,
        "StationID": "3929"
      },
      {
        "Name": "捷運國父紀念館站(忠孝)",
        "Lat": 25.04148364593397,
        "Lon": 121.55900840485135,
        "Sequence": 54,
        "StationID": "389"
      }
    ]
  },
  {
    "Route": "202",
    "SubRoute": "202",
    "Direction": 1,
    "Stops": [
      {
        "Name": "捷運國父紀念館站(光復)",
        "Lat": 25.042733,
        "Lon": 121.557919,
        "Sequence": 1,
        "StationID": "2321"
      },
      {
        "Name": "光復路口",
        "Lat": 25.048204076570904,
        "Lon": 121.55669744493079,
        "Sequence": 2,
        "StationID": "4005"
      },
      {
        "Name": "美仁里",
        "Lat": 25.0482409,
        "Lon": 121.5530966,
        "Sequence": 3,
        "StationID": "4006"
      },
      {
        "Name": "臺視",
        "Lat": 25.048279,
        "Lon": 121.550231,
        "Sequence": 4,
        "StationID": "134"
      },
      {
        "Name": "臺安醫院",
        "Lat": 25.04829,
        "Lon": 121.54531,
        "Sequence": 5,
        "StationID": "1215"
      },
      {
        "Name": "長安復興路口",
        "Lat": 25.04833589,
        "Lon": 121.542821,
        "Sequence": 6,
        "StationID": "1203"
      },
      {
        "Name": "長安龍江路口",
        "Lat": 25.04838,
        "Lon": 121.54094,
        "Sequence": 7,
        "StationID": "1292"
      },
      {
        "Name": "中山女高",
        "Lat": 25.0484436106169,
        "Lon": 121.537798642451,
        "Sequence": 8,
        "StationID": "1000255"
      },
      {
        "Name": "臺北科技大學(忠孝)",
        "Lat": 25.04222,
        "Lon": 121.53457,
        "Sequence": 9,
        "StationID": "2228"
      },
      {
        "Name": "忠孝國小",
        "Lat": 25.04289823,
        "Lon": 121.5311997,
        "Sequence": 10,
        "StationID": "3935"
      },
      {
        "Name": "華山文創園區",
        "Lat": 25.043941210409297,
        "Lon": 121.52749815701229,
        "Sequence": 11,
        "StationID": "2015"
      },
      {
        "Name": "捷運善導寺站",
        "Lat": 25.045112057683003,
        "Lon": 121.52277975890082,
        "Sequence": 12,
        "StationID": "1998"
      },
      {
        "Name": "臺北車站(忠孝)",
        "Lat": 25.0465408,
        "Lon": 121.5167218,
        "Sequence": 13,
        "StationID": "1000082"
      },
      {
        "Name": "中華路北站",
        "Lat": 25.0455115050969,
        "Lon": 121.509144127644,
        "Sequence": 14,
        "StationID": "1000078"
      },
      {
        "Name": "捷運西門站",
        "Lat": 25.0425165606871,
        "Lon": 121.508266771006,
        "Sequence": 15,
        "StationID": "1000079"
      },
      {
        "Name": "小南門",
        "Lat": 25.0378687908132,
        "Lon": 121.506903709074,
        "Sequence": 16,
        "StationID": "1000080"
      },
      {
        "Name": "聯合醫院和平院區",
        "Lat": 25.0364933609706,
        "Lon": 121.506507520259,
        "Sequence": 17,
        "StationID": "1926"
      },
      {
        "Name": "大埔街",
        "Lat": 25.03205520434067,
        "Lon": 121.50448356536738,
        "Sequence": 18,
        "StationID": "4606"
      },
      {
        "Name": "莒光派出所",
        "Lat": 25.03141,
        "Lon": 121.50298,
        "Sequence": 19,
        "StationID": "1798"
      },
      {
        "Name": "萬大路",
        "Lat": 25.030744,
        "Lon": 121.500473,
        "Sequence": 20,
        "StationID": "1811"
      },
      {
        "Name": "西藏路口",
        "Lat": 25.0289649585261,
        "Lon": 121.50037694828528,
        "Sequence": 21,
        "StationID": "1759"
      },
      {
        "Name": "德昌街口",
        "Lat": 25.025052181005517,
        "Lon": 121.50026027816166,
        "Sequence": 22,
        "StationID": "1829"
      },
      {
        "Name": "萬大國小",
        "Lat": 25.024019027640023,
        "Lon": 121.49999538902145,
        "Sequence": 23,
        "StationID": "1810"
      },
      {
        "Name": "果菜市場",
        "Lat": 25.0198502695038,
        "Lon": 121.497464378634,
        "Sequence": 24,
        "StationID": "1766"
      },
      {
        "Name": "華中橋",
        "Lat": 25.003644,
        "Lon": 121.496447,
        "Sequence": 25,
        "StationID": "1165605318"
      },
      {
        "Name": "一江新村",
        "Lat": 25.002407,
        "Lon": 121.498123,
        "Sequence": 26,
        "StationID": "3048"
      },
      {
        "Name": "中和農會(中和路)",
        "Lat": 25.001903,
        "Lon": 121.499736,
        "Sequence": 27,
        "StationID": "3078"
      },
      {
        "Name": "中和廟口",
        "Lat": 25.000553,
        "Lon": 121.500968,
        "Sequence": 28,
        "StationID": "3062"
      },
      {
        "Name": "中和派出所",
        "Lat": 24.9996954644534,
        "Lon": 121.502769736506,
        "Sequence": 29,
        "StationID": "3063"
      },
      {
        "Name": "南山高中",
        "Lat": 24.99965591,
        "Lon": 121.5048263,
        "Sequence": 30,
        "StationID": "3107"
      },
      {
        "Name": "雙和里",
        "Lat": 24.999571,
        "Lon": 121.50739,
        "Sequence": 31,
        "StationID": "9610"
      },
      {
        "Name": "安和路口",
        "Lat": 24.99802917,
        "Lon": 121.5068105,
        "Sequence": 32,
        "StationID": "3097"
      },
      {
        "Name": "景新街口",
        "Lat": 24.99601448,
        "Lon": 121.505555,
        "Sequence": 33,
        "StationID": "50834"
      },
      {
        "Name": "捷運景安站",
        "Lat": 24.994566,
        "Lon": 121.505196,
        "Sequence": 34,
        "StationID": "9615"
      },
      {
        "Name": "中和教會",
        "Lat": 24.992776,
        "Lon": 121.509186,
        "Sequence": 35,
        "StationID": "50844"
      },
      {
        "Name": "景新街",
        "Lat": 24.989796,
        "Lon": 121.512387,
        "Sequence": 36,
        "StationID": "3138"
      },
      {
        "Name": "三介廟",
        "Lat": 24.98799945,
        "Lon": 121.5132354,
        "Sequence": 37,
        "StationID": "50845"
      },
      {
        "Name": "新和國小",
        "Lat": 24.98554,
        "Lon": 121.516668,
        "Sequence": 38,
        "StationID": "2941"
      },
      {
        "Name": "輕軌新和國小站(水工大樓)",
        "Lat": 24.983114,
        "Lon": 121.517819,
        "Sequence": 39,
        "StationID": "2918"
      },
      {
        "Name": "永平里",
        "Lat": 24.98167813,
        "Lon": 121.5175586,
        "Sequence": 40,
        "StationID": "2897"
      },
      {
        "Name": "陽光運動公園(新店花市)",
        "Lat": 24.97735333,
        "Lon": 121.5165771,
        "Sequence": 41,
        "StationID": "2944"
      },
      {
        "Name": "安和路二段",
        "Lat": 24.975951,
        "Lon": 121.517269,
        "Sequence": 42,
        "StationID": "2899"
      },
      {
        "Name": "石頭厝",
        "Lat": 24.97410976,
        "Lon": 121.5188677,
        "Sequence": 43,
        "StationID": "2894"
      },
      {
        "Name": "輕軌陽光運動公園站",
        "Lat": 24.97278102,
        "Lon": 121.5195205,
        "Sequence": 44,
        "StationID": "2916"
      },
      {
        "Name": "光華街口",
        "Lat": 24.97032,
        "Lon": 121.51876,
        "Sequence": 45,
        "StationID": "72246"
      },
      {
        "Name": "十四份",
        "Lat": 24.96923,
        "Lon": 121.51843,
        "Sequence": 46,
        "StationID": "2850"
      },
      {
        "Name": "及人中學",
        "Lat": 24.96730265,
        "Lon": 121.5177866,
        "Sequence": 47,
        "StationID": "2882"
      }
    ]
  }
]