[
  {
    "Route": "676",
    "SubRoute": "676",
    "Direction": 0,
    "Stops": [
      {
        "Name": "捷運動物園站",
        "Lat": 24.99881,
        "Lon": 121.58021,
        "Sequence": 1,
        "StationID": "2442"
      },
      {
        "Name": "貓纜動物園站",
        "Lat": 24.9968,
        "Lon": 121.576778,
        "Sequence": 2,
        "StationID": "1000436"
      },
      {
        "Name": "萬壽橋頭(新光)",
        "Lat": 24.993482,
        "Lon": 121.57363,
        "Sequence": 3,
        "StationID": "2512"
      },
      {
        "Name": "萬壽橋頭(秀明)",
        "Lat": 24.99161,
        "Lon": 121.574153,
        "Sequence": 4,
        "StationID": "2510"
      },
      {
        "Name": "萬興國小",
        "Lat": 24.989679,
        "Lon": 121.576757,
        "Sequence": 5,
        "StationID": "2519"
      },
      {
        "Name": "政大一",
        "Lat": 24.98782160454249,
        "Lon": 121.57604615193513,
        "Sequence": 6,
        "StationID": "1001409"
      },
      {
        "Name": "新光路口",
        "Lat": 24.9880845060964,
        "Lon": 121.573881732316,
        "Sequence": 7,
        "StationID": "1000854"
      },
      {
        "Name": "指南路口",
        "Lat": 24.986224,
        "Lon": 121.570606,
        "Sequence": 8,
        "StationID": "1000544"
      },
      {
        "Name": "木南公園",
        "Lat": 24.984828,
        "Lon": 121.57011,
        "Sequence": 9,
        "StationID": "2521"
      },
      {
        "Name": "景文中學",
        "Lat": 24.984131427903375,
        "Lon": 121.56895990914902,
        "Sequence": 10,
        "StationID": "1000522"
      },
      {
        "Name": "司法新村",
        "Lat": 24.98347,
        "Lon": 121.56695,
        "Sequence": 11,
        "StationID": "4029"
      },
      {
        "Name": "忠順廟",
        "Lat": 24.982712452429457,
        "Lon": 121.56460855354919,
        "Sequence": 12,
        "StationID": "2411"
      },
      {
        "Name": "國泰新村(興隆)",
        "Lat": 24.98292781,
        "Lon": 121.562389,
        "Sequence": 13,
        "StationID": "3992"
      },
      {
        "Name": "忠順街口",
        "Lat": 24.9843077885823,
        "Lon": 121.561829231052,
        "Sequence": 14,
        "StationID": "1000441"
      },
      {
        "Name": "木柵公園",
        "Lat": 24.987245753153893,
        "Lon": 121.56078735305545,
        "Sequence": 15,
        "StationID": "2405"
      },
      {
        "Name": "馬明潭(再興中學)",
        "Lat": 24.989363359859,
        "Lon": 121.559942504895,
        "Sequence": 16,
        "StationID": "1000443"
      },
      {
        "Name": "興隆山莊",
        "Lat": 24.990768,
        "Lon": 121.55919,
        "Sequence": 17,
        "StationID": "1000444"
      },
      {
        "Name": "海巡署一",
        "Lat": 24.99243758851507,
        "Lon": 121.55883687781873,
        "Sequence": 18,
        "StationID": "392"
      },
      {
        "Name": "海巡署",
        "Lat": 24.99385696,
        "Lon": 121.5594086,
        "Sequence": 19,
        "StationID": "2452"
      },
      {
        "Name": "文山運動中心(興隆)",
        "Lat": 24.996452582031367,
        "Lon": 121.56012261539274,
        "Sequence": 20,
        "StationID": "4712"
      },
      {
        "Name": "臺灣警察專科學校",
        "Lat": 24.9977449509898,
        "Lon": 121.55947313859588,
        "Sequence": 21,
        "StationID": "1000764"
      },
      {
        "Name": "捷運萬芳醫院站",
        "Lat": 24.999259,
        "Lon": 121.557829,
        "Sequence": 22,
        "StationID": "2449"
      },
      {
        "Name": "中國科技大學(興隆)",
        "Lat": 25.0004051038435,
        "Lon": 121.555797991874,
        "Sequence": 23,
        "StationID": "2375"
      },
      {
        "Name": "興隆國小",
        "Lat": 25.001459963615,
        "Lon": 121.553039816886,
        "Sequence": 24,
        "StationID": "1000035"
      },
      {
        "Name": "興德國小",
        "Lat": 25.0009828977016,
        "Lon": 121.550073640107,
        "Sequence": 25,
        "StationID": "1000858"
      },
      {
        "Name": "興隆市場",
        "Lat": 24.9995842974218,
        "Lon": 121.547448469573,
        "Sequence": 26,
        "StationID": "1000037"
      },
      {
        "Name": "靜心高中",
        "Lat": 24.998953,
        "Lon": 121.545835,
        "Sequence": 27,
        "StationID": "20244"
      },
      {
        "Name": "憲光公寓",
        "Lat": 24.999719170953,
        "Lon": 121.54393655953,
        "Sequence": 28,
        "StationID": "2533"
      },
      {
        "Name": "景明街口",
        "Lat": 25.0015098013863,
        "Lon": 121.542530095186,
        "Sequence": 29,
        "StationID": "2457"
      },
      {
        "Name": "武功國小(興隆)",
        "Lat": 25.0042661031504,
        "Lon": 121.539995594657,
        "Sequence": 30,
        "StationID": "3980"
      },
      {
        "Name": "師大分部",
        "Lat": 25.0076706783786,
        "Lon": 121.538470307254,
        "Sequence": 31,
        "StationID": "1000036"
      },
      {
        "Name": "捷運公館站",
        "Lat": 25.013993,
        "Lon": 121.535185,
        "Sequence": 32,
        "StationID": "1990"
      },
      {
        "Name": "臺大",
        "Lat": 25.01800299,
        "Lon": 121.5337036,
        "Sequence": 33,
        "StationID": "6667"
      },
      {
        "Name": "臺大綜合體育館",
        "Lat": 25.0214053337175,
        "Lon": 121.534388191196,
        "Sequence": 34,
        "StationID": "2197"
      },
      {
        "Name": "龍安國小(公務人力發展學院)",
        "Lat": 25.02527096,
        "Lon": 121.5349231,
        "Sequence": 35,
        "StationID": "2255"
      },
      {
        "Name": "金華新生路口",
        "Lat": 25.03048,
        "Lon": 121.53384,
        "Sequence": 36,
        "StationID": "1943"
      },
      {
        "Name": "信義新生路口",
        "Lat": 25.03320526,
        "Lon": 121.5329027,
        "Sequence": 37,
        "StationID": "6670"
      },
      {
        "Name": "仁愛新生路口",
        "Lat": 25.03779674,
        "Lon": 121.5328703,
        "Sequence": 38,
        "StationID": "6682"
      },
      {
        "Name": "捷運忠孝新生站",
        "Lat": 25.04198981,
        "Lon": 121.5328758,
        "Sequence": 39,
        "StationID": "2264"
      },
      {
        "Name": "光華商場",
        "Lat": 25.045,
        "Lon": 121.53299,
        "Sequence": 40,
        "StationID": "6683"
      },
      {
        "Name": "長安松江路口",
        "Lat": 25.0482736559236,
        "Lon": 121.532997019655,
        "Sequence": 41,
        "StationID": "1281"
      },
      {
        "Name": "捷運松江南京站",
        "Lat": 25.0517997,
        "Lon": 121.533087,
        "Sequence": 42,
        "StationID": "6702"
      },
      {
        "Name": "長春松江路口",
        "Lat": 25.05453652,
        "Lon": 121.5331386,
        "Sequence": 43,
        "StationID": "1270"
      },
      {
        "Name": "捷運行天宮站(松江路)",
        "Lat": 25.057613818954,
        "Lon": 121.533176617617,
        "Sequence": 44,
        "StationID": "6704"
      },
      {
        "Name": "行天宮",
        "Lat": 25.06316776,
        "Lon": 121.5334449,
        "Sequence": 45,
        "StationID": "6706"
      },
      {
        "Name": "新生公園(林安泰)",
        "Lat": 25.0671805,
        "Lon": 121.5333635,
        "Sequence": 46,
        "StationID": "16265"
      },
      {
        "Name": "第二果菜市場",
        "Lat": 25.06566199,
        "Lon": 121.5358965,
        "Sequence": 47,
        "StationID": "6666"
      },
      {
        "Name": "榮星花園",
        "Lat": 25.0639456066029,
        "Lon": 121.536726116591,
        "Sequence": 48,
        "StationID": "1000766"
      },
      {
        "Name": "民權松江路口",
        "Lat": 25.06252486,
        "Lon": 121.5334388,
        "Sequence": 49,
        "StationID": "1240"
      }
    ]
  },
  {
    "Route": "676",
    "SubRoute": "676",
    "Direction": 1,
    "Stops": [
      {
        "Name": "捷運行天宮站(松江路)",
        "Lat": 25.060643374791923,
        "Lon": 121.53313278818085,
        "Sequence": 1,
        "StationID": "6707"
      },
      {
        "Name": "長春松江路口",
        "Lat": 25.05500621,
        "Lon": 121.533011,
        "Sequence": 2,
        "StationID": "1294"
      },
      {
        "Name": "捷運松江南京站",
        "Lat": 25.05228153,
        "Lon": 121.5329812,
        "Sequence": 3,
        "StationID": "1000806"
      },
      {
        "Name": "長安松江路口",
        "Lat": 25.04864879,
        "Lon": 121.5329145,
        "Sequence": 4,
        "StationID": "1280"
      },
      {
        "Name": "光華商場",
        "Lat": 25.04460839,
        "Lon": 121.5328606,
        "Sequence": 5,
        "StationID": "6684"
      },
      {
        "Name": "捷運忠孝新生站",
        "Lat": 25.040288,
        "Lon": 121.532693,
        "Sequence": 6,
        "StationID": "1000396"
      },
      {
        "Name": "仁愛新生路口",
        "Lat": 25.03851244,
        "Lon": 121.5326821,
        "Sequence": 7,
        "StationID": "6681"
      },
      {
        "Name": "信義新生路口",
        "Lat": 25.03403642,
        "Lon": 121.5325798,
        "Sequence": 8,
        "StationID": "6669"
      },
      {
        "Name": "金華新生路口",
        "Lat": 25.03087,
        "Lon": 121.53346,
        "Sequence": 9,
        "StationID": "1942"
      },
      {
        "Name": "和平新生路口",
        "Lat": 25.02639,
        "Lon": 121.53478,
        "Sequence": 10,
        "StationID": "2256"
      },
      {
        "Name": "龍安國小(公務人力發展學院)",
        "Lat": 25.02466421,
        "Lon": 121.5345198,
        "Sequence": 11,
        "StationID": "2344"
      },
      {
        "Name": "臺大綜合體育館",
        "Lat": 25.0215502113013,
        "Lon": 121.534113646475,
        "Sequence": 12,
        "StationID": "2199"
      },
      {
        "Name": "臺大",
        "Lat": 25.018246284477,
        "Lon": 121.533425339383,
        "Sequence": 13,
        "StationID": "2224"
      },
      {
        "Name": "捷運公館站",
        "Lat": 25.014321,
        "Lon": 121.534722,
        "Sequence": 14,
        "StationID": "1991"
      },
      {
        "Name": "師大分部",
        "Lat": 25.0081406778406,
        "Lon": 121.538064047069,
        "Sequence": 15,
        "StationID": "2430"
      },
      {
        "Name": "武功國小(興隆)",
        "Lat": 25.004134202331223,
        "Lon": 121.53985642693925,
        "Sequence": 16,
        "StationID": "2413"
      },
      {
        "Name": "景明街口",
        "Lat": 25.0014489083498,
        "Lon": 121.542377053436,
        "Sequence": 17,
        "StationID": "2458"
      },
      {
        "Name": "憲光公寓",
        "Lat": 24.9994337628866,
        "Lon": 121.54389161859,
        "Sequence": 18,
        "StationID": "1000232"
      },
      {
        "Name": "靜心高中",
        "Lat": 24.998797,
        "Lon": 121.545859,
        "Sequence": 19,
        "StationID": "2546"
      },
      {
        "Name": "興隆市場",
        "Lat": 24.9996328919305,
        "Lon": 121.547902045529,
        "Sequence": 20,
        "StationID": "2536"
      },
      {
        "Name": "興德國小",
        "Lat": 25.0009702685655,
        "Lon": 121.550307886322,
        "Sequence": 21,
        "StationID": "2542"
      },
      {
        "Name": "興隆國小",
        "Lat": 25.0012218102124,
        "Lon": 121.553328388246,
        "Sequence": 22,
        "StationID": "2538"
      },
      {
        "Name": "捷運萬芳醫院站",
        "Lat": 24.999571,
        "Lon": 121.556845,
        "Sequence": 23,
        "StationID": "1000769"
      },
      {
        "Name": "臺灣警察專科學校",
        "Lat": 24.9982684874929,
        "Lon": 121.558494894192,
        "Sequence": 24,
        "StationID": "1000770"
      },
      {
        "Name": "文山運動中心(興隆)",
        "Lat": 24.996224651489683,
        "Lon": 121.55988996370712,
        "Sequence": 25,
        "StationID": "3782"
      },
      {
        "Name": "海巡署",
        "Lat": 24.994721428997224,
        "Lon": 121.55947687971212,
        "Sequence": 26,
        "StationID": "2431"
      },
      {
        "Name": "海巡署一",
        "Lat": 24.993046,
        "Lon": 121.558778,
        "Sequence": 27,
        "StationID": "2451"
      },
      {
        "Name": "興隆山莊",
        "Lat": 24.9913869,
        "Lon": 121.5586916,
        "Sequence": 28,
        "StationID": "2535"
      },
      {
        "Name": "馬明潭(再興中學)",
        "Lat": 24.98937794,
        "Lon": 121.5597219,
        "Sequence": 29,
        "StationID": "2434"
      },
      {
        "Name": "木柵公園",
        "Lat": 24.98693,
        "Lon": 121.56074,
        "Sequence": 30,
        "StationID": "2404"
      },
      {
        "Name": "忠順街口",
        "Lat": 24.98477018,
        "Lon": 121.5614966,
        "Sequence": 31,
        "StationID": "2410"
      },
      {
        "Name": "國泰新村(興隆)",
        "Lat": 24.98254356,
        "Lon": 121.5622646,
        "Sequence": 32,
        "StationID": "2437"
      },
      {
        "Name": "忠順廟",
        "Lat": 24.982503951501606,
        "Lon": 121.56456790757427,
        "Sequence": 33,
        "StationID": "1000453"
      },
      {
        "Name": "司法新村",
        "Lat": 24.98305,
        "Lon": 121.56636,
        "Sequence": 34,
        "StationID": "4028"
      },
      {
        "Name": "景文中學",
        "Lat": 24.9837877068618,
        "Lon": 121.568528509552,
        "Sequence": 35,
        "StationID": "1000540"
      },
      {
        "Name": "木南公園",
        "Lat": 24.985348,
        "Lon": 121.570615,
        "Sequence": 36,
        "StationID": "50681"
      },
      {
        "Name": "指南路口",
        "Lat": 24.9871941238226,
        "Lon": 121.570722800802,
        "Sequence": 37,
        "StationID": "2426"
      },
      {
        "Name": "政大",
        "Lat": 24.9878362086283,
        "Lon": 121.574633255625,
        "Sequence": 38,
        "StationID": "2415"
      },
      {
        "Name": "萬興圖書館",
        "Lat": 24.989020423587586,
        "Lon": 121.57699279565435,
        "Sequence": 39,
        "StationID": "2520"
      },
      {
        "Name": "大誠高中",
        "Lat": 24.990413,
        "Lon": 121.576905,
        "Sequence": 40,
        "StationID": "2368"
      },
      {
        "Name": "萬壽橋頭(秀明)",
        "Lat": 24.991863,
        "Lon": 121.574627,
        "Sequence": 41,
        "StationID": "50671"
      },
      {
        "Name": "萬壽橋頭(新光)",
        "Lat": 24.992819,
        "Lon": 121.573853,
        "Sequence": 42,
        "StationID": "50669"
      },
      {
        "Name": "貓纜動物園站",
        "Lat": 24.9963006246947,
        "Lon": 121.576314002724,
        "Sequence": 43,
        "StationID": "2443"
      },
      {
        "Name": "捷運動物園站",
        "Lat": 24.99857,
        "Lon": 121.57996,
        "Sequence": 44,
        "StationID": "50672"
      }
    ]
  }
]