[
  {
    "Route": "藍5",
    "SubRoute": "藍5",
    "Direction": 0,
    "Stops": [
      {
        "Name": "吳興街站",
        "Lat": 25.02324,
        "Lon": 121.56976,
        "Sequence": 1,
        "StationID": "1165604802"
      },
      {
        "Name": "聯勤技術訓練中心",
        "Lat": 25.022604,
        "Lon": 121.571883,
        "Sequence": 2,
        "StationID": "6729"
      },
      {
        "Name": "拇指山登山口",
        "Lat": 25.02112,
        "Lon": 121.57356,
        "Sequence": 3,
        "StationID": "2090"
      },
      {
        "Name": "景雲街",
        "Lat": 25.0185958324197,
        "Lon": 121.575256588955,
        "Sequence": 4,
        "StationID": "1165604719"
      },
      {
        "Name": "公園",
        "Lat": 25.01739624988,
        "Lon": 121.57567510185,
        "Sequence": 5,
        "StationID": "6725"
      },
      {
        "Name": "網球場",
        "Lat": 25.01644,
        "Lon": 121.57643,
        "Sequence": 6,
        "StationID": "2168"
      },
      {
        "Name": "瑞雲街口",
        "Lat": 25.017,
        "Lon": 121.575,
        "Sequence": 7,
        "StationID": "2165"
      },
      {
        "Name": "紫雲街口",
        "Lat": 25.018,
        "Lon": 121.575,
        "Sequence": 8,
        "StationID": "2163"
      },
      {
        "Name": "水塔",
        "Lat": 25.018561,
        "Lon": 121.574963,
        "Sequence": 9,
        "StationID": "2042"
      },
      {
        "Name": "挹翠山莊",
        "Lat": 25.01951,
        "Lon": 121.57349,
        "Sequence": 10,
        "StationID": "2135"
      },
      {
        "Name": "糶米公園",
        "Lat": 25.01869065,
        "Lon": 121.5727305,
        "Sequence": 11,
        "StationID": "1165610025"
      },
      {
        "Name": "泰和公園",
        "Lat": 25.01905,
        "Lon": 121.57071,
        "Sequence": 12,
        "StationID": "1165606694"
      },
      {
        "Name": "泰和里",
        "Lat": 25.020953,
        "Lon": 121.569528,
        "Sequence": 13,
        "StationID": "1165609357"
      },
      {
        "Name": "吳興街站",
        "Lat": 25.02324,
        "Lon": 121.56976,
        "Sequence": 14,
        "StationID": "1165604802"
      },
      {
        "Name": "松仁路",
        "Lat": 25.02453056,
        "Lon": 121.5695997,
        "Sequence": 15,
        "StationID": "2082"
      },
      {
        "Name": "吳興國小(松仁)",
        "Lat": 25.026234,
        "Lon": 121.568628,
        "Sequence": 16,
        "StationID": "4797"
      },
      {
        "Name": "信義國中(莊敬)",
        "Lat": 25.027607,
        "Lon": 121.56521,
        "Sequence": 17,
        "StationID": "1000143"
      },
      {
        "Name": "臺北醫學大學",
        "Lat": 25.0282411640192,
        "Lon": 121.563488827932,
        "Sequence": 18,
        "StationID": "7004"
      },
      {
        "Name": "景新里",
        "Lat": 25.02952622,
        "Lon": 121.5623852,
        "Sequence": 19,
        "StationID": "2162"
      },
      {
        "Name": "世貿中心(莊敬)",
        "Lat": 25.031399,
        "Lon": 121.561326,
        "Sequence": 20,
        "StationID": "4646"
      },
      {
        "Name": "101國際購物中心",
        "Lat": 25.034635,
        "Lon": 121.565536,
        "Sequence": 21,
        "StationID": "2044"
      },
      {
        "Name": "市政府(松智)",
        "Lat": 25.03685005,
        "Lon": 121.5655763,
        "Sequence": 22,
        "StationID": "4031"
      },
      {
        "Name": "捷運市政府站",
        "Lat": 25.040991,
        "Lon": 121.565249,
        "Sequence": 23,
        "StationID": "2150"
      }
    ]
  },
  {
    "Route": "藍5",
    "SubRoute": "藍5",
    "Direction": 1,
    "Stops": [
      {
        "Name": "消防局(松仁)",
        "Lat": 25.039478,
        "Lon": 121.568335,
        "Sequence": 1,
        "StationID": "1000688"
      },
      {
        "Name": "市政府(松智)",
        "Lat": 25.03683458,
        "Lon": 121.5653434,
        "Sequence": 2,
        "StationID": "6722"
      },
      {
        "Name": "101國際購物中心",
        "Lat": 25.03426179,
        "Lon": 121.565358,
        "Sequence": 3,
        "StationID": "2028"
      },
      {
        "Name": "世貿中心(莊敬)",
        "Lat": 25.031446,
        "Lon": 121.56127,
        "Sequence": 4,
        "StationID": "4645"
      },
      {
        "Name": "景新里",
        "Lat": 25.02923056,
        "Lon": 121.5624103,
        "Sequence": 5,
        "StationID": "2161"
      },
      {
        "Name": "臺北醫學大學",
        "Lat": 25.02827334,
        "Lon": 121.5632643,
        "Sequence": 6,
        "StationID": "2051"
      },
      {
        "Name": "信義國中(莊敬)",
        "Lat": 25.027402,
        "Lon": 121.565724,
        "Sequence": 7,
        "StationID": "1000142"
      },
      {
        "Name": "吳興國小(莊敬)",
        "Lat": 25.026725,
        "Lon": 121.568122,
        "Sequence": 8,
        "StationID": "20251"
      },
      {
        "Name": "松仁路",
        "Lat": 25.024432,
        "Lon": 121.569585,
        "Sequence": 9,
        "StationID": "4798"
      },
      {
        "Name": "聯勤技術訓練中心",
        "Lat": 25.022604,
        "Lon": 121.571883,
        "Sequence": 10,
        "StationID": "6729"
      },
      {
        "Name": "拇指山登山口",
        "Lat": 25.02112,
        "Lon": 121.57356,
        "Sequence": 11,
        "StationID": "2090"
      },
      {
        "Name": "景雲街",
        "Lat": 25.0185958324197,
        "Lon": 121.575256588955,
        "Sequence": 12,
        "StationID": "1165604719"
      },
      {
        "Name": "公園",
        "Lat": 25.01739624988,
        "Lon": 121.57567510185,
        "Sequence": 13,
        "StationID": "6725"
      },
      {
        "Name": "網球場",
        "Lat": 25.01644,
        "Lon": 121.57643,
        "Sequence": 14,
        "StationID": "2168"
      },
      {
        "Name": "瑞雲街口",
        "Lat": 25.017,
        "Lon": 121.575,
        "Sequence": 15,
        "StationID": "2165"
      },
      {
        "Name": "紫雲街口",
        "Lat": 25.018,
        "Lon": 121.575,
        "Sequence": 16,
        "StationID": "2163"
      },
      {
        "Name": "水塔",
        "Lat": 25.018561,
        "Lon": 121.574963,
        "Sequence": 17,
        "StationID": "2042"
      },
      {
        "Name": "挹翠山莊",
        "Lat": 25.01951,
        "Lon": 121.57349,
        "Sequence": 18,
        "StationID": "2135"
      },
      {
        "Name": "糶米公園",
        "Lat": 25.01869065,
        "Lon": 121.5727305,
        "Sequence": 19,
        "StationID": "1165610025"
      },
      {
        "Name": "泰和公園",
        "Lat": 25.01905,
        "Lon": 121.57071,
        "Sequence": 20,
        "StationID": "1165606694"
      },
      {
        "Name": "泰和里",
        "Lat": 25.020953,
        "Lon": 121.569528,
        "Sequence": 21,
        "StationID": "1165609357"
      },
      {
        "Name": "吳興街站",
        "Lat": 25.02324,
        "Lon": 121.56976,
        "Sequence": 22,
        "StationID": "1165604802"
      }
    ]
  },
  {
    "Route": "藍5",
    "SubRoute": "藍5去程半",
    "Direction": 0,
    "Stops": [
      {
        "Name": "吳興街站",
        "Lat": 25.02324,
        "Lon": 121.56976,
        "Sequence": 1,
        "StationID": "1165604802"
      },
      {
        "Name": "聯勤技術訓練中心",
        "Lat": 25.022604,
        "Lon": 121.571883,
        "Sequence": 2,
        "StationID": "6729"
      },
      {
        "Name": "拇指山登山口",
        "Lat": 25.02112,
        "Lon": 121.57356,
        "Sequence": 3,
        "StationID": "2090"
      },
      {
        "Name": "景雲街",
        "Lat": 25.0185958324197,
        "Lon": 121.575256588955,
        "Sequence": 4,
        "StationID": "1165604719"
      },
      {
        "Name": "公園",
        "Lat": 25.01739624988,
        "Lon": 121.57567510185,
        "Sequence": 5,
        "StationID": "6725"
      },
      {
        "Name": "網球場",
        "Lat": 25.01644,
        "Lon": 121.57643,
        "Sequence": 6,
        "StationID": "2168"
      },
      {
        "Name": "瑞雲街口",
        "Lat": 25.017,
        "Lon": 121.575,
        "Sequence": 7,
        "StationID": "2165"
      },
      {
        "Name": "紫雲街口",
        "Lat": 25.018,
        "Lon": 121.575,
        "Sequence": 8,
        "StationID": "2163"
      },
      {
        "Name": "水塔",
        "Lat": 25.018561,
        "Lon": 121.574963,
        "Sequence": 9,
        "StationID": "2042"
      },
      {
        "Name": "挹翠山莊",
        "Lat": 25.01951,
        "Lon": 121.57349,
        "Sequence": 10,
        "StationID": "2135"
      },
      {
        "Name": "糶米公園",
        "Lat": 25.01869065,
        "Lon": 121.5727305,
        "Sequence": 11,
        "StationID": "1165610025"
      },
      {
        "Name": "泰和公園",
        "Lat": 25.01905,
        "Lon": 121.57071,
        "Sequence": 12,
        "StationID": "1165606694"
      },
      {
        "Name": "泰和里",
        "Lat": 25.020953,
        "Lon": 121.569528,
        "Sequence": 13,
        "StationID": "1165609357"
      },
      {
        "Name": "吳興街站",
        "Lat": 25.02324,
        "Lon": 121.56976,
        "Sequence": 14,
        "StationID": "1165604802"
      },
      {
        "Name": "松仁路",
        "Lat": 25.02453056,
        "Lon": 121.5695997,
        "Sequence": 15,
        "StationID": "2082"
      },
      {
        "Name": "吳興國小(松仁)",
        "Lat": 25.026234,
        "Lon": 121.568628,
        "Sequence": 16,
        "StationID": "4797"
      },
      {
        "Name": "信義國中(莊敬)",
        "Lat": 25.027607,
        "Lon": 121.56521,
        "Sequence": 17,
        "StationID": "1000143"
      },
      {
        "Name": "臺北醫學大學",
        "Lat": 25.0282411640192,
        "Lon": 121.563488827932,
        "Sequence": 18,
        "StationID": "7004"
      },
      {
        "Name": "景新里",
        "Lat": 25.02952622,
        "Lon": 121.5623852,
        "Sequence": 19,
        "StationID": "2162"
      },
      {
        "Name": "世貿中心(莊敬)",
        "Lat": 25.031399,
        "Lon": 121.561326,
        "Sequence": 20,
        "StationID": "4646"
      },
      {
        "Name": "101國際購物中心",
        "Lat": 25.034635,
        "Lon": 121.565536,
        "Sequence": 21,
        "StationID": "2044"
      },
      {
        "Name": "市政府(松智)",
        "Lat": 25.03685005,
        "Lon": 121.5655763,
        "Sequence": 22,
        "StationID": "4031"
      },
      {
        "Name": "捷運市政府站",
        "Lat": 25.040991,
        "Lon": 121.565249,
        "Sequence": 23,
        "StationID": "2150"
      }
    ]
  },
  {
    "Route": "藍5",
    "SubRoute": "藍5返程半",
    "Direction": 0,
    "Stops": [
      {
        "Name": "捷運市政府站",
        "Lat": 25.040991,
        "Lon": 121.565249,
        "Sequence": 1,
        "StationID": "2150"
      }
    ]
  },
  {
    "Route": "藍5",
    "SubRoute": "藍5返程半",
    "Direction": 1,
    "Stops": [
      {
        "Name": "消防局(松仁)",
        "Lat": 25.039478,
        "Lon": 121.568335,
        "Sequence": 1,
        "StationID": "1000688"
      },
      {
        "Name": "市政府(松智)",
        "Lat": 25.03683458,
        "Lon": 121.5653434,
        "Sequence": 3,
        "StationID": "6722"
      },
      {
        "Name": "101國際購物中心",
        "Lat": 25.03426179,
        "Lon": 121.565358,
        "Sequence": 4,
        "StationID": "2028"
      },
      {
        "Name": "世貿中心(莊敬)",
        "Lat": 25.031446,
        "Lon": 121.56127,
        "Sequence": 5,
        "StationID": "4645"
      },
      {
        "Name": "景新里",
        "Lat": 25.02923056,
        "Lon": 121.5624103,
        "Sequence": 6,
        "StationID": "2161"
      },
      {
        "Name": "臺北醫學大學",
        "Lat": 25.02827334,
        "Lon": 121.5632643,
        "Sequence": 7,
        "StationID": "2051"
      },
      {
        "Name": "信義國中(莊敬)",
        "Lat": 25.027402,
        "Lon": 121.565724,
        "Sequence": 8,
        "StationID": "1000142"
      },
      {
        "Name": "吳興國小(莊敬)",
        "Lat": 25.026725,
        "Lon": 121.568122,
        "Sequence": 9,
        "StationID": "20251"
      },
      {
        "Name": "松仁路",
        "Lat": 25.024432,
        "Lon": 121.569585,
        "Sequence": 10,
        "StationID": "4798"
      },
      {
        "Name": "聯勤技術訓練中心",
        "Lat": 25.022604,
        "Lon": 121.571883,
        "Sequence": 11,
        "StationID": "6729"
      },
      {
        "Name": "拇指山登山口",
        "Lat": 25.02112,
        "Lon": 121.57356,
        "Sequence": 12,
        "StationID": "2090"
      },
      {
        "Name": "景雲街",
        "Lat": 25.0185958324197,
        "Lon": 121.575256588955,
        "Sequence": 13,
        "StationID": "1165604719"
      },
      {
        "Name": "公園",
        "Lat": 25.01739624988,
        "Lon": 121.57567510185,
        "Sequence": 14,
        "StationID": "6725"
      },
      {
        "Name": "網球場",
        "Lat": 25.01644,
        "Lon": 121.57643,
        "Sequence": 15,
        "StationID": "2168"
      },
      {
        "Name": "瑞雲街口",
        "Lat": 25.017,
        "Lon": 121.575,
        "Sequence": 16,
        "StationID": "2165"
      },
      {
        "Name": "紫雲街口",
        "Lat": 25.018,
        "Lon": 121.575,
        "Sequence": 17,
        "StationID": "2163"
      },
      {
        "Name": "水塔",
        "Lat": 25.018561,
        "Lon": 121.574963,
        "Sequence": 18,
        "StationID": "2042"
      },
      {
        "Name": "挹翠山莊",
        "Lat": 25.01951,
        "Lon": 121.57349,
        "Sequence": 19,
        "StationID": "2135"
      },
      {
        "Name": "糶米公園",
        "Lat": 25.01869065,
        "Lon": 121.5727305,
        "Sequence": 20,
        "StationID": "1165610025"
      },
      {
        "Name": "泰和公園",
        "Lat": 25.01905,
        "Lon": 121.57071,
        "Sequence": 21,
        "StationID": "1165606694"
      },
      {
        "Name": "泰和里",
        "Lat": 25.020953,
        "Lon": 121.569528,
        "Sequence": 22,
        "StationID": "1165609357"
      },
      {
        "Name": "吳興街站",
        "Lat": 25.02324,
        "Lon": 121.56976,
        "Sequence": 23,
        "StationID": "1165604802"
      }
    ]
  },
  {
    "Route": "藍5",
    "SubRoute": "藍5去程不上山往MRT市府",
    "Direction": 0,
    "Stops": [
      {
        "Name": "吳興街站",
        "Lat": 25.02324,
        "Lon": 121.56976,
        "Sequence": 1,
        "StationID": "1165604802"
      },
      {
        "Name": "松仁路",
        "Lat": 25.02453056,
        "Lon": 121.5695997,
        "Sequence": 2,
        "StationID": "2082"
      },
      {
        "Name": "吳興國小(松仁)",
        "Lat": 25.026234,
        "Lon": 121.568628,
        "Sequence": 3,
        "StationID": "4797"
      },
      {
        "Name": "信義國中(莊敬)",
        "Lat": 25.027607,
        "Lon": 121.56521,
        "Sequence": 4,
        "StationID": "1000143"
      },
      {
        "Name": "臺北醫學大學",
        "Lat": 25.0282411640192,
        "Lon": 121.563488827932,
        "Sequence": 5,
        "StationID": "7004"
      },
      {
        "Name": "景新里",
        "Lat": 25.02952622,
        "Lon": 121.5623852,
        "Sequence": 6,
        "StationID": "2162"
      },
      {
        "Name": "世貿中心(莊敬)",
        "Lat": 25.031399,
        "Lon": 121.561326,
        "Sequence": 7,
        "StationID": "4646"
      },
      {
        "Name": "101國際購物中心",
        "Lat": 25.034635,
        "Lon": 121.565536,
        "Sequence": 8,
        "StationID": "2044"
      },
      {
        "Name": "市政府(松智)",
        "Lat": 25.03685005,
        "Lon": 121.5655763,
        "Sequence": 9,
        "StationID": "4031"
      }
    ]
  }
]