[
  {
    "Route": "小17",
    "SubRoute": "小17",
    "Direction": 0,
    "Stops": [
      {
        "Name": "捷運劍潭站(北藝中心)",
        "Lat": 25.084952,
        "Lon": 121.525031,
        "Sequence": 1,
        "StationID": "1000256"
      },
      {
        "Name": "陽明戲院",
        "Lat": 25.0874398,
        "Lon": 121.5260219,
        "Sequence": 2,
        "StationID": "7261"
      },
      {
        "Name": "士林分局",
        "Lat": 25.09049,
        "Lon": 121.525833,
        "Sequence": 3,
        "StationID": "571"
      },
      {
        "Name": "士林區農會",
        "Lat": 25.0928638299869,
        "Lon": 121.525671636781,
        "Sequence": 4,
        "StationID": "583"
      },
      {
        "Name": "捷運士林站(中正)",
        "Lat": 25.09543483,
        "Lon": 121.5267653,
        "Sequence": 5,
        "StationID": "10210"
      },
      {
        "Name": "福林國小",
        "Lat": 25.09583325,
        "Lon": 121.5290055,
        "Sequence": 6,
        "StationID": "896"
      },
      {
        "Name": "士林官邸(中正)",
        "Lat": 25.096324,
        "Lon": 121.531395,
        "Sequence": 7,
        "StationID": "1000618"
      },
      {
        "Name": "泰北中學",
        "Lat": 25.0972847950979,
        "Lon": 121.533481875716,
        "Sequence": 8,
        "StationID": "777"
      },
      {
        "Name": "岩山里",
        "Lat": 25.101779204864,
        "Lon": 121.537708683954,
        "Sequence": 9,
        "StationID": "1000619"
      },
      {
        "Name": "岩山里一",
        "Lat": 25.1035131480372,
        "Lon": 121.53702433513,
        "Sequence": 10,
        "StationID": "55009"
      },
      {
        "Name": "芝蘭新村",
        "Lat": 25.1069424036663,
        "Lon": 121.536903542185,
        "Sequence": 11,
        "StationID": "1000616"
      },
      {
        "Name": "華興中學",
        "Lat": 25.10410142,
        "Lon": 121.5381247,
        "Sequence": 12,
        "StationID": "843"
      },
      {
        "Name": "嶺頭",
        "Lat": 25.1020154099508,
        "Lon": 121.540318712854,
        "Sequence": 13,
        "StationID": "30040"
      },
      {
        "Name": "拔子埔",
        "Lat": 25.1050667160996,
        "Lon": 121.543899657612,
        "Sequence": 14,
        "StationID": "724"
      },
      {
        "Name": "永嶺",
        "Lat": 25.10696523,
        "Lon": 121.5453823,
        "Sequence": 15,
        "StationID": "1000608"
      },
      {
        "Name": "永福(林語堂故居)",
        "Lat": 25.1092441758524,
        "Lon": 121.547020026043,
        "Sequence": 16,
        "StationID": "1000609"
      },
      {
        "Name": "陽明教養院",
        "Lat": 25.110508,
        "Lon": 121.548654,
        "Sequence": 17,
        "StationID": "1000620"
      },
      {
        "Name": "福音",
        "Lat": 25.1143365915433,
        "Lon": 121.55056001317,
        "Sequence": 18,
        "StationID": "899"
      },
      {
        "Name": "陽明山國小",
        "Lat": 25.11785,
        "Lon": 121.5521,
        "Sequence": 19,
        "StationID": "14417"
      },
      {
        "Name": "新安路一",
        "Lat": 25.11927,
        "Lon": 121.55368,
        "Sequence": 20,
        "StationID": "60148"
      },
      {
        "Name": "水墘",
        "Lat": 25.12018,
        "Lon": 121.55467,
        "Sequence": 21,
        "StationID": "60149"
      },
      {
        "Name": "居安新村",
        "Lat": 25.12111,
        "Lon": 121.55526,
        "Sequence": 22,
        "StationID": "60151"
      },
      {
        "Name": "聚會所",
        "Lat": 25.123202,
        "Lon": 121.554342,
        "Sequence": 23,
        "StationID": "1165610404"
      },
      {
        "Name": "新安路二",
        "Lat": 25.12447,
        "Lon": 121.55329,
        "Sequence": 24,
        "StationID": "60147"
      },
      {
        "Name": "新安路三",
        "Lat": 25.12481,
        "Lon": 121.55453,
        "Sequence": 25,
        "StationID": "60146"
      },
      {
        "Name": "新安路四",
        "Lat": 25.12476,
        "Lon": 121.55633,
        "Sequence": 26,
        "StationID": "60145"
      },
      {
        "Name": "新安路五南站",
        "Lat": 25.12679156726714,
        "Lon": 121.55699634780694,
        "Sequence": 27,
        "StationID": "1165606335"
      },
      {
        "Name": "新安路五",
        "Lat": 25.12752,
        "Lon": 121.55669,
        "Sequence": 28,
        "StationID": "60144"
      },
      {
        "Name": "新安路六",
        "Lat": 25.12921,
        "Lon": 121.55513,
        "Sequence": 29,
        "StationID": "873"
      },
      {
        "Name": "新安路七",
        "Lat": 25.130167,
        "Lon": 121.554455,
        "Sequence": 30,
        "StationID": "1165604690"
      },
      {
        "Name": "新安里西站",
        "Lat": 25.13115,
        "Lon": 121.55444,
        "Sequence": 31,
        "StationID": "868"
      },
      {
        "Name": "新安里中站",
        "Lat": 25.13221,
        "Lon": 121.55635,
        "Sequence": 32,
        "StationID": "4900"
      },
      {
        "Name": "燒庚寮",
        "Lat": 25.13176,
        "Lon": 121.55701,
        "Sequence": 33,
        "StationID": "60143"
      }
    ]
  },
  {
    "Route": "小17",
    "SubRoute": "小17",
    "Direction": 1,
    "Stops": [
      {
        "Name": "新安里",
        "Lat": 25.13046,
        "Lon": 121.55715,
        "Sequence": 1,
        "StationID": "866"
      },
      {
        "Name": "新安路五",
        "Lat": 25.12764,
        "Lon": 121.55665,
        "Sequence": 2,
        "StationID": "872"
      },
      {
        "Name": "新安路四",
        "Lat": 25.12497,
        "Lon": 121.55668,
        "Sequence": 3,
        "StationID": "874"
      },
      {
        "Name": "新安路三",
        "Lat": 25.1248,
        "Lon": 121.55458,
        "Sequence": 4,
        "StationID": "871"
      },
      {
        "Name": "新安路二",
        "Lat": 25.12453,
        "Lon": 121.55328,
        "Sequence": 5,
        "StationID": "870"
      },
      {
        "Name": "聚會所",
        "Lat": 25.12314376,
        "Lon": 121.5541032,
        "Sequence": 6,
        "StationID": "1165610405"
      },
      {
        "Name": "居安新村",
        "Lat": 25.12126,
        "Lon": 121.5552,
        "Sequence": 7,
        "StationID": "60152"
      },
      {
        "Name": "水墘",
        "Lat": 25.12038771,
        "Lon": 121.5544359,
        "Sequence": 8,
        "StationID": "60150"
      },
      {
        "Name": "新安路一",
        "Lat": 25.11936571,
        "Lon": 121.5535254,
        "Sequence": 9,
        "StationID": "869"
      },
      {
        "Name": "陽明山國小",
        "Lat": 25.11799052630939,
        "Lon": 121.55202263410142,
        "Sequence": 10,
        "StationID": "854"
      },
      {
        "Name": "福音",
        "Lat": 25.1140124257428,
        "Lon": 121.550310398218,
        "Sequence": 11,
        "StationID": "1000614"
      },
      {
        "Name": "陽明教養院",
        "Lat": 25.1104191040479,
        "Lon": 121.54836175021,
        "Sequence": 12,
        "StationID": "861"
      },
      {
        "Name": "永福(林語堂故居)",
        "Lat": 25.1095275064689,
        "Lon": 121.547154139609,
        "Sequence": 13,
        "StationID": "679"
      },
      {
        "Name": "永嶺",
        "Lat": 25.1068495776368,
        "Lon": 121.545213090496,
        "Sequence": 14,
        "StationID": "683"
      },
      {
        "Name": "拔子埔",
        "Lat": 25.104977,
        "Lon": 121.543591,
        "Sequence": 15,
        "StationID": "723"
      },
      {
        "Name": "嶺頭",
        "Lat": 25.1031851590031,
        "Lon": 121.541536360844,
        "Sequence": 16,
        "StationID": "937"
      },
      {
        "Name": "華興中學",
        "Lat": 25.104112892574,
        "Lon": 121.538359218545,
        "Sequence": 17,
        "StationID": "1000615"
      },
      {
        "Name": "芝蘭新村",
        "Lat": 25.1072897892355,
        "Lon": 121.537298719254,
        "Sequence": 18,
        "StationID": "749"
      },
      {
        "Name": "岩山里一",
        "Lat": 25.10331,
        "Lon": 121.53692,
        "Sequence": 19,
        "StationID": "712"
      },
      {
        "Name": "岩山里",
        "Lat": 25.1018780140349,
        "Lon": 121.537579799115,
        "Sequence": 20,
        "StationID": "709"
      },
      {
        "Name": "泰北中學",
        "Lat": 25.0977513146504,
        "Lon": 121.534030294965,
        "Sequence": 21,
        "StationID": "778"
      },
      {
        "Name": "士林官邸(中正)",
        "Lat": 25.0965,
        "Lon": 121.53144,
        "Sequence": 22,
        "StationID": "3953"
      },
      {
        "Name": "福林國小",
        "Lat": 25.0962,
        "Lon": 121.52976,
        "Sequence": 23,
        "StationID": "3954"
      },
      {
        "Name": "捷運士林站(中正)",
        "Lat": 25.095583,
        "Lon": 121.526622,
        "Sequence": 24,
        "StationID": "797"
      },
      {
        "Name": "士林國小",
        "Lat": 25.094058815207,
        "Lon": 121.524789386925,
        "Sequence": 25,
        "StationID": "5040"
      },
      {
        "Name": "士林分局",
        "Lat": 25.09049,
        "Lon": 121.525833,
        "Sequence": 26,
        "StationID": "571"
      },
      {
        "Name": "捷運劍潭站(中山)",
        "Lat": 25.085353,
        "Lon": 121.525327,
        "Sequence": 27,
        "StationID": "803"
      }
    ]
  },
  {
    "Route": "小17",
    "SubRoute": "小17經莊頂",
    "Direction": 0,
    "Stops": [
      {
        "Name": "捷運劍潭站(北藝中心)",
        "Lat": 25.084952,
        "Lon": 121.525031,
        "Sequence": 1,
        "StationID": "1000256"
      },
      {
        "Name": "陽明戲院",
        "Lat": 25.0874398,
        "Lon": 121.5260219,
        "Sequence": 2,
        "StationID": "7261"
      },
      {
        "Name": "士林分局",
        "Lat": 25.09049,
        "Lon": 121.525833,
        "Sequence": 3,
        "StationID": "571"
      },
      {
        "Name": "士林區農會",
        "Lat": 25.0928638299869,
        "Lon": 121.525671636781,
        "Sequence": 4,
        "StationID": "583"
      },
      {
        "Name": "捷運士林站(中正)",
        "Lat": 25.09543483,
        "Lon": 121.5267653,
        "Sequence": 5,
        "StationID": "10210"
      },
      {
        "Name": "福林國小",
        "Lat": 25.09583325,
        "Lon": 121.5290055,
        "Sequence": 6,
        "StationID": "896"
      },
      {
        "Name": "士林官邸(中正)",
        "Lat": 25.096324,
        "Lon": 121.531395,
        "Sequence": 7,
        "StationID": "1000618"
      },
      {
        "Name": "泰北中學",
        "Lat": 25.0972847950979,
        "Lon": 121.533481875716,
        "Sequence": 8,
        "StationID": "777"
      },
      {
        "Name": "岩山里",
        "Lat": 25.101779204864,
        "Lon": 121.537708683954,
        "Sequence": 9,
        "StationID": "1000619"
      },
      {
        "Name": "岩山里一",
        "Lat": 25.1035131480372,
        "Lon": 121.53702433513,
        "Sequence": 10,
        "StationID": "55009"
      },
      {
        "Name": "芝蘭新村",
        "Lat": 25.1069424036663,
        "Lon": 121.536903542185,
        "Sequence": 11,
        "StationID": "1000616"
      },
      {
        "Name": "華興中學",
        "Lat": 25.10410142,
        "Lon": 121.5381247,
        "Sequence": 12,
        "StationID": "843"
      },
      {
        "Name": "嶺頭",
        "Lat": 25.1020154099508,
        "Lon": 121.540318712854,
        "Sequence": 13,
        "StationID": "30040"
      },
      {
        "Name": "拔子埔",
        "Lat": 25.1050667160996,
        "Lon": 121.543899657612,
        "Sequence": 14,
        "StationID": "724"
      },
      {
        "Name": "永嶺",
        "Lat": 25.10696523,
        "Lon": 121.5453823,
        "Sequence": 15,
        "StationID": "1000608"
      },
      {
        "Name": "永福(林語堂故居)",
        "Lat": 25.1092441758524,
        "Lon": 121.547020026043,
        "Sequence": 16,
        "StationID": "1000609"
      },
      {
        "Name": "陽明教養院",
        "Lat": 25.110508,
        "Lon": 121.548654,
        "Sequence": 17,
        "StationID": "1000620"
      },
      {
        "Name": "指福宮",
        "Lat": 25.110263,
        "Lon": 121.5531,
        "Sequence": 18,
        "StationID": "1001276"
      },
      {
        "Name": "福音",
        "Lat": 25.1143365915433,
        "Lon": 121.55056001317,
        "Sequence": 19,
        "StationID": "899"
      },
      {
        "Name": "陽明山國小",
        "Lat": 25.11785,
        "Lon": 121.5521,
        "Sequence": 20,
        "StationID": "14417"
      },
      {
        "Name": "新安路一",
        "Lat": 25.11927,
        "Lon": 121.55368,
        "Sequence": 21,
        "StationID": "60148"
      },
      {
        "Name": "水墘",
        "Lat": 25.12018,
        "Lon": 121.55467,
        "Sequence": 22,
        "StationID": "60149"
      },
      {
        "Name": "居安新村",
        "Lat": 25.12111,
        "Lon": 121.55526,
        "Sequence": 23,
        "StationID": "60151"
      },
      {
        "Name": "聚會所",
        "Lat": 25.123202,
        "Lon": 121.554342,
        "Sequence": 24,
        "StationID": "1165610404"
      },
      {
        "Name": "新安路二",
        "Lat": 25.12447,
        "Lon": 121.55329,
        "Sequence": 25,
        "StationID": "60147"
      },
      {
        "Name": "新安路三",
        "Lat": 25.12481,
        "Lon": 121.55453,
        "Sequence": 26,
        "StationID": "60146"
      },
      {
        "Name": "新安路四",
        "Lat": 25.12476,
        "Lon": 121.55633,
        "Sequence": 27,
        "StationID": "60145"
      },
      {
        "Name": "新安路五南站",
        "Lat": 25.12679156726714,
        "Lon": 121.55699634780694,
        "Sequence": 28,
        "StationID": "1165606335"
      },
      {
        "Name": "新安路五",
        "Lat": 25.12752,
        "Lon": 121.55669,
        "Sequence": 29,
        "StationID": "60144"
      },
      {
        "Name": "新安路六",
        "Lat": 25.12921,
        "Lon": 121.55513,
        "Sequence": 30,
        "StationID": "873"
      },
      {
        "Name": "新安路七",
        "Lat": 25.130167,
        "Lon": 121.554455,
        "Sequence": 31,
        "StationID": "1165604690"
      },
      {
        "Name": "新安里西站",
        "Lat": 25.13115,
        "Lon": 121.55444,
        "Sequence": 32,
        "StationID": "868"
      },
      {
        "Name": "新安里中站",
        "Lat": 25.13221,
        "Lon": 121.55635,
        "Sequence": 33,
        "StationID": "4900"
      },
      {
        "Name": "燒庚寮",
        "Lat": 25.13176,
        "Lon": 121.55701,
        "Sequence": 34,
        "StationID": "60143"
      }
    ]
  },
  {
    "Route": "小17",
    "SubRoute": "小17經莊頂",
    "Direction": 1,
    "Stops": [
      {
        "Name": "新安里",
        "Lat": 25.13046,
        "Lon": 121.55715,
        "Sequence": 1,
        "StationID": "866"
      },
      {
        "Name": "新安路五",
        "Lat": 25.12764,
        "Lon": 121.55665,
        "Sequence": 2,
        "StationID": "872"
      },
      {
        "Name": "新安路四",
        "Lat": 25.12497,
        "Lon": 121.55668,
        "Sequence": 3,
        "StationID": "874"
      },
      {
        "Name": "新安路三",
        "Lat": 25.1248,
        "Lon": 121.55458,
        "Sequence": 4,
        "StationID": "871"
      },
      {
        "Name": "新安路二",
        "Lat": 25.12453,
        "Lon": 121.55328,
        "Sequence": 5,
        "StationID": "870"
      },
      {
        "Name": "聚會所",
        "Lat": 25.12314376,
        "Lon": 121.5541032,
        "Sequence": 6,
        "StationID": "1165610405"
      },
      {
        "Name": "居安新村",
        "Lat": 25.12126,
        "Lon": 121.5552,
        "Sequence": 7,
        "StationID": "60152"
      },
      {
        "Name": "水墘",
        "Lat": 25.12038771,
        "Lon": 121.5544359,
        "Sequence": 8,
        "StationID": "60150"
      },
      {
        "Name": "新安路一",
        "Lat": 25.11936571,
        "Lon": 121.5535254,
        "Sequence": 9,
        "StationID": "869"
      },
      {
        "Name": "陽明山國小",
        "Lat": 25.11799052630939,
        "Lon": 121.55202263410142,
        "Sequence": 10,
        "StationID": "854"
      },
      {
        "Name": "福音",
        "Lat": 25.1140124257428,
        "Lon": 121.550310398218,
        "Sequence": 11,
        "StationID": "1000614"
      },
      {
        "Name": "陽明教養院",
        "Lat": 25.1104191040479,
        "Lon": 121.54836175021,
        "Sequence": 12,
        "StationID": "861"
      },
      {
        "Name": "永福(林語堂故居)",
        "Lat": 25.1095275064689,
        "Lon": 121.547154139609,
        "Sequence": 13,
        "StationID": "679"
      },
      {
        "Name": "永嶺",
        "Lat": 25.1068495776368,
        "Lon": 121.545213090496,
        "Sequence": 14,
        "StationID": "683"
      },
      {
        "Name": "拔子埔",
        "Lat": 25.104977,
        "Lon": 121.543591,
        "Sequence": 15,
        "StationID": "723"
      },
      {
        "Name": "嶺頭",
        "Lat": 25.1031851590031,
        "Lon": 121.541536360844,
        "Sequence": 16,
        "StationID": "937"
      },
      {
        "Name": "華興中學",
        "Lat": 25.104112892574,
        "Lon": 121.538359218545,
        "Sequence": 17,
        "StationID": "1000615"
      },
      {
        "Name": "芝蘭新村",
        "Lat": 25.1072897892355,
        "Lon": 121.537298719254,
        "Sequence": 18,
        "StationID": "749"
      },
      {
        "Name": "岩山里一",
        "Lat": 25.10331,
        "Lon": 121.53692,
        "Sequence": 19,
        "StationID": "712"
      },
      {
        "Name": "岩山里",
        "Lat": 25.1018780140349,
        "Lon": 121.537579799115,
        "Sequence": 20,
        "StationID": "709"
      },
      {
        "Name": "泰北中學",
        "Lat": 25.0977513146504,
        "Lon": 121.534030294965,
        "Sequence": 21,
        "StationID": "778"
      },
      {
        "Name": "士林官邸(中正)",
        "Lat": 25.0965,
        "Lon": 121.53144,
        "Sequence": 22,
        "StationID": "3953"
      },
      {
        "Name": "福林國小",
        "Lat": 25.0962,
        "Lon": 121.52976,
        "Sequence": 23,
        "StationID": "3954"
      },
      {
        "Name": "捷運士林站(中正)",
        "Lat": 25.095583,
        "Lon": 121.526622,
        "Sequence": 24,
        "StationID": "797"
      },
      {
        "Name": "士林國小",
        "Lat": 25.094058815207,
        "Lon": 121.524789386925,
        "Sequence": 25,
        "StationID": "5040"
      },
      {
        "Name": "士林分局",
        "Lat": 25.09049,
        "Lon": 121.525833,
        "Sequence": 26,
        "StationID": "571"
      },
      {
        "Name": "捷運劍潭站(中山)",
        "Lat": 25.085353,
        "Lon": 121.525327,
        "Sequence": 27,
        "StationID": "803"
      }
    ]
  }
]