[
  {
    "Route": "藍29",
    "SubRoute": "藍29",
    "Direction": 0,
    "Stops": [
      {
        "Name": "華中河濱公園",
        "Lat": 25.0171711735736,
        "Lon": 121.496094355207,
        "Sequence": 1,
        "StationID": "1800"
      },
      {
        "Name": "果菜市場",
        "Lat": 25.01987,
        "Lon": 121.497706,
        "Sequence": 2,
        "StationID": "4622"
      },
      {
        "Name": "光仁國小",
        "Lat": 25.02109899,
        "Lon": 121.5000872,
        "Sequence": 3,
        "StationID": "1750"
      },
      {
        "Name": "青年路派出所",
        "Lat": 25.02196658,
        "Lon": 121.5020719,
        "Sequence": 4,
        "StationID": "1775"
      },
      {
        "Name": "青年路",
        "Lat": 25.023224075638726,
        "Lon": 121.50277864902843,
        "Sequence": 5,
        "StationID": "4644"
      },
      {
        "Name": "中正新城",
        "Lat": 25.02477910385403,
        "Lon": 121.50333348774862,
        "Sequence": 6,
        "StationID": "4643"
      },
      {
        "Name": "青年社區",
        "Lat": 25.025478,
        "Lon": 121.504647,
        "Sequence": 7,
        "StationID": "4642"
      },
      {
        "Name": "青年公園(青年)",
        "Lat": 25.02596466,
        "Lon": 121.5062868,
        "Sequence": 8,
        "StationID": "4641"
      },
      {
        "Name": "青年公園(國興)",
        "Lat": 25.0253,
        "Lon": 121.50712,
        "Sequence": 9,
        "StationID": "4620"
      },
      {
        "Name": "國興路口一",
        "Lat": 25.0245858237515,
        "Lon": 121.508810147614,
        "Sequence": 10,
        "StationID": "1790"
      },
      {
        "Name": "古亭國中",
        "Lat": 25.02463291,
        "Lon": 121.5098799,
        "Sequence": 11,
        "StationID": "1748"
      },
      {
        "Name": "萬華醫院",
        "Lat": 25.02391,
        "Lon": 121.50982,
        "Sequence": 12,
        "StationID": "1817"
      },
      {
        "Name": "國興社區",
        "Lat": 25.02354132567501,
        "Lon": 121.50853091651936,
        "Sequence": 13,
        "StationID": "1787"
      },
      {
        "Name": "國興路口一",
        "Lat": 25.0245858237515,
        "Lon": 121.508810147614,
        "Sequence": 14,
        "StationID": "1790"
      },
      {
        "Name": "國興路口",
        "Lat": 25.025757,
        "Lon": 121.508379,
        "Sequence": 15,
        "StationID": "4602"
      },
      {
        "Name": "中華南海路口",
        "Lat": 25.0272364792619,
        "Lon": 121.506661163485,
        "Sequence": 16,
        "StationID": "4603"
      },
      {
        "Name": "南機場公寓",
        "Lat": 25.0285917595947,
        "Lon": 121.50540777894,
        "Sequence": 17,
        "StationID": "4604"
      },
      {
        "Name": "西藏路",
        "Lat": 25.029736849609808,
        "Lon": 121.50169730318575,
        "Sequence": 18,
        "StationID": "4636"
      },
      {
        "Name": "萬大路",
        "Lat": 25.0308055,
        "Lon": 121.500635,
        "Sequence": 19,
        "StationID": "4638"
      },
      {
        "Name": "莒光路口",
        "Lat": 25.031831103587,
        "Lon": 121.500615375179,
        "Sequence": 20,
        "StationID": "1795"
      },
      {
        "Name": "萬華車站",
        "Lat": 25.033974,
        "Lon": 121.501128,
        "Sequence": 21,
        "StationID": "1814"
      },
      {
        "Name": "龍山寺(剝皮寮)",
        "Lat": 25.036891,
        "Lon": 121.501585,
        "Sequence": 22,
        "StationID": "1165605675"
      },
      {
        "Name": "老松國小",
        "Lat": 25.03827637,
        "Lon": 121.502118,
        "Sequence": 23,
        "StationID": "1751"
      },
      {
        "Name": "昆明活動中心",
        "Lat": 25.03871131,
        "Lon": 121.5040228,
        "Sequence": 24,
        "StationID": "1808"
      },
      {
        "Name": "昆明街",
        "Lat": 25.0422,
        "Lon": 121.50469,
        "Sequence": 25,
        "StationID": "232"
      },
      {
        "Name": "市立中醫醫院",
        "Lat": 25.04463,
        "Lon": 121.50533,
        "Sequence": 26,
        "StationID": "5039"
      },
      {
        "Name": "福星公園",
        "Lat": 25.04596835,
        "Lon": 121.5056914,
        "Sequence": 27,
        "StationID": "1001449"
      },
      {
        "Name": "洛陽停車場",
        "Lat": 25.047537,
        "Lon": 121.50613,
        "Sequence": 28,
        "StationID": "1165610156"
      },
      {
        "Name": "聯合醫院中興院區",
        "Lat": 25.05025178,
        "Lon": 121.5092776,
        "Sequence": 29,
        "StationID": "1483"
      }
    ]
  },
  {
    "Route": "藍29",
    "SubRoute": "藍29",
    "Direction": 1,
    "Stops": [
      {
        "Name": "捷運北門站",
        "Lat": 25.049002,
        "Lon": 121.510134,
        "Sequence": 1,
        "StationID": "1000077"
      },
      {
        "Name": "萬華運動中心",
        "Lat": 25.04701,
        "Lon": 121.50705,
        "Sequence": 2,
        "StationID": "1816"
      },
      {
        "Name": "漢口中華路口",
        "Lat": 25.045299,
        "Lon": 121.507966,
        "Sequence": 3,
        "StationID": "486"
      },
      {
        "Name": "中華路北站",
        "Lat": 25.0445846194834,
        "Lon": 121.508765096201,
        "Sequence": 4,
        "StationID": "1001169"
      },
      {
        "Name": "捷運西門站",
        "Lat": 25.041649236993,
        "Lon": 121.507887356667,
        "Sequence": 5,
        "StationID": "4608"
      },
      {
        "Name": "小南門",
        "Lat": 25.0380081419194,
        "Lon": 121.506812536211,
        "Sequence": 6,
        "StationID": "1975"
      },
      {
        "Name": "桂林昆明街口",
        "Lat": 25.0381,
        "Lon": 121.5043,
        "Sequence": 7,
        "StationID": "1761"
      },
      {
        "Name": "老松國小",
        "Lat": 25.0382620086784,
        "Lon": 121.502569664855,
        "Sequence": 8,
        "StationID": "4613"
      },
      {
        "Name": "龍山寺(康定)",
        "Lat": 25.03630505,
        "Lon": 121.5012851,
        "Sequence": 9,
        "StationID": "1000242"
      },
      {
        "Name": "萬華車站",
        "Lat": 25.03486363,
        "Lon": 121.5010585,
        "Sequence": 10,
        "StationID": "4619"
      },
      {
        "Name": "莒光路口",
        "Lat": 25.03176,
        "Lon": 121.50051,
        "Sequence": 11,
        "StationID": "1796"
      },
      {
        "Name": "萬大路",
        "Lat": 25.030744,
        "Lon": 121.500473,
        "Sequence": 12,
        "StationID": "1811"
      },
      {
        "Name": "西藏路",
        "Lat": 25.029553445358935,
        "Lon": 121.50208327245365,
        "Sequence": 13,
        "StationID": "1758"
      },
      {
        "Name": "廈安里",
        "Lat": 25.02966,
        "Lon": 121.50438,
        "Sequence": 14,
        "StationID": "20344"
      },
      {
        "Name": "南機場公寓",
        "Lat": 25.028384629531,
        "Lon": 121.505465333891,
        "Sequence": 15,
        "StationID": "1777"
      },
      {
        "Name": "中華南海路口",
        "Lat": 25.0273435686053,
        "Lon": 121.506437964545,
        "Sequence": 16,
        "StationID": "1743"
      },
      {
        "Name": "國興路口",
        "Lat": 25.0256215629554,
        "Lon": 121.508316077824,
        "Sequence": 17,
        "StationID": "1788"
      },
      {
        "Name": "古亭國中",
        "Lat": 25.02467,
        "Lon": 121.5098,
        "Sequence": 18,
        "StationID": "1748"
      },
      {
        "Name": "萬華醫院",
        "Lat": 25.02388,
        "Lon": 121.50982,
        "Sequence": 19,
        "StationID": "1817"
      },
      {
        "Name": "國興社區",
        "Lat": 25.02354132567501,
        "Lon": 121.50853091651936,
        "Sequence": 20,
        "StationID": "1787"
      },
      {
        "Name": "青年公園(國興)",
        "Lat": 25.024607,
        "Lon": 121.507953,
        "Sequence": 21,
        "StationID": "253"
      },
      {
        "Name": "青年公園(青年)",
        "Lat": 25.02602624821444,
        "Lon": 121.50598380051417,
        "Sequence": 22,
        "StationID": "1771"
      },
      {
        "Name": "青年社區",
        "Lat": 25.025473,
        "Lon": 121.504417,
        "Sequence": 23,
        "StationID": "1772"
      },
      {
        "Name": "中正新城",
        "Lat": 25.0248005786137,
        "Lon": 121.503183945666,
        "Sequence": 24,
        "StationID": "1740"
      },
      {
        "Name": "青年路",
        "Lat": 25.02249119957861,
        "Lon": 121.5025183827621,
        "Sequence": 25,
        "StationID": "1773"
      },
      {
        "Name": "青年路派出所",
        "Lat": 25.022116707019617,
        "Lon": 121.5020920746352,
        "Sequence": 26,
        "StationID": "4624"
      },
      {
        "Name": "光仁國小",
        "Lat": 25.021489599820963,
        "Lon": 121.50066027111731,
        "Sequence": 27,
        "StationID": "4623"
      },
      {
        "Name": "果菜市場",
        "Lat": 25.01942,
        "Lon": 121.497234,
        "Sequence": 28,
        "StationID": "1165604854"
      },
      {
        "Name": "華中河濱公園",
        "Lat": 25.01714,
        "Lon": 121.49565,
        "Sequence": 29,
        "StationID": "1799"
      }
    ]
  }
]