[
  {
    "Route": "679",
    "SubRoute": "679路",
    "Direction": 0,
    "Stops": [
      {
        "Name": "捷運動物園站",
        "Lat": 24.99881,
        "Lon": 121.58021,
        "Sequence": 1,
        "StationID": "2442"
      },
      {
        "Name": "貓纜動物園站",
        "Lat": 24.9968,
        "Lon": 121.576778,
        "Sequence": 2,
        "StationID": "1000436"
      },
      {
        "Name": "萬壽橋頭(新光)",
        "Lat": 24.993482,
        "Lon": 121.57363,
        "Sequence": 3,
        "StationID": "2512"
      },
      {
        "Name": "萬壽橋頭(秀明)",
        "Lat": 24.99161,
        "Lon": 121.574153,
        "Sequence": 4,
        "StationID": "2510"
      },
      {
        "Name": "萬興國小",
        "Lat": 24.989679,
        "Lon": 121.576757,
        "Sequence": 5,
        "StationID": "2519"
      },
      {
        "Name": "新光路口",
        "Lat": 24.9880845060964,
        "Lon": 121.573881732316,
        "Sequence": 6,
        "StationID": "1000854"
      },
      {
        "Name": "指南路",
        "Lat": 24.987746922127,
        "Lon": 121.56997997801,
        "Sequence": 7,
        "StationID": "1000855"
      },
      {
        "Name": "木柵市場",
        "Lat": 24.98794462737213,
        "Lon": 121.5686729036256,
        "Sequence": 8,
        "StationID": "2384"
      },
      {
        "Name": "文山行政中心",
        "Lat": 24.98976355883173,
        "Lon": 121.56980715638664,
        "Sequence": 9,
        "StationID": "2380"
      },
      {
        "Name": "萬壽橋頭(木柵)",
        "Lat": 24.9913142071305,
        "Lon": 121.57111522305,
        "Sequence": 10,
        "StationID": "1000541"
      },
      {
        "Name": "萬芳路口",
        "Lat": 24.99360167,
        "Lon": 121.5716055,
        "Sequence": 11,
        "StationID": "2499"
      },
      {
        "Name": "木柵高工",
        "Lat": 24.996044970003638,
        "Lon": 121.57232800362569,
        "Sequence": 12,
        "StationID": "1001413"
      },
      {
        "Name": "捷運木柵站",
        "Lat": 24.9978733892446,
        "Lon": 121.574371590302,
        "Sequence": 13,
        "StationID": "2440"
      },
      {
        "Name": "博嘉國小",
        "Lat": 24.99899,
        "Lon": 121.57533,
        "Sequence": 14,
        "StationID": "2454"
      },
      {
        "Name": "風動石",
        "Lat": 25.00102,
        "Lon": 121.57937,
        "Sequence": 15,
        "StationID": "309"
      },
      {
        "Name": "石壁坑",
        "Lat": 25.00261,
        "Lon": 121.58301,
        "Sequence": 16,
        "StationID": "2400"
      },
      {
        "Name": "萬福橋",
        "Lat": 25.0029972947861,
        "Lon": 121.584612472655,
        "Sequence": 17,
        "StationID": "2518"
      },
      {
        "Name": "象頭埔",
        "Lat": 25.00068878171876,
        "Lon": 121.58947304948941,
        "Sequence": 18,
        "StationID": "2480"
      },
      {
        "Name": "富德",
        "Lat": 24.9998141769425,
        "Lon": 121.590552451575,
        "Sequence": 19,
        "StationID": "4143"
      },
      {
        "Name": "文和橋",
        "Lat": 25.0022030300169,
        "Lon": 121.595183821322,
        "Sequence": 20,
        "StationID": "12218"
      },
      {
        "Name": "富德里",
        "Lat": 25.004447,
        "Lon": 121.596216,
        "Sequence": 21,
        "StationID": "5002"
      },
      {
        "Name": "草地尾",
        "Lat": 25.004696,
        "Lon": 121.598124,
        "Sequence": 22,
        "StationID": "2828"
      },
      {
        "Name": "萬順寮",
        "Lat": 25.0038538453324,
        "Lon": 121.600788292728,
        "Sequence": 23,
        "StationID": "12205"
      },
      {
        "Name": "東南科技大學",
        "Lat": 25.00231,
        "Lon": 121.604254,
        "Sequence": 24,
        "StationID": "2826"
      },
      {
        "Name": "台新工廠",
        "Lat": 25.001691820229,
        "Lon": 121.60600921462,
        "Sequence": 25,
        "StationID": "2825"
      },
      {
        "Name": "深坑郵局",
        "Lat": 25.0009612914181,
        "Lon": 121.609715380116,
        "Sequence": 26,
        "StationID": "12219"
      },
      {
        "Name": "深坑",
        "Lat": 25.0011405921787,
        "Lon": 121.612128615622,
        "Sequence": 27,
        "StationID": "60125"
      },
      {
        "Name": "深坑區公所",
        "Lat": 25.0024231544723,
        "Lon": 121.614846681896,
        "Sequence": 28,
        "StationID": "12209"
      },
      {
        "Name": "深坑國小",
        "Lat": 25.0030922336576,
        "Lon": 121.616570605411,
        "Sequence": 29,
        "StationID": "1001073"
      },
      {
        "Name": "變電所",
        "Lat": 25.0040712956543,
        "Lon": 121.619062477439,
        "Sequence": 30,
        "StationID": "12207"
      },
      {
        "Name": "草地頭",
        "Lat": 25.005121,
        "Lon": 121.622282,
        "Sequence": 31,
        "StationID": "1165604700"
      },
      {
        "Name": "民華影城",
        "Lat": 25.0083431949348,
        "Lon": 121.62110021035,
        "Sequence": 32,
        "StationID": "4714"
      },
      {
        "Name": "世新山莊",
        "Lat": 25.00937,
        "Lon": 121.62065,
        "Sequence": 33,
        "StationID": "4715"
      },
      {
        "Name": "深坑區清潔隊",
        "Lat": 25.0105193440793,
        "Lon": 121.621489074884,
        "Sequence": 34,
        "StationID": "4716"
      },
      {
        "Name": "王厝",
        "Lat": 25.01310198,
        "Lon": 121.622431,
        "Sequence": 35,
        "StationID": "20234"
      },
      {
        "Name": "崩山",
        "Lat": 25.0140743021165,
        "Lon": 121.622976136162,
        "Sequence": 36,
        "StationID": "1000086"
      },
      {
        "Name": "崩山頂厝",
        "Lat": 25.01446,
        "Lon": 121.62507,
        "Sequence": 37,
        "StationID": "1165604739"
      },
      {
        "Name": "青山雄觀南區",
        "Lat": 25.01496,
        "Lon": 121.62613,
        "Sequence": 38,
        "StationID": "4717"
      },
      {
        "Name": "青山雄觀北區",
        "Lat": 25.0161533237965,
        "Lon": 121.626589625706,
        "Sequence": 39,
        "StationID": "4718"
      },
      {
        "Name": "風格街",
        "Lat": 25.01673,
        "Lon": 121.62536,
        "Sequence": 40,
        "StationID": "4719"
      },
      {
        "Name": "護國九天宮",
        "Lat": 25.0181521125487,
        "Lon": 121.623444406143,
        "Sequence": 41,
        "StationID": "4720"
      },
      {
        "Name": "南深路80號",
        "Lat": 25.019693,
        "Lon": 121.622274,
        "Sequence": 42,
        "StationID": "1165604582"
      },
      {
        "Name": "福音山莊",
        "Lat": 25.021787596715,
        "Lon": 121.623751641276,
        "Sequence": 43,
        "StationID": "4721"
      },
      {
        "Name": "豐臺煤礦",
        "Lat": 25.02497284,
        "Lon": 121.6244801,
        "Sequence": 44,
        "StationID": "4722"
      },
      {
        "Name": "山豬窟",
        "Lat": 25.0265278209575,
        "Lon": 121.623735843062,
        "Sequence": 45,
        "StationID": "4723"
      },
      {
        "Name": "福聖宮(山水綠生態公園)",
        "Lat": 25.02983169705,
        "Lon": 121.621327582177,
        "Sequence": 46,
        "StationID": "4724"
      },
      {
        "Name": "巴黎春天社區",
        "Lat": 25.03724,
        "Lon": 121.62076,
        "Sequence": 47,
        "StationID": "4725"
      },
      {
        "Name": "舊莊國小",
        "Lat": 25.039526,
        "Lon": 121.621016,
        "Sequence": 48,
        "StationID": "50029"
      },
      {
        "Name": "舊莊一站",
        "Lat": 25.0409122787157,
        "Lon": 121.619044433004,
        "Sequence": 49,
        "StationID": "50027"
      },
      {
        "Name": "中研院",
        "Lat": 25.043422,
        "Lon": 121.616561,
        "Sequence": 50,
        "StationID": "50026"
      },
      {
        "Name": "中研新村",
        "Lat": 25.045074,
        "Lon": 121.615639,
        "Sequence": 51,
        "StationID": "1000313"
      },
      {
        "Name": "圓拱橋",
        "Lat": 25.047462,
        "Lon": 121.615728,
        "Sequence": 52,
        "StationID": "50022"
      },
      {
        "Name": "南港水廠",
        "Lat": 25.048610235261958,
        "Lon": 121.61601678871844,
        "Sequence": 53,
        "StationID": "50021"
      },
      {
        "Name": "誠正國中",
        "Lat": 25.0515460114719,
        "Lon": 121.61603141641,
        "Sequence": 54,
        "StationID": "50020"
      },
      {
        "Name": "南港展覽館",
        "Lat": 25.05534,
        "Lon": 121.6156,
        "Sequence": 55,
        "StationID": "1664"
      },
      {
        "Name": "南港",
        "Lat": 25.055463507638656,
        "Lon": 121.61366085593893,
        "Sequence": 56,
        "StationID": "1660"
      },
      {
        "Name": "南港高工(南港路)",
        "Lat": 25.0549683149017,
        "Lon": 121.609776304165,
        "Sequence": 57,
        "StationID": "1000253"
      },
      {
        "Name": "南港車站",
        "Lat": 25.05340065,
        "Lon": 121.6069591,
        "Sequence": 58,
        "StationID": "4848"
      }
    ]
  },
  {
    "Route": "679",
    "SubRoute": "679路",
    "Direction": 1,
    "Stops": [
      {
        "Name": "南港行政中心(南港車站)",
        "Lat": 25.05433,
        "Lon": 121.60712,
        "Sequence": 1,
        "StationID": "1000272"
      },
      {
        "Name": "南港高工(南港路)",
        "Lat": 25.05493375102052,
        "Lon": 121.61066212694543,
        "Sequence": 2,
        "StationID": "50019"
      },
      {
        "Name": "南港",
        "Lat": 25.0551240859182,
        "Lon": 121.613597939232,
        "Sequence": 3,
        "StationID": "1643"
      },
      {
        "Name": "南港展覽館",
        "Lat": 25.054699,
        "Lon": 121.616456,
        "Sequence": 4,
        "StationID": "1165606825"
      },
      {
        "Name": "誠正國中",
        "Lat": 25.0518036904539,
        "Lon": 121.615865875754,
        "Sequence": 5,
        "StationID": "1711"
      },
      {
        "Name": "南港水廠",
        "Lat": 25.049543,
        "Lon": 121.615625,
        "Sequence": 6,
        "StationID": "1650"
      },
      {
        "Name": "圓拱橋",
        "Lat": 25.047199,
        "Lon": 121.615363,
        "Sequence": 7,
        "StationID": "1707"
      },
      {
        "Name": "中研新村",
        "Lat": 25.044722099556466,
        "Lon": 121.61558513647303,
        "Sequence": 8,
        "StationID": "1611"
      },
      {
        "Name": "中研院",
        "Lat": 25.04313,
        "Lon": 121.61648,
        "Sequence": 9,
        "StationID": "1610"
      },
      {
        "Name": "舊莊一站",
        "Lat": 25.04117512726169,
        "Lon": 121.61838014471944,
        "Sequence": 10,
        "StationID": "1724"
      },
      {
        "Name": "舊莊國小",
        "Lat": 25.03984242,
        "Lon": 121.6202488,
        "Sequence": 11,
        "StationID": "3891"
      },
      {
        "Name": "巴黎春天社區",
        "Lat": 25.0372260938247,
        "Lon": 121.620521793919,
        "Sequence": 12,
        "StationID": "4726"
      },
      {
        "Name": "臨時站四",
        "Lat": 25.0310509558543,
        "Lon": 121.621696656061,
        "Sequence": 13,
        "StationID": "4727"
      },
      {
        "Name": "福聖宮(山水綠生態公園)",
        "Lat": 25.0299420689211,
        "Lon": 121.621080691049,
        "Sequence": 14,
        "StationID": "4728"
      },
      {
        "Name": "山豬窟",
        "Lat": 25.026299,
        "Lon": 121.623374,
        "Sequence": 15,
        "StationID": "4729"
      },
      {
        "Name": "豐臺煤礦",
        "Lat": 25.0253707817443,
        "Lon": 121.62414173119,
        "Sequence": 16,
        "StationID": "4730"
      },
      {
        "Name": "臨時站一",
        "Lat": 25.024,
        "Lon": 121.62437,
        "Sequence": 17,
        "StationID": "1165606445"
      },
      {
        "Name": "福音山莊",
        "Lat": 25.0219121211137,
        "Lon": 121.623535298122,
        "Sequence": 18,
        "StationID": "4731"
      },
      {
        "Name": "南深路80號",
        "Lat": 25.019362,
        "Lon": 121.622188,
        "Sequence": 19,
        "StationID": "1165604583"
      },
      {
        "Name": "護國九天宮",
        "Lat": 25.018036,
        "Lon": 121.623266,
        "Sequence": 20,
        "StationID": "4732"
      },
      {
        "Name": "風格街",
        "Lat": 25.01654,
        "Lon": 121.62543,
        "Sequence": 21,
        "StationID": "4733"
      },
      {
        "Name": "青山雄觀北區",
        "Lat": 25.0159775344026,
        "Lon": 121.626402813135,
        "Sequence": 22,
        "StationID": "4734"
      },
      {
        "Name": "青山雄觀南區",
        "Lat": 25.0149941422184,
        "Lon": 121.625690947336,
        "Sequence": 23,
        "StationID": "4735"
      },
      {
        "Name": "崩山頂厝",
        "Lat": 25.01459,
        "Lon": 121.62513,
        "Sequence": 24,
        "StationID": "1165604740"
      },
      {
        "Name": "崩山",
        "Lat": 25.01486,
        "Lon": 121.62436,
        "Sequence": 25,
        "StationID": "1001391"
      },
      {
        "Name": "王厝",
        "Lat": 25.012338,
        "Lon": 121.622193,
        "Sequence": 26,
        "StationID": "20233"
      },
      {
        "Name": "深坑區清潔隊",
        "Lat": 25.0106851719167,
        "Lon": 121.621220132534,
        "Sequence": 27,
        "StationID": "4736"
      },
      {
        "Name": "世新山莊",
        "Lat": 25.00959,
        "Lon": 121.62058,
        "Sequence": 28,
        "StationID": "4737"
      },
      {
        "Name": "民華影城",
        "Lat": 25.008,
        "Lon": 121.620778073882,
        "Sequence": 29,
        "StationID": "4738"
      },
      {
        "Name": "草地頭",
        "Lat": 25.0046911438587,
        "Lon": 121.621668852284,
        "Sequence": 30,
        "StationID": "12202"
      },
      {
        "Name": "變電所",
        "Lat": 25.0039515057549,
        "Lon": 121.618530798628,
        "Sequence": 31,
        "StationID": "2843"
      },
      {
        "Name": "深坑國小",
        "Lat": 25.0033150747729,
        "Lon": 121.616794076485,
        "Sequence": 32,
        "StationID": "1001072"
      },
      {
        "Name": "深坑區公所",
        "Lat": 25.002433,
        "Lon": 121.614578,
        "Sequence": 33,
        "StationID": "12208"
      },
      {
        "Name": "深坑",
        "Lat": 25.001240884043,
        "Lon": 121.612074528182,
        "Sequence": 34,
        "StationID": "2830"
      },
      {
        "Name": "深坑郵局",
        "Lat": 25.001078,
        "Lon": 121.610017,
        "Sequence": 35,
        "StationID": "2837"
      },
      {
        "Name": "台新工廠",
        "Lat": 25.00185175143,
        "Lon": 121.606,
        "Sequence": 36,
        "StationID": "60120"
      },
      {
        "Name": "東南科技大學",
        "Lat": 25.0027777194038,
        "Lon": 121.603712640729,
        "Sequence": 37,
        "StationID": "60121"
      },
      {
        "Name": "萬順寮",
        "Lat": 25.003972883576,
        "Lon": 121.600780470525,
        "Sequence": 38,
        "StationID": "2839"
      },
      {
        "Name": "草地尾",
        "Lat": 25.00478612556,
        "Lon": 121.59836661839,
        "Sequence": 39,
        "StationID": "12204"
      },
      {
        "Name": "富德里",
        "Lat": 25.0042464092937,
        "Lon": 121.595983977281,
        "Sequence": 40,
        "StationID": "5001"
      },
      {
        "Name": "文和橋",
        "Lat": 25.00246,
        "Lon": 121.59504,
        "Sequence": 41,
        "StationID": "12217"
      },
      {
        "Name": "富德",
        "Lat": 24.999402832437188,
        "Lon": 121.5913505957924,
        "Sequence": 42,
        "StationID": "4144"
      },
      {
        "Name": "象頭埔",
        "Lat": 25.000950102464405,
        "Lon": 121.58954681023364,
        "Sequence": 43,
        "StationID": "56114"
      },
      {
        "Name": "萬福橋",
        "Lat": 25.0031479361546,
        "Lon": 121.585066207329,
        "Sequence": 44,
        "StationID": "56112"
      },
      {
        "Name": "石壁坑",
        "Lat": 25.0028393386766,
        "Lon": 121.583287778248,
        "Sequence": 45,
        "StationID": "56111"
      },
      {
        "Name": "風動石",
        "Lat": 25.0011783104188,
        "Lon": 121.579255519338,
        "Sequence": 46,
        "StationID": "2429"
      },
      {
        "Name": "博嘉國小",
        "Lat": 24.9993898137115,
        "Lon": 121.575395362596,
        "Sequence": 47,
        "StationID": "56110"
      },
      {
        "Name": "捷運木柵站",
        "Lat": 24.997735,
        "Lon": 121.57396,
        "Sequence": 48,
        "StationID": "56109"
      },
      {
        "Name": "木柵高工",
        "Lat": 24.9965014109618,
        "Lon": 121.572590803415,
        "Sequence": 49,
        "StationID": "1000543"
      },
      {
        "Name": "萬芳路口",
        "Lat": 24.9935653207503,
        "Lon": 121.571444566484,
        "Sequence": 50,
        "StationID": "2497"
      },
      {
        "Name": "萬壽橋頭(木柵)",
        "Lat": 24.9913094198003,
        "Lon": 121.570973024858,
        "Sequence": 51,
        "StationID": "1000521"
      },
      {
        "Name": "文山行政中心",
        "Lat": 24.990114359213134,
        "Lon": 121.56999253194654,
        "Sequence": 52,
        "StationID": "2381"
      },
      {
        "Name": "木柵市場",
        "Lat": 24.98849886,
        "Lon": 121.5685523,
        "Sequence": 53,
        "StationID": "50682"
      },
      {
        "Name": "永安街",
        "Lat": 24.98672,
        "Lon": 121.56893,
        "Sequence": 54,
        "StationID": "142"
      },
      {
        "Name": "指南路口",
        "Lat": 24.9871941238226,
        "Lon": 121.570722800802,
        "Sequence": 55,
        "StationID": "2426"
      },
      {
        "Name": "政大",
        "Lat": 24.9878362086283,
        "Lon": 121.574633255625,
        "Sequence": 56,
        "StationID": "2415"
      },
      {
        "Name": "萬興圖書館",
        "Lat": 24.989020423587586,
        "Lon": 121.57699279565435,
        "Sequence": 57,
        "StationID": "2520"
      },
      {
        "Name": "大誠高中",
        "Lat": 24.990413,
        "Lon": 121.576905,
        "Sequence": 58,
        "StationID": "2368"
      },
      {
        "Name": "萬壽橋頭(秀明)",
        "Lat": 24.991863,
        "Lon": 121.574627,
        "Sequence": 59,
        "StationID": "50671"
      },
      {
        "Name": "萬壽橋頭(新光)",
        "Lat": 24.992819,
        "Lon": 121.573853,
        "Sequence": 60,
        "StationID": "50669"
      },
      {
        "Name": "貓纜動物園站",
        "Lat": 24.9963006246947,
        "Lon": 121.576314002724,
        "Sequence": 61,
        "StationID": "2443"
      },
      {
        "Name": "捷運動物園站",
        "Lat": 24.99857,
        "Lon": 121.57996,
        "Sequence": 62,
        "StationID": "50672"
      }
    ]
  },
  {
    "Route": "679",
    "SubRoute": "679狗狗公車",
    "Direction": 0,
    "Stops": [
      {
        "Name": "捷運動物園站",
        "Lat": 24.99881,
        "Lon": 121.58021,
        "Sequence": 1,
        "StationID": "2442"
      },
      {
        "Name": "貓纜動物園站",
        "Lat": 24.9968,
        "Lon": 121.576778,
        "Sequence": 2,
        "StationID": "1000436"
      },
      {
        "Name": "萬壽橋頭(新光)",
        "Lat": 24.993482,
        "Lon": 121.57363,
        "Sequence": 3,
        "StationID": "2512"
      },
      {
        "Name": "萬壽橋頭(秀明)",
        "Lat": 24.99161,
        "Lon": 121.574153,
        "Sequence": 4,
        "StationID": "2510"
      },
      {
        "Name": "萬興國小",
        "Lat": 24.989679,
        "Lon": 121.576757,
        "Sequence": 5,
        "StationID": "2519"
      },
      {
        "Name": "新光路口",
        "Lat": 24.9880845060964,
        "Lon": 121.573881732316,
        "Sequence": 6,
        "StationID": "1000854"
      },
      {
        "Name": "指南路",
        "Lat": 24.987746922127,
        "Lon": 121.56997997801,
        "Sequence": 7,
        "StationID": "1000855"
      },
      {
        "Name": "木柵市場",
        "Lat": 24.98794462737213,
        "Lon": 121.5686729036256,
        "Sequence": 8,
        "StationID": "2384"
      },
      {
        "Name": "文山行政中心",
        "Lat": 24.98976355883173,
        "Lon": 121.56980715638664,
        "Sequence": 9,
        "StationID": "2380"
      },
      {
        "Name": "萬壽橋頭(木柵)",
        "Lat": 24.9913142071305,
        "Lon": 121.57111522305,
        "Sequence": 10,
        "StationID": "1000541"
      },
      {
        "Name": "萬芳路口",
        "Lat": 24.99360167,
        "Lon": 121.5716055,
        "Sequence": 11,
        "StationID": "2499"
      },
      {
        "Name": "木柵高工",
        "Lat": 24.996044970003638,
        "Lon": 121.57232800362569,
        "Sequence": 12,
        "StationID": "1001413"
      },
      {
        "Name": "捷運木柵站",
        "Lat": 24.9978733892446,
        "Lon": 121.574371590302,
        "Sequence": 13,
        "StationID": "2440"
      },
      {
        "Name": "博嘉國小",
        "Lat": 24.99899,
        "Lon": 121.57533,
        "Sequence": 14,
        "StationID": "2454"
      },
      {
        "Name": "風動石",
        "Lat": 25.00102,
        "Lon": 121.57937,
        "Sequence": 15,
        "StationID": "309"
      },
      {
        "Name": "石壁坑",
        "Lat": 25.00261,
        "Lon": 121.58301,
        "Sequence": 16,
        "StationID": "2400"
      },
      {
        "Name": "萬福橋",
        "Lat": 25.0029972947861,
        "Lon": 121.584612472655,
        "Sequence": 17,
        "StationID": "2518"
      },
      {
        "Name": "象頭埔",
        "Lat": 25.00068878171876,
        "Lon": 121.58947304948941,
        "Sequence": 18,
        "StationID": "2480"
      },
      {
        "Name": "富德",
        "Lat": 24.9998141769425,
        "Lon": 121.590552451575,
        "Sequence": 19,
        "StationID": "4143"
      },
      {
        "Name": "文和橋",
        "Lat": 25.0022030300169,
        "Lon": 121.595183821322,
        "Sequence": 20,
        "StationID": "12218"
      },
      {
        "Name": "富德里",
        "Lat": 25.004447,
        "Lon": 121.596216,
        "Sequence": 21,
        "StationID": "5002"
      },
      {
        "Name": "草地尾",
        "Lat": 25.004696,
        "Lon": 121.598124,
        "Sequence": 22,
        "StationID": "2828"
      },
      {
        "Name": "萬順寮",
        "Lat": 25.0038538453324,
        "Lon": 121.600788292728,
        "Sequence": 23,
        "StationID": "12205"
      },
      {
        "Name": "東南科技大學",
        "Lat": 25.00231,
        "Lon": 121.604254,
        "Sequence": 24,
        "StationID": "2826"
      },
      {
        "Name": "台新工廠",
        "Lat": 25.001691820229,
        "Lon": 121.60600921462,
        "Sequence": 25,
        "StationID": "2825"
      },
      {
        "Name": "深坑郵局",
        "Lat": 25.0009612914181,
        "Lon": 121.609715380116,
        "Sequence": 26,
        "StationID": "12219"
      },
      {
        "Name": "深坑",
        "Lat": 25.0011405921787,
        "Lon": 121.612128615622,
        "Sequence": 27,
        "StationID": "60125"
      },
      {
        "Name": "深坑區公所",
        "Lat": 25.0024231544723,
        "Lon": 121.614846681896,
        "Sequence": 28,
        "StationID": "12209"
      },
      {
        "Name": "深坑國小",
        "Lat": 25.0030922336576,
        "Lon": 121.616570605411,
        "Sequence": 29,
        "StationID": "1001073"
      },
      {
        "Name": "變電所",
        "Lat": 25.0040712956543,
        "Lon": 121.619062477439,
        "Sequence": 30,
        "StationID": "12207"
      },
      {
        "Name": "草地頭",
        "Lat": 25.005121,
        "Lon": 121.622282,
        "Sequence": 31,
        "StationID": "1165604700"
      },
      {
        "Name": "民華影城",
        "Lat": 25.0083431949348,
        "Lon": 121.62110021035,
        "Sequence": 32,
        "StationID": "4714"
      },
      {
        "Name": "世新山莊",
        "Lat": 25.00937,
        "Lon": 121.62065,
        "Sequence": 33,
        "StationID": "4715"
      },
      {
        "Name": "深坑區清潔隊",
        "Lat": 25.0105193440793,
        "Lon": 121.621489074884,
        "Sequence": 34,
        "StationID": "4716"
      },
      {
        "Name": "王厝",
        "Lat": 25.01310198,
        "Lon": 121.622431,
        "Sequence": 35,
        "StationID": "20234"
      },
      {
        "Name": "崩山",
        "Lat": 25.0140743021165,
        "Lon": 121.622976136162,
        "Sequence": 36,
        "StationID": "1000086"
      },
      {
        "Name": "崩山頂厝",
        "Lat": 25.01446,
        "Lon": 121.62507,
        "Sequence": 37,
        "StationID": "1165604739"
      },
      {
        "Name": "青山雄觀南區",
        "Lat": 25.01496,
        "Lon": 121.62613,
        "Sequence": 38,
        "StationID": "4717"
      },
      {
        "Name": "青山雄觀北區",
        "Lat": 25.0161533237965,
        "Lon": 121.626589625706,
        "Sequence": 39,
        "StationID": "4718"
      },
      {
        "Name": "風格街",
        "Lat": 25.01673,
        "Lon": 121.62536,
        "Sequence": 40,
        "StationID": "4719"
      },
      {
        "Name": "護國九天宮",
        "Lat": 25.0181521125487,
        "Lon": 121.623444406143,
        "Sequence": 41,
        "StationID": "4720"
      },
      {
        "Name": "南深路80號",
        "Lat": 25.019693,
        "Lon": 121.622274,
        "Sequence": 42,
        "StationID": "1165604582"
      },
      {
        "Name": "福音山莊",
        "Lat": 25.021787596715,
        "Lon": 121.623751641276,
        "Sequence": 43,
        "StationID": "4721"
      },
      {
        "Name": "豐臺煤礦",
        "Lat": 25.02497284,
        "Lon": 121.6244801,
        "Sequence": 44,
        "StationID": "4722"
      },
      {
        "Name": "山豬窟",
        "Lat": 25.0265278209575,
        "Lon": 121.623735843062,
        "Sequence": 45,
        "StationID": "4723"
      },
      {
        "Name": "福聖宮(山水綠生態公園)",
        "Lat": 25.02983169705,
        "Lon": 121.621327582177,
        "Sequence": 46,
        "StationID": "4724"
      },
      {
        "Name": "巴黎春天社區",
        "Lat": 25.03724,
        "Lon": 121.62076,
        "Sequence": 47,
        "StationID": "4725"
      },
      {
        "Name": "舊莊國小",
        "Lat": 25.039526,
        "Lon": 121.621016,
        "Sequence": 48,
        "StationID": "50029"
      },
      {
        "Name": "舊莊一站",
        "Lat": 25.0409122787157,
        "Lon": 121.619044433004,
        "Sequence": 49,
        "StationID": "50027"
      },
      {
        "Name": "中研院",
        "Lat": 25.043422,
        "Lon": 121.616561,
        "Sequence": 50,
        "StationID": "50026"
      },
      {
        "Name": "中研新村",
        "Lat": 25.045074,
        "Lon": 121.615639,
        "Sequence": 51,
        "StationID": "1000313"
      },
      {
        "Name": "圓拱橋",
        "Lat": 25.047462,
        "Lon": 121.615728,
        "Sequence": 52,
        "StationID": "50022"
      },
      {
        "Name": "南港水廠",
        "Lat": 25.048610235261958,
        "Lon": 121.61601678871844,
        "Sequence": 53,
        "StationID": "50021"
      },
      {
        "Name": "誠正國中",
        "Lat": 25.0515460114719,
        "Lon": 121.61603141641,
        "Sequence": 54,
        "StationID": "50020"
      },
      {
        "Name": "南港展覽館",
        "Lat": 25.05534,
        "Lon": 121.6156,
        "Sequence": 55,
        "StationID": "1664"
      },
      {
        "Name": "南港",
        "Lat": 25.055463507638656,
        "Lon": 121.61366085593893,
        "Sequence": 56,
        "StationID": "1660"
      },
      {
        "Name": "南港高工(南港路)",
        "Lat": 25.0549683149017,
        "Lon": 121.609776304165,
        "Sequence": 57,
        "StationID": "1000253"
      },
      {
        "Name": "南港車站",
        "Lat": 25.05340065,
        "Lon": 121.6069591,
        "Sequence": 58,
        "StationID": "4848"
      }
    ]
  },
  {
    "Route": "679",
    "SubRoute": "679狗狗公車",
    "Direction": 1,
    "Stops": [
      {
        "Name": "南港行政中心(南港車站)",
        "Lat": 25.05433,
        "Lon": 121.60712,
        "Sequence": 1,
        "StationID": "1000272"
      },
      {
        "Name": "南港高工(南港路)",
        "Lat": 25.05493375102052,
        "Lon": 121.61066212694543,
        "Sequence": 2,
        "StationID": "50019"
      },
      {
        "Name": "南港",
        "Lat": 25.0551240859182,
        "Lon": 121.613597939232,
        "Sequence": 3,
        "StationID": "1643"
      },
      {
        "Name": "南港展覽館",
        "Lat": 25.054699,
        "Lon": 121.616456,
        "Sequence": 4,
        "StationID": "1165606825"
      },
      {
        "Name": "誠正國中",
        "Lat": 25.0518036904539,
        "Lon": 121.615865875754,
        "Sequence": 5,
        "StationID": "1711"
      },
      {
        "Name": "南港水廠",
        "Lat": 25.049543,
        "Lon": 121.615625,
        "Sequence": 6,
        "StationID": "1650"
      },
      {
        "Name": "圓拱橋",
        "Lat": 25.047199,
        "Lon": 121.615363,
        "Sequence": 7,
        "StationID": "1707"
      },
      {
        "Name": "中研新村",
        "Lat": 25.044722099556466,
        "Lon": 121.61558513647303,
        "Sequence": 8,
        "StationID": "1611"
      },
      {
        "Name": "中研院",
        "Lat": 25.04313,
        "Lon": 121.61648,
        "Sequence": 9,
        "StationID": "1610"
      },
      {
        "Name": "舊莊一站",
        "Lat": 25.04117512726169,
        "Lon": 121.61838014471944,
        "Sequence": 10,
        "StationID": "1724"
      },
      {
        "Name": "舊莊國小",
        "Lat": 25.03984242,
        "Lon": 121.6202488,
        "Sequence": 11,
        "StationID": "3891"
      },
      {
        "Name": "巴黎春天社區",
        "Lat": 25.0372260938247,
        "Lon": 121.620521793919,
        "Sequence": 12,
        "StationID": "4726"
      },
      {
        "Name": "臨時站四",
        "Lat": 25.0310509558543,
        "Lon": 121.621696656061,
        "Sequence": 13,
        "StationID": "4727"
      },
      {
        "Name": "福聖宮(山水綠生態公園)",
        "Lat": 25.0299420689211,
        "Lon": 121.621080691049,
        "Sequence": 14,
        "StationID": "4728"
      },
      {
        "Name": "山豬窟",
        "Lat": 25.026299,
        "Lon": 121.623374,
        "Sequence": 15,
        "StationID": "4729"
      },
      {
        "Name": "豐臺煤礦",
        "Lat": 25.0253707817443,
        "Lon": 121.62414173119,
        "Sequence": 16,
        "StationID": "4730"
      },
      {
        "Name": "臨時站一",
        "Lat": 25.024,
        "Lon": 121.62437,
        "Sequence": 17,
        "StationID": "1165606445"
      },
      {
        "Name": "福音山莊",
        "Lat": 25.0219121211137,
        "Lon": 121.623535298122,
        "Sequence": 18,
        "StationID": "4731"
      },
      {
        "Name": "南深路80號",
        "Lat": 25.019362,
        "Lon": 121.622188,
        "Sequence": 19,
        "StationID": "1165604583"
      },
      {
        "Name": "護國九天宮",
        "Lat": 25.018036,
        "Lon": 121.623266,
        "Sequence": 20,
        "StationID": "4732"
      },
      {
        "Name": "風格街",
        "Lat": 25.01654,
        "Lon": 121.62543,
        "Sequence": 21,
        "StationID": "4733"
      },
      {
        "Name": "青山雄觀北區",
        "Lat": 25.0159775344026,
        "Lon": 121.626402813135,
        "Sequence": 22,
        "StationID": "4734"
      },
      {
        "Name": "青山雄觀南區",
        "Lat": 25.0149941422184,
        "Lon": 121.625690947336,
        "Sequence": 23,
        "StationID": "4735"
      },
      {
        "Name": "崩山頂厝",
        "Lat": 25.01459,
        "Lon": 121.62513,
        "Sequence": 24,
        "StationID": "1165604740"
      },
      {
        "Name": "崩山",
        "Lat": 25.01486,
        "Lon": 121.62436,
        "Sequence": 25,
        "StationID": "1001391"
      },
      {
        "Name": "王厝",
        "Lat": 25.012338,
        "Lon": 121.622193,
        "Sequence": 26,
        "StationID": "20233"
      },
      {
        "Name": "深坑區清潔隊",
        "Lat": 25.0106851719167,
        "Lon": 121.621220132534,
        "Sequence": 27,
        "StationID": "4736"
      },
      {
        "Name": "世新山莊",
        "Lat": 25.00959,
        "Lon": 121.62058,
        "Sequence": 28,
        "StationID": "4737"
      },
      {
        "Name": "民華影城",
        "Lat": 25.008,
        "Lon": 121.620778073882,
        "Sequence": 29,
        "StationID": "4738"
      },
      {
        "Name": "草地頭",
        "Lat": 25.0046911438587,
        "Lon": 121.621668852284,
        "Sequence": 30,
        "StationID": "12202"
      },
      {
        "Name": "變電所",
        "Lat": 25.0039515057549,
        "Lon": 121.618530798628,
        "Sequence": 31,
        "StationID": "2843"
      },
      {
        "Name": "深坑國小",
        "Lat": 25.0033150747729,
        "Lon": 121.616794076485,
        "Sequence": 32,
        "StationID": "1001072"
      },
      {
        "Name": "深坑區公所",
        "Lat": 25.002433,
        "Lon": 121.614578,
        "Sequence": 33,
        "StationID": "12208"
      },
      {
        "Name": "深坑",
        "Lat": 25.001240884043,
        "Lon": 121.612074528182,
        "Sequence": 34,
        "StationID": "2830"
      },
      {
        "Name": "深坑郵局",
        "Lat": 25.001078,
        "Lon": 121.610017,
        "Sequence": 35,
        "StationID": "2837"
      },
      {
        "Name": "台新工廠",
        "Lat": 25.00185175143,
        "Lon": 121.606,
        "Sequence": 36,
        "StationID": "60120"
      },
      {
        "Name": "東南科技大學",
        "Lat": 25.0027777194038,
        "Lon": 121.603712640729,
        "Sequence": 37,
        "StationID": "60121"
      },
      {
        "Name": "萬順寮",
        "Lat": 25.003972883576,
        "Lon": 121.600780470525,
        "Sequence": 38,
        "StationID": "2839"
      },
      {
        "Name": "草地尾",
        "Lat": 25.00478612556,
        "Lon": 121.59836661839,
        "Sequence": 39,
        "StationID": "12204"
      },
      {
        "Name": "富德里",
        "Lat": 25.0042464092937,
        "Lon": 121.595983977281,
        "Sequence": 40,
        "StationID": "5001"
      },
      {
        "Name": "文和橋",
        "Lat": 25.00246,
        "Lon": 121.59504,
        "Sequence": 41,
        "StationID": "12217"
      },
      {
        "Name": "富德",
        "Lat": 24.999402832437188,
        "Lon": 121.5913505957924,
        "Sequence": 42,
        "StationID": "4144"
      },
      {
        "Name": "象頭埔",
        "Lat": 25.000950102464405,
        "Lon": 121.58954681023364,
        "Sequence": 43,
        "StationID": "56114"
      },
      {
        "Name": "萬福橋",
        "Lat": 25.0031479361546,
        "Lon": 121.585066207329,
        "Sequence": 44,
        "StationID": "56112"
      },
      {
        "Name": "石壁坑",
        "Lat": 25.0028393386766,
        "Lon": 121.583287778248,
        "Sequence": 45,
        "StationID": "56111"
      },
      {
        "Name": "風動石",
        "Lat": 25.0011783104188,
        "Lon": 121.579255519338,
        "Sequence": 46,
        "StationID": "2429"
      },
      {
        "Name": "博嘉國小",
        "Lat": 24.9993898137115,
        "Lon": 121.575395362596,
        "Sequence": 47,
        "StationID": "56110"
      },
      {
        "Name": "捷運木柵站",
        "Lat": 24.997735,
        "Lon": 121.57396,
        "Sequence": 48,
        "StationID": "56109"
      },
      {
        "Name": "木柵高工",
        "Lat": 24.9965014109618,
        "Lon": 121.572590803415,
        "Sequence": 49,
        "StationID": "1000543"
      },
      {
        "Name": "萬芳路口",
        "Lat": 24.9935653207503,
        "Lon": 121.571444566484,
        "Sequence": 50,
        "StationID": "2497"
      },
      {
        "Name": "萬壽橋頭(木柵)",
        "Lat": 24.9913094198003,
        "Lon": 121.570973024858,
        "Sequence": 51,
        "StationID": "1000521"
      },
      {
        "Name": "文山行政中心",
        "Lat": 24.990114359213134,
        "Lon": 121.56999253194654,
        "Sequence": 52,
        "StationID": "2381"
      },
      {
        "Name": "木柵市場",
        "Lat": 24.98849886,
        "Lon": 121.5685523,
        "Sequence": 53,
        "StationID": "50682"
      },
      {
        "Name": "永安街",
        "Lat": 24.98672,
        "Lon": 121.56893,
        "Sequence": 54,
        "StationID": "142"
      },
      {
        "Name": "指南路口",
        "Lat": 24.9871941238226,
        "Lon": 121.570722800802,
        "Sequence": 55,
        "StationID": "2426"
      },
      {
        "Name": "政大",
        "Lat": 24.9878362086283,
        "Lon": 121.574633255625,
        "Sequence": 56,
        "StationID": "2415"
      },
      {
        "Name": "萬興圖書館",
        "Lat": 24.989020423587586,
        "Lon": 121.57699279565435,
        "Sequence": 57,
        "StationID": "2520"
      },
      {
        "Name": "大誠高中",
        "Lat": 24.990413,
        "Lon": 121.576905,
        "Sequence": 58,
        "StationID": "2368"
      },
      {
        "Name": "萬壽橋頭(秀明)",
        "Lat": 24.991863,
        "Lon": 121.574627,
        "Sequence": 59,
        "StationID": "50671"
      },
      {
        "Name": "萬壽橋頭(新光)",
        "Lat": 24.992819,
        "Lon": 121.573853,
        "Sequence": 60,
        "StationID": "50669"
      },
      {
        "Name": "貓纜動物園站",
        "Lat": 24.9963006246947,
        "Lon": 121.576314002724,
        "Sequence": 61,
        "StationID": "2443"
      },
      {
        "Name": "捷運動物園站",
        "Lat": 24.99857,
        "Lon": 121.57996,
        "Sequence": 62,
        "StationID": "50672"
      }
    ]
  }
]