[
  {
    "Route": "38區",
    "SubRoute": "38區",
    "Direction": 0,
    "Stops": [
      {
        "Name": "東園公園",
        "Lat": 25.021365,
        "Lon": 121.495968,
        "Sequence": 1,
        "StationID": "1768"
      },
      {
        "Name": "楊聖廟",
        "Lat": 25.02281,
        "Lon": 121.49573,
        "Sequence": 2,
        "StationID": "1165604801"
      },
      {
        "Name": "民和街口",
        "Lat": 25.02425231,
        "Lon": 121.4952326,
        "Sequence": 3,
        "StationID": "1165610354"
      },
      {
        "Name": "寶興街",
        "Lat": 25.0259561,
        "Lon": 121.494436,
        "Sequence": 4,
        "StationID": "1841"
      },
      {
        "Name": "西園路二段",
        "Lat": 25.02715329,
        "Lon": 121.4941737,
        "Sequence": 5,
        "StationID": "4629"
      },
      {
        "Name": "華江高中(西園)",
        "Lat": 25.0295844111411,
        "Lon": 121.496162828269,
        "Sequence": 6,
        "StationID": "4627"
      },
      {
        "Name": "西園29服飾基地",
        "Lat": 25.03244,
        "Lon": 121.497718,
        "Sequence": 7,
        "StationID": "4628"
      },
      {
        "Name": "大理服飾",
        "Lat": 25.034147,
        "Lon": 121.498768,
        "Sequence": 8,
        "StationID": "4626"
      },
      {
        "Name": "捷運龍山寺站",
        "Lat": 25.035143,
        "Lon": 121.500164,
        "Sequence": 9,
        "StationID": "1794"
      }
    ]
  },
  {
    "Route": "38區",
    "SubRoute": "38區",
    "Direction": 1,
    "Stops": [
      {
        "Name": "龍山寺(剝皮寮)",
        "Lat": 25.036891,
        "Lon": 121.501585,
        "Sequence": 1,
        "StationID": "1165605675"
      },
      {
        "Name": "桂林路",
        "Lat": 25.0384724642396,
        "Lon": 121.500815164828,
        "Sequence": 2,
        "StationID": "4615"
      },
      {
        "Name": "龍山寺(西園)",
        "Lat": 25.036339844420194,
        "Lon": 121.49923722375564,
        "Sequence": 3,
        "StationID": "1165606057"
      },
      {
        "Name": "大理服飾",
        "Lat": 25.034146,
        "Lon": 121.498448,
        "Sequence": 4,
        "StationID": "1738"
      },
      {
        "Name": "西園29服飾基地",
        "Lat": 25.03244,
        "Lon": 121.49746,
        "Sequence": 5,
        "StationID": "1825"
      },
      {
        "Name": "華江高中(西園)",
        "Lat": 25.0296582647227,
        "Lon": 121.495950804601,
        "Sequence": 6,
        "StationID": "1804"
      },
      {
        "Name": "環南市場(西藏)",
        "Lat": 25.028698,
        "Lon": 121.493015,
        "Sequence": 7,
        "StationID": "4633"
      },
      {
        "Name": "雙園國中",
        "Lat": 25.02751471,
        "Lon": 121.4930716,
        "Sequence": 8,
        "StationID": "1839"
      },
      {
        "Name": "寶興街",
        "Lat": 25.02579874,
        "Lon": 121.4943587,
        "Sequence": 9,
        "StationID": "50720"
      },
      {
        "Name": "民和街口",
        "Lat": 25.024334,
        "Lon": 121.49501,
        "Sequence": 10,
        "StationID": "1165603281"
      },
      {
        "Name": "楊聖廟",
        "Lat": 25.022395,
        "Lon": 121.495706,
        "Sequence": 11,
        "StationID": "1165604800"
      },
      {
        "Name": "東園公園",
        "Lat": 25.021365,
        "Lon": 121.495968,
        "Sequence": 12,
        "StationID": "1768"
      }
    ]
  }
]