[
  {
    "Route": "藍50",
    "SubRoute": "藍50",
    "Direction": 0,
    "Geometry": [
      [
        25.0635736305567,
        121.581011427952
      ],
      [
        25.0618891240185,
        121.578109905621
      ],
      [
        25.0607574304361,
        121.575548820247
      ],
      [
        25.060592351228586,
        121.57444192102004
      ],
      [
        25.060519678779823,
        121.57432301646776
      ],
      [
        25.0602255308417,
        121.574374468906
      ],
      [
        25.0592839497281,
        121.574541876437
      ],
      [
        25.0584555334385,
        121.574781743945
      ],
      [
        25.0565564924506,
        121.575576305066
      ],
      [
        25.0572762754538,
        121.577077975612
      ],
      [
        25.0584623237587,
        121.579364212799
      ],
      [
        25.0588584251204,
        121.580173765639
      ],
      [
        25.0591685150072,
        121.580868381964
      ],
      [
        25.0610064039211,
        121.583304536344
      ],
      [
        25.0616446790898,
        121.584021640248
      ],
      [
        25.0624979708413,
        121.584688771755
      ],
      [
        25.0630479674149,
        121.585013592339
      ],
      [
        25.0629053759477,
        121.585373393602
      ],
      [
        25.0625160777637,
        121.586232918839
      ],
      [
        25.0625319213186,
        121.58642281395
      ],
      [
        25.0627039369255,
        121.58762215149
      ],
      [
        25.063063810901,
        121.588893949007
      ],
      [
        25.0634961109456,
        121.590400616793
      ],
      [
        25.0634666874307,
        121.590642982921
      ],
      [
        25.0624164896575,
        121.590807891833
      ],
      [
        25.061540563509,
        121.591000285563
      ],
      [
        25.0603545449979,
        121.591380075785
      ],
      [
        25.059743424108,
        121.591687406029
      ],
      [
        25.0568507438747,
        121.593368977206
      ],
      [
        25.0557484291366,
        121.593958651497
      ],
      [
        25.054981103579,
        121.594458375472
      ],
      [
        25.0531227524562,
        121.595050548383
      ],
      [
        25.0515450558819,
        121.595430338604
      ],
      [
        25.0508229756403,
        121.595547773738
      ],
      [
        25.050576245053,
        121.594420896174
      ],
      [
        25.0502831103612,
        121.593177832786
      ]
    ],
    "Stops": [
      {
        "Name": "東南客運停車場",
        "Lat": 25.0635997659263,
        "Lon": 121.580999258182,
        "Sequence": 1,
        "StationID": "4820"
      },
      {
        "Name": "新湖舊宗路口",
        "Lat": 25.0623176113037,
        "Lon": 121.578721077514,
        "Sequence": 2,
        "StationID": "4020"
      },
      {
        "Name": "新湖二路舊宗路口",
        "Lat": 25.061611,
        "Lon": 121.57743,
        "Sequence": 3,
        "StationID": "1165609742"
      },
      {
        "Name": "新湖二路民善街口",
        "Lat": 25.05953872,
        "Lon": 121.574481,
        "Sequence": 4,
        "StationID": "1165610500"
      },
      {
        "Name": "行善路",
        "Lat": 25.05707139,
        "Lon": 121.5766634,
        "Sequence": 5,
        "StationID": "1035"
      },
      {
        "Name": "潭美國小(行善)",
        "Lat": 25.059965,
        "Lon": 121.581902,
        "Sequence": 6,
        "StationID": "4808"
      },
      {
        "Name": "行善行愛路口",
        "Lat": 25.0613243529619,
        "Lon": 121.583819096678,
        "Sequence": 7,
        "StationID": "4672"
      },
      {
        "Name": "石潭路",
        "Lat": 25.06252175,
        "Lon": 121.5864994,
        "Sequence": 8,
        "StationID": "4809"
      },
      {
        "Name": "石潭成功路口",
        "Lat": 25.06326121,
        "Lon": 121.589569,
        "Sequence": 9,
        "StationID": "4810"
      },
      {
        "Name": "石潭公園(成功)",
        "Lat": 25.061041,
        "Lon": 121.591015,
        "Sequence": 10,
        "StationID": "50433"
      },
      {
        "Name": "南港分局(向陽)",
        "Lat": 25.05574836,
        "Lon": 121.5937887,
        "Sequence": 11,
        "StationID": "1647"
      },
      {
        "Name": "南港高中",
        "Lat": 25.0530195,
        "Lon": 121.5949802,
        "Sequence": 12,
        "StationID": "1000314"
      },
      {
        "Name": "捷運昆陽站",
        "Lat": 25.050346,
        "Lon": 121.593165,
        "Sequence": 13,
        "StationID": "1697"
      }
    ]
  },
  {
    "Route": "藍50",
    "SubRoute": "藍50",
    "Direction": 1,
    "Geometry": [
      [
        25.0502831103612,
        121.593177832786
      ],
      [
        25.049730226998,
        121.590806017868
      ],
      [
        25.0489255141059,
        121.587351675889
      ],
      [
        25.0487195248653,
        121.586559613388
      ],
      [
        25.0485316442671,
        121.585987429436
      ],
      [
        25.0481694639882,
        121.585265328292
      ],
      [
        25.0482034184348,
        121.585035455263
      ],
      [
        25.0495072620703,
        121.583993530775
      ],
      [
        25.0496249694938,
        121.584038505933
      ],
      [
        25.0499690366993,
        121.586084875611
      ],
      [
        25.0503696926887,
        121.588573501008
      ],
      [
        25.0506616953814,
        121.590583640699
      ],
      [
        25.0509197436938,
        121.592292696694
      ],
      [
        25.0511110159958,
        121.593504527334
      ],
      [
        25.0514018851375,
        121.595380990862
      ],
      [
        25.0514177301293,
        121.595584628381
      ],
      [
        25.0539008413886,
        121.594967469272
      ],
      [
        25.0551344558998,
        121.594522714934
      ],
      [
        25.056983722652,
        121.593420823569
      ],
      [
        25.058559085781,
        121.592513824553
      ],
      [
        25.0600031508587,
        121.591684282754
      ],
      [
        25.060487519973,
        121.591446913866
      ],
      [
        25.0623797099387,
        121.590949688511
      ],
      [
        25.06265116974898,
        121.59094458355023
      ],
      [
        25.06281143560763,
        121.59101048245871
      ],
      [
        25.06284906885579,
        121.59119958367441
      ],
      [
        25.062814679853616,
        121.59141447141948
      ],
      [
        25.06272578748253,
        121.59150329168746
      ],
      [
        25.062627811144793,
        121.59152048270705
      ],
      [
        25.0625363232355,
        121.59149684505509
      ],
      [
        25.06241239269624,
        121.59138223825772
      ],
      [
        25.062201515836065,
        121.59091593185092
      ],
      [
        25.062111325314294,
        121.5906888671336
      ],
      [
        25.061959493638476,
        121.59011654943916
      ],
      [
        25.061669455683475,
        121.58931645073497
      ],
      [
        25.06145857754464,
        121.58890171738693
      ],
      [
        25.0615143614446,
        121.588689307887
      ],
      [
        25.062610452923,
        121.587769724873
      ],
      [
        25.0629224255242,
        121.587668180184
      ],
      [
        25.0636254866388,
        121.58768522265
      ],
      [
        25.0652155605733,
        121.587728538915
      ],
      [
        25.0652554408031,
        121.58779528857
      ],
      [
        25.0650547530632,
        121.588160281365
      ],
      [
        25.0646610953878,
        121.58893855394
      ],
      [
        25.06423077207,
        121.589934117944
      ],
      [
        25.0641960373865,
        121.589989505956
      ],
      [
        25.0638255334831,
        121.590322544129
      ],
      [
        25.0636248434008,
        121.59038574327
      ],
      [
        25.0635598763487,
        121.590358759367
      ],
      [
        25.0629659207576,
        121.588326137641
      ],
      [
        25.0627214779772,
        121.587476606883
      ],
      [
        25.0625653059454,
        121.586347230698
      ],
      [
        25.0630428748653,
        121.585177876596
      ],
      [
        25.0631537792297,
        121.584913022889
      ],
      [
        25.0622280642124,
        121.584335841698
      ],
      [
        25.0616486400069,
        121.583873597021
      ],
      [
        25.0610918469777,
        121.583238947572
      ],
      [
        25.060301920819,
        121.582174535505
      ],
      [
        25.0592539593454,
        121.580800294573
      ],
      [
        25.0579705904299,
        121.578306671936
      ],
      [
        25.0573979364715,
        121.577194786091
      ],
      [
        25.0566442020837,
        121.575663132107
      ],
      [
        25.0566668368175,
        121.57559566937
      ],
      [
        25.0568931839257,
        121.575470738376
      ],
      [
        25.0583112390449,
        121.574913546144
      ],
      [
        25.0593659988509,
        121.57457998039
      ],
      [
        25.0598333948749,
        121.574501898519
      ],
      [
        25.0604490421227,
        121.574406326309
      ],
      [
        25.0604977052843,
        121.5744869068
      ],
      [
        25.060624455754,
        121.575425138563
      ],
      [
        25.0607529036408,
        121.575763076902
      ],
      [
        25.0610086673141,
        121.576365868947
      ],
      [
        25.0616758005777,
        121.577911889995
      ],
      [
        25.0618998750574,
        121.578326660895
      ],
      [
        25.0632346940852,
        121.580609150152
      ],
      [
        25.0635923031565,
        121.58126753649
      ],
      [
        25.0637022476973,
        121.581473531229
      ]
    ],
    "Stops": [
      {
        "Name": "陸軍後勤指揮部",
        "Lat": 25.04983,
        "Lon": 121.59077,
        "Sequence": 1,
        "StationID": "3923"
      },
      {
        "Name": "國華新村",
        "Lat": 25.04908468,
        "Lon": 121.5878431,
        "Sequence": 2,
        "StationID": "3924"
      },
      {
        "Name": "南港高中",
        "Lat": 25.0529513842885,
        "Lon": 121.595233108141,
        "Sequence": 3,
        "StationID": "1000319"
      },
      {
        "Name": "南港分局(向陽)",
        "Lat": 25.0553345135907,
        "Lon": 121.594415258716,
        "Sequence": 4,
        "StationID": "1646"
      },
      {
        "Name": "石潭公園(成功)",
        "Lat": 25.061289,
        "Lon": 121.591281,
        "Sequence": 5,
        "StationID": "50434"
      },
      {
        "Name": "金莊路",
        "Lat": 25.06311911,
        "Lon": 121.5876512,
        "Sequence": 6,
        "StationID": "1165610401"
      },
      {
        "Name": "石潭成功路口",
        "Lat": 25.06333574928623,
        "Lon": 121.58944921111004,
        "Sequence": 7,
        "StationID": "1165604795"
      },
      {
        "Name": "行善石潭路口",
        "Lat": 25.062312,
        "Lon": 121.584293,
        "Sequence": 8,
        "StationID": "1165606689"
      },
      {
        "Name": "行善行愛路口",
        "Lat": 25.061151,
        "Lon": 121.583175,
        "Sequence": 9,
        "StationID": "4673"
      },
      {
        "Name": "潭美國小(行善)",
        "Lat": 25.060371,
        "Lon": 121.582062,
        "Sequence": 10,
        "StationID": "4814"
      },
      {
        "Name": "舊宗路一段(行善)",
        "Lat": 25.058701,
        "Lon": 121.579639,
        "Sequence": 11,
        "StationID": "20241"
      },
      {
        "Name": "行善路",
        "Lat": 25.05717396,
        "Lon": 121.5764993,
        "Sequence": 12,
        "StationID": "1000280"
      },
      {
        "Name": "新湖二路民善街口",
        "Lat": 25.060503568858945,
        "Lon": 121.57482315082946,
        "Sequence": 13,
        "StationID": "1165608575"
      },
      {
        "Name": "新湖二路舊宗路口",
        "Lat": 25.061517,
        "Lon": 121.577505,
        "Sequence": 14,
        "StationID": "1165609743"
      },
      {
        "Name": "新湖舊宗路口",
        "Lat": 25.062,
        "Lon": 121.57861,
        "Sequence": 15,
        "StationID": "1124"
      },
      {
        "Name": "精技大樓",
        "Lat": 25.063647810032915,
        "Lon": 121.58149990509064,
        "Sequence": 16,
        "StationID": "1001443"
      }
    ]
  }
]