[
  {
    "Route": "557",
    "SubRoute": "557",
    "Direction": 0,
    "Geometry": [
      [
        25.095401657712,
        121.518247871664
      ],
      [
        25.0956948913577,
        121.517975151868
      ],
      [
        25.0953479999909,
        121.517418999985
      ],
      [
        25.0948318731081,
        121.51666776309
      ],
      [
        25.094753530731,
        121.516699053256
      ],
      [
        25.0930933272837,
        121.518077661169
      ],
      [
        25.0923648975763,
        121.518668493132
      ],
      [
        25.0932250109098,
        121.520006607889
      ],
      [
        25.0939917735125,
        121.52114593806
      ],
      [
        25.0942251350899,
        121.521477245703
      ],
      [
        25.0947218603941,
        121.523466932157
      ],
      [
        25.0949585542926,
        121.52458601575
      ],
      [
        25.0952569213011,
        121.525951739477
      ],
      [
        25.0956778008998,
        121.527750924037
      ],
      [
        25.0959444961336,
        121.529182909292
      ],
      [
        25.0964395476202,
        121.53189226957
      ],
      [
        25.0965512256248,
        121.532389231034
      ],
      [
        25.0969687671118,
        121.533018715556
      ],
      [
        25.0978830196425,
        121.534454382007
      ],
      [
        25.0986330849844,
        121.535562422012
      ],
      [
        25.0988447692598,
        121.535860598891
      ],
      [
        25.0989531114638,
        121.536121963809
      ],
      [
        25.0989364434386,
        121.536633650057
      ],
      [
        25.0982513856407,
        121.537434310193
      ],
      [
        25.0980280326339,
        121.5377067187
      ],
      [
        25.0978030124012,
        121.537916546873
      ],
      [
        25.0972879645328,
        121.539856537181
      ],
      [
        25.0971096141183,
        121.542278764169
      ],
      [
        25.0970462746561,
        121.542374475266
      ],
      [
        25.0962078571065,
        121.543243237529
      ],
      [
        25.0959903343184,
        121.543500921251
      ],
      [
        25.0956636326992,
        121.544075187831
      ],
      [
        25.094818538239,
        121.545589999998
      ],
      [
        25.0947256108292,
        121.545646598387
      ],
      [
        25.0946080971426,
        121.54569031259
      ],
      [
        25.0945659999983,
        121.545748000001
      ]
    ],
    "Stops": [
      {
        "Name": "天文科學館",
        "Lat": 25.09549,
        "Lon": 121.51822,
        "Sequence": 1,
        "StationID": "572"
      },
      {
        "Name": "國立科教館",
        "Lat": 25.0953476878965,
        "Lon": 121.517419129378,
        "Sequence": 2,
        "StationID": "790"
      },
      {
        "Name": "士林高商",
        "Lat": 25.09415239272792,
        "Lon": 121.51711224794106,
        "Sequence": 3,
        "StationID": "580"
      },
      {
        "Name": "士林區行政中心(中正)",
        "Lat": 25.092636,
        "Lon": 121.519189,
        "Sequence": 4,
        "StationID": "581"
      },
      {
        "Name": "士林國中",
        "Lat": 25.094485,
        "Lon": 121.522781,
        "Sequence": 5,
        "StationID": "1165604807"
      },
      {
        "Name": "捷運士林站(中正)",
        "Lat": 25.09543483,
        "Lon": 121.5267653,
        "Sequence": 6,
        "StationID": "10210"
      },
      {
        "Name": "福林國小",
        "Lat": 25.09583325,
        "Lon": 121.5290055,
        "Sequence": 7,
        "StationID": "896"
      },
      {
        "Name": "士林官邸(中正)",
        "Lat": 25.096324,
        "Lon": 121.531395,
        "Sequence": 8,
        "StationID": "1000618"
      },
      {
        "Name": "泰北中學",
        "Lat": 25.0972847950979,
        "Lon": 121.533481875716,
        "Sequence": 9,
        "StationID": "777"
      },
      {
        "Name": "雙溪公園",
        "Lat": 25.097779,
        "Lon": 121.53792,
        "Sequence": 10,
        "StationID": "950"
      },
      {
        "Name": "梅林新村",
        "Lat": 25.0972328685249,
        "Lon": 121.540175948519,
        "Sequence": 11,
        "StationID": "805"
      },
      {
        "Name": "東吳大學(錢穆故居)",
        "Lat": 25.097131,
        "Lon": 121.541888,
        "Sequence": 12,
        "StationID": "729"
      },
      {
        "Name": "東吳大學",
        "Lat": 25.094566,
        "Lon": 121.545748,
        "Sequence": 13,
        "StationID": "1165603282"
      }
    ]
  },
  {
    "Route": "557",
    "SubRoute": "557",
    "Direction": 1,
    "Geometry": [
      [
        25.0945659999983,
        121.545748000001
      ],
      [
        25.0945626751555,
        121.545954438405
      ],
      [
        25.0946535191128,
        121.54599585186
      ],
      [
        25.0951635775107,
        121.545070951358
      ],
      [
        25.0959047955126,
        121.543716037277
      ],
      [
        25.096030642165,
        121.543514951944
      ],
      [
        25.096213577962,
        121.54329592078
      ],
      [
        25.0966015342936,
        121.54289697116
      ],
      [
        25.0969890726877,
        121.542525170361
      ],
      [
        25.0973182710042,
        121.542465350926
      ],
      [
        25.0974916206478,
        121.540089138889
      ],
      [
        25.0975099556918,
        121.539879310715
      ],
      [
        25.097994999951,
        121.5380387127
      ],
      [
        25.0984533733424,
        121.537447880737
      ],
      [
        25.0992384379607,
        121.536603046248
      ],
      [
        25.0992417715577,
        121.536318673855
      ],
      [
        25.0991342630094,
        121.536220201861
      ],
      [
        25.0989792505176,
        121.535966199335
      ],
      [
        25.0988967437886,
        121.535809748504
      ],
      [
        25.0985575488736,
        121.535297141957
      ],
      [
        25.0975666276289,
        121.533798895172
      ],
      [
        25.0967482156366,
        121.532508635964
      ],
      [
        25.0966232031395,
        121.532315373172
      ],
      [
        25.0965831991134,
        121.532169965929
      ],
      [
        25.0962548322383,
        121.530334889708
      ],
      [
        25.095859790718,
        121.528142737472
      ],
      [
        25.0953680705879,
        121.52590088909
      ],
      [
        25.0947763369636,
        121.523290921105
      ],
      [
        25.0945029717312,
        121.522019067877
      ],
      [
        25.0943412859099,
        121.521442960698
      ],
      [
        25.0935645242432,
        121.520165585675
      ],
      [
        25.0925893980022,
        121.518650773509
      ],
      [
        25.0926010662254,
        121.518573468393
      ],
      [
        25.0930877968297,
        121.518181421015
      ],
      [
        25.0947596683693,
        121.51682305968
      ],
      [
        25.094833010167,
        121.516819378484
      ],
      [
        25.0955514240878,
        121.517896128323
      ],
      [
        25.0954897506685,
        121.518024970184
      ],
      [
        25.0948971842039,
        121.518580830785
      ]
    ],
    "Stops": [
      {
        "Name": "東吳大學(錢穆故居)",
        "Lat": 25.097411,
        "Lon": 121.541307,
        "Sequence": 1,
        "StationID": "728"
      },
      {
        "Name": "梅林新村",
        "Lat": 25.097585,
        "Lon": 121.539849,
        "Sequence": 2,
        "StationID": "807"
      },
      {
        "Name": "雙溪公園",
        "Lat": 25.098005332485762,
        "Lon": 121.53824562909286,
        "Sequence": 3,
        "StationID": "9446"
      },
      {
        "Name": "泰北中學",
        "Lat": 25.0977513146504,
        "Lon": 121.534030294965,
        "Sequence": 4,
        "StationID": "778"
      },
      {
        "Name": "士林官邸(中正)",
        "Lat": 25.0965,
        "Lon": 121.53144,
        "Sequence": 5,
        "StationID": "3953"
      },
      {
        "Name": "福林國小",
        "Lat": 25.0962,
        "Lon": 121.52976,
        "Sequence": 6,
        "StationID": "3954"
      },
      {
        "Name": "捷運士林站(中正)",
        "Lat": 25.095428,
        "Lon": 121.525882,
        "Sequence": 7,
        "StationID": "1165605299"
      },
      {
        "Name": "士林國中",
        "Lat": 25.094772,
        "Lon": 121.522929,
        "Sequence": 8,
        "StationID": "1165604814"
      },
      {
        "Name": "士林區行政中心(中正)",
        "Lat": 25.093132,
        "Lon": 121.519396,
        "Sequence": 9,
        "StationID": "575"
      },
      {
        "Name": "士林高商",
        "Lat": 25.0939491036857,
        "Lon": 121.517616379607,
        "Sequence": 10,
        "StationID": "7255"
      },
      {
        "Name": "國立科教館",
        "Lat": 25.095042,
        "Lon": 121.517199,
        "Sequence": 11,
        "StationID": "50651"
      },
      {
        "Name": "天文科學館",
        "Lat": 25.0948969338159,
        "Lon": 121.518581144123,
        "Sequence": 12,
        "StationID": "632"
      }
    ]
  }
]